{
"type": "FeatureCollection",
"crs": { "type": "name", "properties": { "name": "urn:ogc:def:crs:OGC:1.3:CRS84" } },
"features": [
{ "type": "Feature", "properties": { "CodIstat": 90003, "DataSospetto": "2021-09-10T00:00:00", "Categoria": "UCCELLI SELVATICI", "Regione": "SARDEGNA", "Prov": "SS", "Comune": "ALGHERO", "NumCapiMalati": 1, "NumFocolai": 1 }, "geometry": { "type": "Point", "coordinates": [ 8.29892032165, 40.5999 ] } },
{ "type": "Feature", "properties": { "CodIstat": 33004, "DataSospetto": "2021-08-04T00:00:00", "Categoria": "UCCELLI TARGET", "Regione": "EMILIA ROMAGNA", "Prov": "PC", "Comune": "BETTOLA", "NumCapiMalati": 1, "NumFocolai": 1 }, "geometry": { "type": "Point", "coordinates": [ 9.59641052041, 44.7786 ] } },
{ "type": "Feature", "properties": { "CodIstat": 35022, "DataSospetto": "2021-08-12T00:00:00", "Categoria": "INSETTI", "Regione": "EMILIA ROMAGNA", "Prov": "RE", "Comune": "GATTATICO", "NumCapiMalati": 1, "NumFocolai": 1 }, "geometry": { "type": "Point", "coordinates": [ 10.4714, 44.7999 ] } },
{ "type": "Feature", "properties": { "CodIstat": 15130, "DataSospetto": "2021-09-17T00:00:00", "Categoria": "UCCELLI TARGET", "Regione": "LOMBARDIA", "Prov": "MI", "Comune": "MAGENTA", "NumCapiMalati": 1, "NumFocolai": 1 }, "geometry": { "type": "Point", "coordinates": [ 8.862490456170001, 45.4534 ] } },
{ "type": "Feature", "properties": { "CodIstat": 33037, "DataSospetto": "2021-08-31T00:00:00", "Categoria": "UCCELLI SELVATICI", "Regione": "EMILIA ROMAGNA", "Prov": "PC", "Comune": "PONTENURE", "NumCapiMalati": 1, "NumFocolai": 1 }, "geometry": { "type": "Point", "coordinates": [ 9.795807926949999, 44.9933 ] } },
{ "type": "Feature", "properties": { "CodIstat": 27005, "DataSospetto": "2021-08-10T00:00:00", "Categoria": "INSETTI", "Regione": "VENETO", "Prov": "VE", "Comune": "CAORLE", "NumCapiMalati": 1, "NumFocolai": 1 }, "geometry": { "type": "Point", "coordinates": [ 12.8699, 45.6397 ] } },
{ "type": "Feature", "properties": { "CodIstat": 35008, "DataSospetto": "2021-08-10T00:00:00", "Categoria": "UCCELLI TARGET", "Regione": "EMILIA ROMAGNA", "Prov": "RE", "Comune": "CADELBOSCO DI SOPRA", "NumCapiMalati": 3, "NumFocolai": 2 }, "geometry": { "type": "Point", "coordinates": [ 10.6187, 44.7961 ] } },
{ "type": "Feature", "properties": { "CodIstat": 35002, "DataSospetto": "2021-08-12T00:00:00", "Categoria": "INSETTI", "Regione": "EMILIA ROMAGNA", "Prov": "RE", "Comune": "BAGNOLO IN PIANO", "NumCapiMalati": 1, "NumFocolai": 1 }, "geometry": { "type": "Point", "coordinates": [ 10.6788, 44.7841 ] } },
{ "type": "Feature", "properties": { "CodIstat": 98011, "DataSospetto": "2021-08-25T00:00:00", "Categoria": "INSETTI", "Regione": "LOMBARDIA", "Prov": "LO", "Comune": "CASELLE LANDI", "NumCapiMalati": 1, "NumFocolai": 1 }, "geometry": { "type": "Point", "coordinates": [ 9.807957309660001, 45.0983 ] } },
{ "type": "Feature", "properties": { "CodIstat": 18024, "DataSospetto": "2021-08-02T00:00:00", "Categoria": "INSETTI", "Regione": "LOMBARDIA", "Prov": "PV", "Comune": "BRONI", "NumCapiMalati": 1, "NumFocolai": 1 }, "geometry": { "type": "Point", "coordinates": [ 9.25017132104, 45.0708 ] } },
{ "type": "Feature", "properties": { "CodIstat": 33014, "DataSospetto": "2021-08-03T00:00:00", "Categoria": "INSETTI", "Regione": "EMILIA ROMAGNA", "Prov": "PC", "Comune": "CASTELVETRO PIACENTINO", "NumCapiMalati": 1, "NumFocolai": 1 }, "geometry": { "type": "Point", "coordinates": [ 9.991470188, 45.0882 ] } },
{ "type": "Feature", "properties": { "CodIstat": 33014, "DataSospetto": "2021-08-03T00:00:00", "Categoria": "UCCELLI SELVATICI", "Regione": "EMILIA ROMAGNA", "Prov": "PC", "Comune": "CASTELVETRO PIACENTINO", "NumCapiMalati": 1, "NumFocolai": 1 }, "geometry": { "type": "Point", "coordinates": [ 9.991470188, 45.0882 ] } },
{ "type": "Feature", "properties": { "CodIstat": 33014, "DataSospetto": "2021-08-03T00:00:00", "Categoria": "UCCELLI TARGET", "Regione": "EMILIA ROMAGNA", "Prov": "PC", "Comune": "CASTELVETRO PIACENTINO", "NumCapiMalati": 1, "NumFocolai": 1 }, "geometry": { "type": "Point", "coordinates": [ 9.991470188, 45.0882 ] } },
{ "type": "Feature", "properties": { "CodIstat": 38018, "DataSospetto": "2021-08-12T00:00:00", "Categoria": "INSETTI", "Regione": "EMILIA ROMAGNA", "Prov": "FE", "Comune": "POGGIO RENATICO", "NumCapiMalati": 1, "NumFocolai": 1 }, "geometry": { "type": "Point", "coordinates": [ 11.4969, 44.7704 ] } },
{ "type": "Feature", "properties": { "CodIstat": 38018, "DataSospetto": "2021-08-12T00:00:00", "Categoria": "UCCELLI SELVATICI", "Regione": "EMILIA ROMAGNA", "Prov": "FE", "Comune": "POGGIO RENATICO", "NumCapiMalati": 1, "NumFocolai": 1 }, "geometry": { "type": "Point", "coordinates": [ 11.4969, 44.7704 ] } },
{ "type": "Feature", "properties": { "CodIstat": 38007, "DataSospetto": "2021-08-24T00:00:00", "Categoria": "INSETTI", "Regione": "EMILIA ROMAGNA", "Prov": "FE", "Comune": "COPPARO", "NumCapiMalati": 1, "NumFocolai": 1 }, "geometry": { "type": "Point", "coordinates": [ 11.8607, 44.9024 ] } },
{ "type": "Feature", "properties": { "CodIstat": 38007, "DataSospetto": "2021-08-24T00:00:00", "Categoria": "UCCELLI SELVATICI", "Regione": "EMILIA ROMAGNA", "Prov": "FE", "Comune": "COPPARO", "NumCapiMalati": 2, "NumFocolai": 2 }, "geometry": { "type": "Point", "coordinates": [ 11.8607, 44.9024 ] } },
{ "type": "Feature", "properties": { "CodIstat": 16068, "DataSospetto": "2021-09-24T00:00:00", "Categoria": "UCCELLI TARGET", "Regione": "LOMBARDIA", "Prov": "BG", "Comune": "CENATE SOPRA", "NumCapiMalati": 1, "NumFocolai": 1 }, "geometry": { "type": "Point", "coordinates": [ 9.821774630869999, 45.7199 ] } },
{ "type": "Feature", "properties": { "CodIstat": 36015, "DataSospetto": "2021-08-04T00:00:00", "Categoria": "INSETTI", "Regione": "EMILIA ROMAGNA", "Prov": "MO", "Comune": "FORMIGINE", "NumCapiMalati": 2, "NumFocolai": 1 }, "geometry": { "type": "Point", "coordinates": [ 10.846, 44.5799 ] } },
{ "type": "Feature", "properties": { "CodIstat": 36015, "DataSospetto": "2021-08-04T00:00:00", "Categoria": "UCCELLI TARGET", "Regione": "EMILIA ROMAGNA", "Prov": "MO", "Comune": "FORMIGINE", "NumCapiMalati": 3, "NumFocolai": 1 }, "geometry": { "type": "Point", "coordinates": [ 10.846, 44.5799 ] } },
{ "type": "Feature", "properties": { "CodIstat": 33025, "DataSospetto": "2021-08-19T00:00:00", "Categoria": "UCCELLI SELVATICI", "Regione": "EMILIA ROMAGNA", "Prov": "PC", "Comune": "GROPPARELLO", "NumCapiMalati": 1, "NumFocolai": 1 }, "geometry": { "type": "Point", "coordinates": [ 9.70933791987, 44.8164 ] } },
{ "type": "Feature", "properties": { "CodIstat": 18068, "DataSospetto": "2021-10-04T00:00:00", "Categoria": "INSETTI", "Regione": "LOMBARDIA", "Prov": "PV", "Comune": "GAMBOLO'", "NumCapiMalati": 1, "NumFocolai": 1 }, "geometry": { "type": "Point", "coordinates": [ 8.862169556790001, 45.2584 ] } },
{ "type": "Feature", "properties": { "CodIstat": 23025, "DataSospetto": "2021-08-07T00:00:00", "Categoria": "UCCELLI SELVATICI", "Regione": "VENETO", "Prov": "VR", "Comune": "CEREA", "NumCapiMalati": 1, "NumFocolai": 1 }, "geometry": { "type": "Point", "coordinates": [ 11.218, 45.1737 ] } },
{ "type": "Feature", "properties": { "CodIstat": 4086, "DataSospetto": "2021-11-17T00:00:00", "Categoria": "UCCELLI SELVATICI", "Regione": "PIEMONTE", "Prov": "CN", "Comune": "FARIGLIANO", "NumCapiMalati": 1, "NumFocolai": 1 }, "geometry": { "type": "Point", "coordinates": [ 7.92214409999, 44.51 ] } },
{ "type": "Feature", "properties": { "CodIstat": 37037, "DataSospetto": "2021-07-20T00:00:00", "Categoria": "INSETTI", "Regione": "EMILIA ROMAGNA", "Prov": "BO", "Comune": "MEDICINA", "NumCapiMalati": 1, "NumFocolai": 1 }, "geometry": { "type": "Point", "coordinates": [ 11.6689, 44.5142 ] } },
{ "type": "Feature", "properties": { "CodIstat": 37045, "DataSospetto": "2021-08-17T00:00:00", "Categoria": "INSETTI", "Regione": "EMILIA ROMAGNA", "Prov": "BO", "Comune": "MORDANO", "NumCapiMalati": 1, "NumFocolai": 1 }, "geometry": { "type": "Point", "coordinates": [ 11.7962, 44.4095 ] } },
{ "type": "Feature", "properties": { "CodIstat": 37003, "DataSospetto": "2021-08-17T00:00:00", "Categoria": "INSETTI", "Regione": "EMILIA ROMAGNA", "Prov": "BO", "Comune": "BARICELLA", "NumCapiMalati": 3, "NumFocolai": 1 }, "geometry": { "type": "Point", "coordinates": [ 11.5712, 44.6685 ] } },
{ "type": "Feature", "properties": { "CodIstat": 38001, "DataSospetto": "2021-07-15T00:00:00", "Categoria": "INSETTI", "Regione": "EMILIA ROMAGNA", "Prov": "FE", "Comune": "ARGENTA", "NumCapiMalati": 1, "NumFocolai": 1 }, "geometry": { "type": "Point", "coordinates": [ 11.8887, 44.6222 ] } },
{ "type": "Feature", "properties": { "CodIstat": 38001, "DataSospetto": "2021-07-15T00:00:00", "Categoria": "UCCELLI SELVATICI", "Regione": "EMILIA ROMAGNA", "Prov": "FE", "Comune": "ARGENTA", "NumCapiMalati": 1, "NumFocolai": 1 }, "geometry": { "type": "Point", "coordinates": [ 11.8887, 44.6222 ] } },
{ "type": "Feature", "properties": { "CodIstat": 38001, "DataSospetto": "2021-07-15T00:00:00", "Categoria": "UCCELLI TARGET", "Regione": "EMILIA ROMAGNA", "Prov": "FE", "Comune": "ARGENTA", "NumCapiMalati": 2, "NumFocolai": 1 }, "geometry": { "type": "Point", "coordinates": [ 11.8887, 44.6222 ] } },
{ "type": "Feature", "properties": { "CodIstat": 35023, "DataSospetto": "2021-09-12T00:00:00", "Categoria": "UCCELLI TARGET", "Regione": "EMILIA ROMAGNA", "Prov": "RE", "Comune": "GUALTIERI", "NumCapiMalati": 1, "NumFocolai": 1 }, "geometry": { "type": "Point", "coordinates": [ 10.6166, 44.8817 ] } },
{ "type": "Feature", "properties": { "CodIstat": 35026, "DataSospetto": "2021-08-12T00:00:00", "Categoria": "INSETTI", "Regione": "EMILIA ROMAGNA", "Prov": "RE", "Comune": "LUZZARA", "NumCapiMalati": 3, "NumFocolai": 1 }, "geometry": { "type": "Point", "coordinates": [ 10.7111, 44.9539 ] } },
{ "type": "Feature", "properties": { "CodIstat": 17038, "DataSospetto": "2021-08-30T00:00:00", "Categoria": "UCCELLI SELVATICI", "Regione": "LOMBARDIA", "Prov": "BS", "Comune": "CAPRIOLO", "NumCapiMalati": 1, "NumFocolai": 1 }, "geometry": { "type": "Point", "coordinates": [ 9.93162109623, 45.6352 ] } },
{ "type": "Feature", "properties": { "CodIstat": 3100, "DataSospetto": "2021-09-20T00:00:00", "Categoria": "UCCELLI TARGET", "Regione": "PIEMONTE", "Prov": "NO", "Comune": "MOMO", "NumCapiMalati": 1, "NumFocolai": 1 }, "geometry": { "type": "Point", "coordinates": [ 8.564615947269999, 45.5697 ] } },
{ "type": "Feature", "properties": { "CodIstat": 16043, "DataSospetto": "2021-07-20T00:00:00", "Categoria": "UCCELLI TARGET", "Regione": "LOMBARDIA", "Prov": "BG", "Comune": "CALCINATE", "NumCapiMalati": 1, "NumFocolai": 1 }, "geometry": { "type": "Point", "coordinates": [ 9.790494428060001, 45.6208 ] } },
{ "type": "Feature", "properties": { "CodIstat": 23054, "DataSospetto": "2021-08-12T00:00:00", "Categoria": "INSETTI", "Regione": "VENETO", "Prov": "VR", "Comune": "NOGAROLE ROCCA", "NumCapiMalati": 1, "NumFocolai": 1 }, "geometry": { "type": "Point", "coordinates": [ 10.8792, 45.2804 ] } },
{ "type": "Feature", "properties": { "CodIstat": 6003, "DataSospetto": "2021-07-22T00:00:00", "Categoria": "INSETTI", "Regione": "PIEMONTE", "Prov": "AL", "Comune": "ALESSANDRIA", "NumCapiMalati": 1, "NumFocolai": 1 }, "geometry": { "type": "Point", "coordinates": [ 8.64439705305, 44.9092 ] } },
{ "type": "Feature", "properties": { "CodIstat": 4003, "DataSospetto": "2021-11-11T00:00:00", "Categoria": "UCCELLI SELVATICI", "Regione": "PIEMONTE", "Prov": "CN", "Comune": "ALBA", "NumCapiMalati": 1, "NumFocolai": 1 }, "geometry": { "type": "Point", "coordinates": [ 8.030698102740001, 44.6877 ] } },
{ "type": "Feature", "properties": { "CodIstat": 91031, "DataSospetto": "2021-09-02T00:00:00", "Categoria": "UCCELLI SELVATICI", "Regione": "SARDEGNA", "Prov": "NU", "Comune": "GIRASOLE", "NumCapiMalati": 1, "NumFocolai": 1 }, "geometry": { "type": "Point", "coordinates": [ 9.64425257794, 39.9535 ] } },
{ "type": "Feature", "properties": { "CodIstat": 16133, "DataSospetto": "2021-09-09T00:00:00", "Categoria": "EQUIDI", "Regione": "LOMBARDIA", "Prov": "BG", "Comune": "MARTINENGO", "NumCapiMalati": 1, "NumFocolai": 1 }, "geometry": { "type": "Point", "coordinates": [ 9.773393994239999, 45.5607 ] } },
{ "type": "Feature", "properties": { "CodIstat": 38010, "DataSospetto": "2021-08-24T00:00:00", "Categoria": "UCCELLI SELVATICI", "Regione": "EMILIA ROMAGNA", "Prov": "FE", "Comune": "JOLANDA DI SAVOIA", "NumCapiMalati": 1, "NumFocolai": 1 }, "geometry": { "type": "Point", "coordinates": [ 11.9789, 44.8756 ] } },
{ "type": "Feature", "properties": { "CodIstat": 37024, "DataSospetto": "2021-08-10T00:00:00", "Categoria": "INSETTI", "Regione": "EMILIA ROMAGNA", "Prov": "BO", "Comune": "CREVALCORE", "NumCapiMalati": 1, "NumFocolai": 1 }, "geometry": { "type": "Point", "coordinates": [ 11.1856, 44.7525 ] } },
{ "type": "Feature", "properties": { "CodIstat": 36027, "DataSospetto": "2021-08-04T00:00:00", "Categoria": "INSETTI", "Regione": "EMILIA ROMAGNA", "Prov": "MO", "Comune": "NONANTOLA", "NumCapiMalati": 2, "NumFocolai": 1 }, "geometry": { "type": "Point", "coordinates": [ 11.0558, 44.6853 ] } },
{ "type": "Feature", "properties": { "CodIstat": 36028, "DataSospetto": "2021-07-22T00:00:00", "Categoria": "INSETTI", "Regione": "EMILIA ROMAGNA", "Prov": "MO", "Comune": "NOVI DI MODENA", "NumCapiMalati": 1, "NumFocolai": 1 }, "geometry": { "type": "Point", "coordinates": [ 10.9295, 44.8736 ] } },
{ "type": "Feature", "properties": { "CodIstat": 20021, "DataSospetto": "2021-08-02T00:00:00", "Categoria": "UCCELLI TARGET", "Regione": "LOMBARDIA", "Prov": "MN", "Comune": "CURTATONE", "NumCapiMalati": 1, "NumFocolai": 1 }, "geometry": { "type": "Point", "coordinates": [ 10.7151, 45.1076 ] } },
{ "type": "Feature", "properties": { "CodIstat": 35021, "DataSospetto": "2021-07-29T00:00:00", "Categoria": "INSETTI", "Regione": "EMILIA ROMAGNA", "Prov": "RE", "Comune": "FABBRICO", "NumCapiMalati": 5, "NumFocolai": 1 }, "geometry": { "type": "Point", "coordinates": [ 10.8128, 44.8759 ] } },
{ "type": "Feature", "properties": { "CodIstat": 35020, "DataSospetto": "2021-07-29T00:00:00", "Categoria": "INSETTI", "Regione": "EMILIA ROMAGNA", "Prov": "RE", "Comune": "CORREGGIO", "NumCapiMalati": 2, "NumFocolai": 1 }, "geometry": { "type": "Point", "coordinates": [ 10.7655, 44.7633 ] } },
{ "type": "Feature", "properties": { "CodIstat": 23032, "DataSospetto": "2021-08-12T00:00:00", "Categoria": "INSETTI", "Regione": "VENETO", "Prov": "VR", "Comune": "ERBE'", "NumCapiMalati": 1, "NumFocolai": 1 }, "geometry": { "type": "Point", "coordinates": [ 10.9733, 45.2416 ] } },
{ "type": "Feature", "properties": { "CodIstat": 27024, "DataSospetto": "2021-08-14T00:00:00", "Categoria": "UCCELLI SELVATICI", "Regione": "VENETO", "Prov": "VE", "Comune": "MIRANO", "NumCapiMalati": 1, "NumFocolai": 1 }, "geometry": { "type": "Point", "coordinates": [ 12.0876, 45.4857 ] } },
{ "type": "Feature", "properties": { "CodIstat": 38003, "DataSospetto": "2021-08-10T00:00:00", "Categoria": "UCCELLI SELVATICI", "Regione": "EMILIA ROMAGNA", "Prov": "FE", "Comune": "BONDENO", "NumCapiMalati": 1, "NumFocolai": 1 }, "geometry": { "type": "Point", "coordinates": [ 11.3735, 44.9031 ] } },
{ "type": "Feature", "properties": { "CodIstat": 20026, "DataSospetto": "2021-08-24T00:00:00", "Categoria": "EQUIDI", "Regione": "LOMBARDIA", "Prov": "MN", "Comune": "GOITO", "NumCapiMalati": 1, "NumFocolai": 1 }, "geometry": { "type": "Point", "coordinates": [ 10.6605, 45.2504 ] } },
{ "type": "Feature", "properties": { "CodIstat": 37006, "DataSospetto": "2021-10-07T00:00:00", "Categoria": "UCCELLI SELVATICI", "Regione": "EMILIA ROMAGNA", "Prov": "BO", "Comune": "BOLOGNA", "NumCapiMalati": 3, "NumFocolai": 3 }, "geometry": { "type": "Point", "coordinates": [ 11.3331, 44.4981 ] } },
{ "type": "Feature", "properties": { "CodIstat": 59005, "DataSospetto": "2020-11-14T00:00:00", "Categoria": "UCCELLI TARGET", "Regione": "LAZIO", "Prov": "LT", "Comune": "CISTERNA DI LATINA", "NumCapiMalati": 1, "NumFocolai": 1 }, "geometry": { "type": "Point", "coordinates": [ 12.8373, 41.5734 ] } },
{ "type": "Feature", "properties": { "CodIstat": 29033, "DataSospetto": "2021-07-29T00:00:00", "Categoria": "INSETTI", "Regione": "VENETO", "Prov": "RO", "Comune": "OCCHIOBELLO", "NumCapiMalati": 1, "NumFocolai": 1 }, "geometry": { "type": "Point", "coordinates": [ 11.6056, 44.9193 ] } },
{ "type": "Feature", "properties": { "CodIstat": 26058, "DataSospetto": "2021-08-12T00:00:00", "Categoria": "INSETTI", "Regione": "VENETO", "Prov": "TV", "Comune": "PONTE DI PIAVE", "NumCapiMalati": 1, "NumFocolai": 1 }, "geometry": { "type": "Point", "coordinates": [ 12.4672, 45.7319 ] } },
{ "type": "Feature", "properties": { "CodIstat": 18018, "DataSospetto": "2021-09-20T00:00:00", "Categoria": "UCCELLI SELVATICI", "Regione": "LOMBARDIA", "Prov": "PV", "Comune": "BORGO SAN SIRO", "NumCapiMalati": 1, "NumFocolai": 1 }, "geometry": { "type": "Point", "coordinates": [ 8.925518230730001, 45.2442 ] } },
{ "type": "Feature", "properties": { "CodIstat": 33002, "DataSospetto": "2021-08-10T00:00:00", "Categoria": "INSETTI", "Regione": "EMILIA ROMAGNA", "Prov": "PC", "Comune": "ALSENO", "NumCapiMalati": 5, "NumFocolai": 1 }, "geometry": { "type": "Point", "coordinates": [ 9.96248439383, 44.8874 ] } },
{ "type": "Feature", "properties": { "CodIstat": 15007, "DataSospetto": "2021-09-08T00:00:00", "Categoria": "UCCELLI TARGET", "Regione": "LOMBARDIA", "Prov": "MI", "Comune": "ARCONATE", "NumCapiMalati": 1, "NumFocolai": 1 }, "geometry": { "type": "Point", "coordinates": [ 8.841476387289999, 45.5402 ] } },
{ "type": "Feature", "properties": { "CodIstat": 4061, "DataSospetto": "2021-11-11T00:00:00", "Categoria": "UCCELLI SELVATICI", "Regione": "PIEMONTE", "Prov": "CN", "Comune": "CENTALLO", "NumCapiMalati": 1, "NumFocolai": 1 }, "geometry": { "type": "Point", "coordinates": [ 7.59281292756, 44.4881 ] } },
{ "type": "Feature", "properties": { "CodIstat": 4163, "DataSospetto": "2021-11-17T00:00:00", "Categoria": "UCCELLI TARGET", "Regione": "PIEMONTE", "Prov": "CN", "Comune": "PEVERAGNO", "NumCapiMalati": 1, "NumFocolai": 1 }, "geometry": { "type": "Point", "coordinates": [ 7.61791364425, 44.3108 ] } },
{ "type": "Feature", "properties": { "CodIstat": 18164, "DataSospetto": "2021-08-02T00:00:00", "Categoria": "INSETTI", "Regione": "LOMBARDIA", "Prov": "PV", "Comune": "TROMELLO", "NumCapiMalati": 1, "NumFocolai": 1 }, "geometry": { "type": "Point", "coordinates": [ 8.852818290789999, 45.2082 ] } },
{ "type": "Feature", "properties": { "CodIstat": 33043, "DataSospetto": "2021-08-11T00:00:00", "Categoria": "UCCELLI SELVATICI", "Regione": "EMILIA ROMAGNA", "Prov": "PC", "Comune": "TRAVO", "NumCapiMalati": 1, "NumFocolai": 1 }, "geometry": { "type": "Point", "coordinates": [ 9.525832930210001, 44.8577 ] } },
{ "type": "Feature", "properties": { "CodIstat": 33043, "DataSospetto": "2021-08-11T00:00:00", "Categoria": "UCCELLI TARGET", "Regione": "EMILIA ROMAGNA", "Prov": "PC", "Comune": "TRAVO", "NumCapiMalati": 1, "NumFocolai": 1 }, "geometry": { "type": "Point", "coordinates": [ 9.525832930210001, 44.8577 ] } },
{ "type": "Feature", "properties": { "CodIstat": 37050, "DataSospetto": "2021-08-10T00:00:00", "Categoria": "INSETTI", "Regione": "EMILIA ROMAGNA", "Prov": "BO", "Comune": "SALA BOLOGNESE", "NumCapiMalati": 1, "NumFocolai": 1 }, "geometry": { "type": "Point", "coordinates": [ 11.268, 44.6269 ] } },
{ "type": "Feature", "properties": { "CodIstat": 27031, "DataSospetto": "2021-08-11T00:00:00", "Categoria": "INSETTI", "Regione": "VENETO", "Prov": "VE", "Comune": "QUARTO D'ALTINO", "NumCapiMalati": 1, "NumFocolai": 1 }, "geometry": { "type": "Point", "coordinates": [ 12.4091, 45.5606 ] } },
{ "type": "Feature", "properties": { "CodIstat": 27034, "DataSospetto": "2021-07-27T00:00:00", "Categoria": "INSETTI", "Regione": "VENETO", "Prov": "VE", "Comune": "SAN MICHELE AL TAGLIAMENTO", "NumCapiMalati": 5, "NumFocolai": 1 }, "geometry": { "type": "Point", "coordinates": [ 13.0026, 45.7089 ] } },
{ "type": "Feature", "properties": { "CodIstat": 29050, "DataSospetto": "2021-08-26T00:00:00", "Categoria": "INSETTI", "Regione": "VENETO", "Prov": "RO", "Comune": "VILLANOVA DEL GHEBBO", "NumCapiMalati": 1, "NumFocolai": 1 }, "geometry": { "type": "Point", "coordinates": [ 11.6586, 45.0671 ] } },
{ "type": "Feature", "properties": { "CodIstat": 90052, "DataSospetto": "2021-09-19T00:00:00", "Categoria": "UCCELLI TARGET", "Regione": "SARDEGNA", "Prov": "SS", "Comune": "OZIERI", "NumCapiMalati": 1, "NumFocolai": 1 }, "geometry": { "type": "Point", "coordinates": [ 8.953196151629999, 40.6327 ] } },
{ "type": "Feature", "properties": { "CodIstat": 90052, "DataSospetto": "2021-09-27T00:00:00", "Categoria": "UCCELLI SELVATICI", "Regione": "SARDEGNA", "Prov": "SS", "Comune": "OZIERI", "NumCapiMalati": 1, "NumFocolai": 1 }, "geometry": { "type": "Point", "coordinates": [ 8.953196151629999, 40.6327 ] } },
{ "type": "Feature", "properties": { "CodIstat": 90052, "DataSospetto": "2021-10-03T00:00:00", "Categoria": "UCCELLI TARGET", "Regione": "SARDEGNA", "Prov": "SS", "Comune": "OZIERI", "NumCapiMalati": 2, "NumFocolai": 2 }, "geometry": { "type": "Point", "coordinates": [ 8.953196151629999, 40.6327 ] } },
{ "type": "Feature", "properties": { "CodIstat": 16244, "DataSospetto": "2021-08-19T00:00:00", "Categoria": "UCCELLI TARGET", "Regione": "LOMBARDIA", "Prov": "BG", "Comune": "ZANDOBBIO", "NumCapiMalati": 2, "NumFocolai": 1 }, "geometry": { "type": "Point", "coordinates": [ 9.87633097764, 45.6843 ] } },
{ "type": "Feature", "properties": { "CodIstat": 23095, "DataSospetto": "2021-08-17T00:00:00", "Categoria": "INSETTI", "Regione": "VENETO", "Prov": "VR", "Comune": "VILLA BARTOLOMEA", "NumCapiMalati": 4, "NumFocolai": 1 }, "geometry": { "type": "Point", "coordinates": [ 11.3505, 45.1182 ] } },
{ "type": "Feature", "properties": { "CodIstat": 23068, "DataSospetto": "2021-09-03T00:00:00", "Categoria": "UCCELLI TARGET", "Regione": "VENETO", "Prov": "VR", "Comune": "SALIZZOLE", "NumCapiMalati": 2, "NumFocolai": 2 }, "geometry": { "type": "Point", "coordinates": [ 11.0895, 45.2221 ] } },
{ "type": "Feature", "properties": { "CodIstat": 38022, "DataSospetto": "2021-07-31T00:00:00", "Categoria": "UCCELLI SELVATICI", "Regione": "EMILIA ROMAGNA", "Prov": "FE", "Comune": "VIGARANO MAINARDA", "NumCapiMalati": 1, "NumFocolai": 1 }, "geometry": { "type": "Point", "coordinates": [ 11.4963, 44.8524 ] } },
{ "type": "Feature", "properties": { "CodIstat": 17160, "DataSospetto": "2021-08-23T00:00:00", "Categoria": "INSETTI", "Regione": "LOMBARDIA", "Prov": "BS", "Comune": "REMEDELLO", "NumCapiMalati": 2, "NumFocolai": 1 }, "geometry": { "type": "Point", "coordinates": [ 10.3693, 45.2746 ] } },
{ "type": "Feature", "properties": { "CodIstat": 35028, "DataSospetto": "2021-07-15T00:00:00", "Categoria": "INSETTI", "Regione": "EMILIA ROMAGNA", "Prov": "RE", "Comune": "NOVELLARA", "NumCapiMalati": 1, "NumFocolai": 1 }, "geometry": { "type": "Point", "coordinates": [ 10.7084, 44.8453 ] } },
{ "type": "Feature", "properties": { "CodIstat": 35028, "DataSospetto": "2021-07-15T00:00:00", "Categoria": "UCCELLI TARGET", "Regione": "EMILIA ROMAGNA", "Prov": "RE", "Comune": "NOVELLARA", "NumCapiMalati": 3, "NumFocolai": 2 }, "geometry": { "type": "Point", "coordinates": [ 10.7084, 44.8453 ] } },
{ "type": "Feature", "properties": { "CodIstat": 28060, "DataSospetto": "2021-10-21T00:00:00", "Categoria": "UCCELLI SELVATICI", "Regione": "VENETO", "Prov": "PD", "Comune": "PADOVA", "NumCapiMalati": 1, "NumFocolai": 1 }, "geometry": { "type": "Point", "coordinates": [ 11.8831, 45.4034 ] } },
{ "type": "Feature", "properties": { "CodIstat": 20055, "DataSospetto": "2021-07-27T00:00:00", "Categoria": "INSETTI", "Regione": "LOMBARDIA", "Prov": "MN", "Comune": "SAN BENEDETTO PO", "NumCapiMalati": 1, "NumFocolai": 1 }, "geometry": { "type": "Point", "coordinates": [ 10.9299, 45.0343 ] } },
{ "type": "Feature", "properties": { "CodIstat": 33011, "DataSospetto": "2021-08-28T00:00:00", "Categoria": "UCCELLI TARGET", "Regione": "EMILIA ROMAGNA", "Prov": "PC", "Comune": "CARPANETO PIACENTINO", "NumCapiMalati": 1, "NumFocolai": 1 }, "geometry": { "type": "Point", "coordinates": [ 9.79665450163, 44.8992 ] } },
{ "type": "Feature", "properties": { "CodIstat": 16053, "DataSospetto": "2021-07-20T00:00:00", "Categoria": "UCCELLI TARGET", "Regione": "LOMBARDIA", "Prov": "BG", "Comune": "CARAVAGGIO", "NumCapiMalati": 1, "NumFocolai": 1 }, "geometry": { "type": "Point", "coordinates": [ 9.65339049372, 45.4924 ] } },
{ "type": "Feature", "properties": { "CodIstat": 18051, "DataSospetto": "2021-09-17T00:00:00", "Categoria": "UCCELLI SELVATICI", "Regione": "LOMBARDIA", "Prov": "PV", "Comune": "CODEVILLA", "NumCapiMalati": 1, "NumFocolai": 1 }, "geometry": { "type": "Point", "coordinates": [ 9.06102007078, 44.9642 ] } },
{ "type": "Feature", "properties": { "CodIstat": 30100, "DataSospetto": "2021-07-22T00:00:00", "Categoria": "INSETTI", "Regione": "FRIULI VENEZIA GIULIA", "Prov": "UD", "Comune": "SAN GIORGIO DI NOGARO", "NumCapiMalati": 1, "NumFocolai": 1 }, "geometry": { "type": "Point", "coordinates": [ 13.2167, 45.8105 ] } },
{ "type": "Feature", "properties": { "CodIstat": 34032, "DataSospetto": "2021-09-16T00:00:00", "Categoria": "UCCELLI TARGET", "Regione": "EMILIA ROMAGNA", "Prov": "PR", "Comune": "SALSOMAGGIORE TERME", "NumCapiMalati": 4, "NumFocolai": 2 }, "geometry": { "type": "Point", "coordinates": [ 9.981244347820001, 44.804 ] } },
{ "type": "Feature", "properties": { "CodIstat": 36039, "DataSospetto": "2021-07-12T00:00:00", "Categoria": "INSETTI", "Regione": "EMILIA ROMAGNA", "Prov": "MO", "Comune": "SAN PROSPERO", "NumCapiMalati": 1, "NumFocolai": 1 }, "geometry": { "type": "Point", "coordinates": [ 11.0324, 44.7895 ] } },
{ "type": "Feature", "properties": { "CodIstat": 36039, "DataSospetto": "2021-07-12T00:00:00", "Categoria": "UCCELLI SELVATICI", "Regione": "EMILIA ROMAGNA", "Prov": "MO", "Comune": "SAN PROSPERO", "NumCapiMalati": 1, "NumFocolai": 1 }, "geometry": { "type": "Point", "coordinates": [ 11.0324, 44.7895 ] } },
{ "type": "Feature", "properties": { "CodIstat": 27019, "DataSospetto": "2021-07-27T00:00:00", "Categoria": "INSETTI", "Regione": "VENETO", "Prov": "VE", "Comune": "JESOLO", "NumCapiMalati": 1, "NumFocolai": 1 }, "geometry": { "type": "Point", "coordinates": [ 12.6333, 45.5348 ] } },
{ "type": "Feature", "properties": { "CodIstat": 27019, "DataSospetto": "2021-08-09T00:00:00", "Categoria": "UCCELLI SELVATICI", "Regione": "VENETO", "Prov": "VE", "Comune": "JESOLO", "NumCapiMalati": 1, "NumFocolai": 1 }, "geometry": { "type": "Point", "coordinates": [ 12.6333, 45.5348 ] } },
{ "type": "Feature", "properties": { "CodIstat": 34036, "DataSospetto": "2021-08-17T00:00:00", "Categoria": "INSETTI", "Regione": "EMILIA ROMAGNA", "Prov": "PR", "Comune": "SORAGNA", "NumCapiMalati": 2, "NumFocolai": 1 }, "geometry": { "type": "Point", "coordinates": [ 10.1384, 44.9377 ] } },
{ "type": "Feature", "properties": { "CodIstat": 34036, "DataSospetto": "2021-08-17T00:00:00", "Categoria": "UCCELLI TARGET", "Regione": "EMILIA ROMAGNA", "Prov": "PR", "Comune": "SORAGNA", "NumCapiMalati": 1, "NumFocolai": 1 }, "geometry": { "type": "Point", "coordinates": [ 10.1384, 44.9377 ] } },
{ "type": "Feature", "properties": { "CodIstat": 33033, "DataSospetto": "2021-09-16T00:00:00", "Categoria": "UCCELLI SELVATICI", "Regione": "EMILIA ROMAGNA", "Prov": "PC", "Comune": "PIANELLO VAL TIDONE", "NumCapiMalati": 1, "NumFocolai": 1 }, "geometry": { "type": "Point", "coordinates": [ 9.411050948410001, 44.926 ] } },
{ "type": "Feature", "properties": { "CodIstat": 37053, "DataSospetto": "2021-08-10T00:00:00", "Categoria": "INSETTI", "Regione": "EMILIA ROMAGNA", "Prov": "BO", "Comune": "SAN GIOVANNI IN PERSICETO", "NumCapiMalati": 2, "NumFocolai": 1 }, "geometry": { "type": "Point", "coordinates": [ 11.203, 44.6603 ] } },
{ "type": "Feature", "properties": { "CodIstat": 6177, "DataSospetto": "2021-10-22T00:00:00", "Categoria": "EQUIDI", "Regione": "PIEMONTE", "Prov": "AL", "Comune": "VALENZA", "NumCapiMalati": 2, "NumFocolai": 1 }, "geometry": { "type": "Point", "coordinates": [ 8.629390216, 45.0191 ] } },
{ "type": "Feature", "properties": { "CodIstat": 16218, "DataSospetto": "2021-11-13T00:00:00", "Categoria": "UCCELLI SELVATICI", "Regione": "LOMBARDIA", "Prov": "BG", "Comune": "TRESCORE BALNEARIO", "NumCapiMalati": 1, "NumFocolai": 1 }, "geometry": { "type": "Point", "coordinates": [ 9.85111797865, 45.6991 ] } },
{ "type": "Feature", "properties": { "CodIstat": 6127, "DataSospetto": "2021-09-02T00:00:00", "Categoria": "INSETTI", "Regione": "PIEMONTE", "Prov": "AL", "Comune": "PASTURANA", "NumCapiMalati": 1, "NumFocolai": 1 }, "geometry": { "type": "Point", "coordinates": [ 8.746362742560001, 44.7506 ] } },
{ "type": "Feature", "properties": { "CodIstat": 37055, "DataSospetto": "2021-08-19T00:00:00", "Categoria": "INSETTI", "Regione": "EMILIA ROMAGNA", "Prov": "BO", "Comune": "SAN PIETRO IN CASALE", "NumCapiMalati": 1, "NumFocolai": 1 }, "geometry": { "type": "Point", "coordinates": [ 11.4047, 44.7105 ] } },
{ "type": "Feature", "properties": { "CodIstat": 37055, "DataSospetto": "2021-08-19T00:00:00", "Categoria": "UCCELLI SELVATICI", "Regione": "EMILIA ROMAGNA", "Prov": "BO", "Comune": "SAN PIETRO IN CASALE", "NumCapiMalati": 1, "NumFocolai": 1 }, "geometry": { "type": "Point", "coordinates": [ 11.4047, 44.7105 ] } },
{ "type": "Feature", "properties": { "CodIstat": 33035, "DataSospetto": "2021-08-24T00:00:00", "Categoria": "INSETTI", "Regione": "EMILIA ROMAGNA", "Prov": "PC", "Comune": "PODENZANO", "NumCapiMalati": 1, "NumFocolai": 1 }, "geometry": { "type": "Point", "coordinates": [ 9.702118283080001, 44.9705 ] } },
{ "type": "Feature", "properties": { "CodIstat": 33035, "DataSospetto": "2021-09-08T00:00:00", "Categoria": "EQUIDI", "Regione": "EMILIA ROMAGNA", "Prov": "PC", "Comune": "PODENZANO", "NumCapiMalati": 1, "NumFocolai": 1 }, "geometry": { "type": "Point", "coordinates": [ 9.702118283080001, 44.9705 ] } },
{ "type": "Feature", "properties": { "CodIstat": 38019, "DataSospetto": "2021-08-06T00:00:00", "Categoria": "UCCELLI TARGET", "Regione": "EMILIA ROMAGNA", "Prov": "FE", "Comune": "PORTOMAGGIORE", "NumCapiMalati": 2, "NumFocolai": 1 }, "geometry": { "type": "Point", "coordinates": [ 11.8388, 44.6982 ] } },
{ "type": "Feature", "properties": { "CodIstat": 15134, "DataSospetto": "2021-09-08T00:00:00", "Categoria": "UCCELLI TARGET", "Regione": "LOMBARDIA", "Prov": "MI", "Comune": "MARCALLO CON CASONE", "NumCapiMalati": 1, "NumFocolai": 1 }, "geometry": { "type": "Point", "coordinates": [ 8.869357557080001, 45.4865 ] } },
{ "type": "Feature", "properties": { "CodIstat": 90084, "DataSospetto": "2021-10-17T00:00:00", "Categoria": "UCCELLI SELVATICI", "Regione": "SARDEGNA", "Prov": "SS", "Comune": "LOIRI PORTO SAN PAOLO", "NumCapiMalati": 1, "NumFocolai": 1 }, "geometry": { "type": "Point", "coordinates": [ 9.55878773573, 40.8353 ] } },
{ "type": "Feature", "properties": { "CodIstat": 18109, "DataSospetto": "2021-09-02T00:00:00", "Categoria": "INSETTI", "Regione": "LOMBARDIA", "Prov": "PV", "Comune": "PARONA", "NumCapiMalati": 1, "NumFocolai": 1 }, "geometry": { "type": "Point", "coordinates": [ 8.76128284849, 45.2833 ] } },
{ "type": "Feature", "properties": { "CodIstat": 90047, "DataSospetto": "2021-10-05T00:00:00", "Categoria": "UCCELLI SELVATICI", "Regione": "SARDEGNA", "Prov": "SS", "Comune": "OLBIA", "NumCapiMalati": 1, "NumFocolai": 1 }, "geometry": { "type": "Point", "coordinates": [ 9.479398524420001, 40.923 ] } },
{ "type": "Feature", "properties": { "CodIstat": 90047, "DataSospetto": "2021-10-24T00:00:00", "Categoria": "UCCELLI SELVATICI", "Regione": "SARDEGNA", "Prov": "SS", "Comune": "OLBIA", "NumCapiMalati": 1, "NumFocolai": 1 }, "geometry": { "type": "Point", "coordinates": [ 9.479398524420001, 40.923 ] } },
{ "type": "Feature", "properties": { "CodIstat": 90047, "DataSospetto": "2021-11-01T00:00:00", "Categoria": "UCCELLI SELVATICI", "Regione": "SARDEGNA", "Prov": "SS", "Comune": "OLBIA", "NumCapiMalati": 1, "NumFocolai": 1 }, "geometry": { "type": "Point", "coordinates": [ 9.479398524420001, 40.923 ] } },
{ "type": "Feature", "properties": { "CodIstat": 90047, "DataSospetto": "2021-11-09T00:00:00", "Categoria": "UCCELLI SELVATICI", "Regione": "SARDEGNA", "Prov": "SS", "Comune": "OLBIA", "NumCapiMalati": 1, "NumFocolai": 1 }, "geometry": { "type": "Point", "coordinates": [ 9.479398524420001, 40.923 ] } },
{ "type": "Feature", "properties": { "CodIstat": 33032, "DataSospetto": "2021-07-19T00:00:00", "Categoria": "INSETTI", "Regione": "EMILIA ROMAGNA", "Prov": "PC", "Comune": "PIACENZA", "NumCapiMalati": 1, "NumFocolai": 1 }, "geometry": { "type": "Point", "coordinates": [ 9.717737473190001, 45.0414 ] } },
{ "type": "Feature", "properties": { "CodIstat": 33032, "DataSospetto": "2021-07-19T00:00:00", "Categoria": "UCCELLI SELVATICI", "Regione": "EMILIA ROMAGNA", "Prov": "PC", "Comune": "PIACENZA", "NumCapiMalati": 3, "NumFocolai": 3 }, "geometry": { "type": "Point", "coordinates": [ 9.717737473190001, 45.0414 ] } },
{ "type": "Feature", "properties": { "CodIstat": 33032, "DataSospetto": "2021-07-19T00:00:00", "Categoria": "UCCELLI TARGET", "Regione": "EMILIA ROMAGNA", "Prov": "PC", "Comune": "PIACENZA", "NumCapiMalati": 3, "NumFocolai": 2 }, "geometry": { "type": "Point", "coordinates": [ 9.717737473190001, 45.0414 ] } },
{ "type": "Feature", "properties": { "CodIstat": 4151, "DataSospetto": "2021-11-17T00:00:00", "Categoria": "UCCELLI SELVATICI", "Regione": "PIEMONTE", "Prov": "CN", "Comune": "NIELLA TANARO", "NumCapiMalati": 1, "NumFocolai": 1 }, "geometry": { "type": "Point", "coordinates": [ 7.92257255352, 44.4096 ] } },
{ "type": "Feature", "properties": { "CodIstat": 38017, "DataSospetto": "2021-08-18T00:00:00", "Categoria": "UCCELLI SELVATICI", "Regione": "EMILIA ROMAGNA", "Prov": "FE", "Comune": "OSTELLATO", "NumCapiMalati": 1, "NumFocolai": 1 }, "geometry": { "type": "Point", "coordinates": [ 11.9778, 44.7237 ] } },
{ "type": "Feature", "properties": { "CodIstat": 12068, "DataSospetto": "2021-09-20T00:00:00", "Categoria": "UCCELLI SELVATICI", "Regione": "LOMBARDIA", "Prov": "VA", "Comune": "FERNO", "NumCapiMalati": 1, "NumFocolai": 1 }, "geometry": { "type": "Point", "coordinates": [ 8.738605267560001, 45.6195 ] } },
{ "type": "Feature", "properties": { "CodIstat": 38008, "DataSospetto": "2021-07-23T00:00:00", "Categoria": "UCCELLI SELVATICI", "Regione": "EMILIA ROMAGNA", "Prov": "FE", "Comune": "FERRARA", "NumCapiMalati": 10, "NumFocolai": 3 }, "geometry": { "type": "Point", "coordinates": [ 11.6491, 44.8229 ] } },
{ "type": "Feature", "properties": { "CodIstat": 38008, "DataSospetto": "2021-07-23T00:00:00", "Categoria": "UCCELLI TARGET", "Regione": "EMILIA ROMAGNA", "Prov": "FE", "Comune": "FERRARA", "NumCapiMalati": 5, "NumFocolai": 1 }, "geometry": { "type": "Point", "coordinates": [ 11.6491, 44.8229 ] } },
{ "type": "Feature", "properties": { "CodIstat": 15188, "DataSospetto": "2021-09-15T00:00:00", "Categoria": "INSETTI", "Regione": "LOMBARDIA", "Prov": "MI", "Comune": "ROSATE", "NumCapiMalati": 2, "NumFocolai": 1 }, "geometry": { "type": "Point", "coordinates": [ 9.01852438886, 45.3511 ] } },
{ "type": "Feature", "properties": { "CodIstat": 36022, "DataSospetto": "2021-08-05T00:00:00", "Categoria": "INSETTI", "Regione": "EMILIA ROMAGNA", "Prov": "MO", "Comune": "MIRANDOLA", "NumCapiMalati": 1, "NumFocolai": 1 }, "geometry": { "type": "Point", "coordinates": [ 11.1242, 44.9075 ] } },
{ "type": "Feature", "properties": { "CodIstat": 18077, "DataSospetto": "2021-09-28T00:00:00", "Categoria": "INSETTI", "Regione": "LOMBARDIA", "Prov": "PV", "Comune": "INVERNO E MONTELEONE", "NumCapiMalati": 1, "NumFocolai": 1 }, "geometry": { "type": "Point", "coordinates": [ 9.39618184545, 45.1938 ] } },
{ "type": "Feature", "properties": { "CodIstat": 6140, "DataSospetto": "2021-08-19T00:00:00", "Categoria": "UCCELLI SELVATICI", "Regione": "PIEMONTE", "Prov": "AL", "Comune": "PREDOSA", "NumCapiMalati": 1, "NumFocolai": 1 }, "geometry": { "type": "Point", "coordinates": [ 8.63858019423, 44.7546 ] } },
{ "type": "Feature", "properties": { "CodIstat": 33038, "DataSospetto": "2021-08-10T00:00:00", "Categoria": "UCCELLI SELVATICI", "Regione": "EMILIA ROMAGNA", "Prov": "PC", "Comune": "RIVERGARO", "NumCapiMalati": 1, "NumFocolai": 1 }, "geometry": { "type": "Point", "coordinates": [ 9.61170890526, 44.9165 ] } },
{ "type": "Feature", "properties": { "CodIstat": 33038, "DataSospetto": "2021-08-10T00:00:00", "Categoria": "UCCELLI TARGET", "Regione": "EMILIA ROMAGNA", "Prov": "PC", "Comune": "RIVERGARO", "NumCapiMalati": 1, "NumFocolai": 1 }, "geometry": { "type": "Point", "coordinates": [ 9.61170890526, 44.9165 ] } },
{ "type": "Feature", "properties": { "CodIstat": 36012, "DataSospetto": "2021-07-22T00:00:00", "Categoria": "INSETTI", "Regione": "EMILIA ROMAGNA", "Prov": "MO", "Comune": "FINALE EMILIA", "NumCapiMalati": 3, "NumFocolai": 1 }, "geometry": { "type": "Point", "coordinates": [ 11.2665, 44.8491 ] } },
{ "type": "Feature", "properties": { "CodIstat": 37039, "DataSospetto": "2021-08-17T00:00:00", "Categoria": "INSETTI", "Regione": "EMILIA ROMAGNA", "Prov": "BO", "Comune": "MOLINELLA", "NumCapiMalati": 1, "NumFocolai": 1 }, "geometry": { "type": "Point", "coordinates": [ 11.6856, 44.6083 ] } },
{ "type": "Feature", "properties": { "CodIstat": 15071, "DataSospetto": "2021-09-22T00:00:00", "Categoria": "EQUIDI", "Regione": "LOMBARDIA", "Prov": "MI", "Comune": "CERRO AL LAMBRO", "NumCapiMalati": 1, "NumFocolai": 1 }, "geometry": { "type": "Point", "coordinates": [ 9.327288565070001, 45.3319 ] } },
{ "type": "Feature", "properties": { "CodIstat": 2047, "DataSospetto": "2021-10-27T00:00:00", "Categoria": "UCCELLI TARGET", "Regione": "PIEMONTE", "Prov": "VC", "Comune": "COSTANZANA", "NumCapiMalati": 1, "NumFocolai": 1 }, "geometry": { "type": "Point", "coordinates": [ 8.36638288172, 45.2241 ] } },
{ "type": "Feature", "properties": { "CodIstat": 35018, "DataSospetto": "2021-08-20T00:00:00", "Categoria": "UCCELLI SELVATICI", "Regione": "EMILIA ROMAGNA", "Prov": "RE", "Comune": "CANOSSA", "NumCapiMalati": 1, "NumFocolai": 1 }, "geometry": { "type": "Point", "coordinates": [ 10.4125, 44.5518 ] } },
{ "type": "Feature", "properties": { "CodIstat": 37001, "DataSospetto": "2021-08-10T00:00:00", "Categoria": "INSETTI", "Regione": "EMILIA ROMAGNA", "Prov": "BO", "Comune": "ANZOLA DELL'EMILIA", "NumCapiMalati": 1, "NumFocolai": 1 }, "geometry": { "type": "Point", "coordinates": [ 11.1936, 44.5652 ] } },
{ "type": "Feature", "properties": { "CodIstat": 24119, "DataSospetto": "2021-08-27T00:00:00", "Categoria": "UCCELLI TARGET", "Regione": "VENETO", "Prov": "VI", "Comune": "ZANE'", "NumCapiMalati": 1, "NumFocolai": 1 }, "geometry": { "type": "Point", "coordinates": [ 11.4482, 45.7216 ] } },
{ "type": "Feature", "properties": { "CodIstat": 3158, "DataSospetto": "2021-10-22T00:00:00", "Categoria": "INSETTI", "Regione": "PIEMONTE", "Prov": "NO", "Comune": "VESPOLATE", "NumCapiMalati": 1, "NumFocolai": 1 }, "geometry": { "type": "Point", "coordinates": [ 8.661268488379999, 45.3462 ] } },
{ "type": "Feature", "properties": { "CodIstat": 18182, "DataSospetto": "2021-09-01T00:00:00", "Categoria": "EQUIDI", "Regione": "LOMBARDIA", "Prov": "PV", "Comune": "VOGHERA", "NumCapiMalati": 1, "NumFocolai": 1 }, "geometry": { "type": "Point", "coordinates": [ 9.013393424509999, 45.0084 ] } },
{ "type": "Feature", "properties": { "CodIstat": 38030, "DataSospetto": "2021-09-27T00:00:00", "Categoria": "UCCELLI TARGET", "Regione": "EMILIA ROMAGNA", "Prov": "FE", "Comune": "TRESIGNANA", "NumCapiMalati": 2, "NumFocolai": 1 }, "geometry": { "type": "Point", "coordinates": [ 11.883, 44.8256 ] } },
{ "type": "Feature", "properties": { "CodIstat": 36044, "DataSospetto": "2021-09-23T00:00:00", "Categoria": "UCCELLI TARGET", "Regione": "EMILIA ROMAGNA", "Prov": "MO", "Comune": "SOLIERA", "NumCapiMalati": 1, "NumFocolai": 1 }, "geometry": { "type": "Point", "coordinates": [ 10.9416, 44.7476 ] } },
{ "type": "Feature", "properties": { "CodIstat": 34050, "DataSospetto": "2021-08-03T00:00:00", "Categoria": "INSETTI", "Regione": "EMILIA ROMAGNA", "Prov": "PR", "Comune": "POLESINE ZIBELLO", "NumCapiMalati": 1, "NumFocolai": 1 }, "geometry": { "type": "Point", "coordinates": [ 10.1178, 45.0128 ] } },
{ "type": "Feature", "properties": { "CodIstat": 28086, "DataSospetto": "2021-08-18T00:00:00", "Categoria": "INSETTI", "Regione": "VENETO", "Prov": "PD", "Comune": "SELVAZZANO DENTRO", "NumCapiMalati": 1, "NumFocolai": 1 }, "geometry": { "type": "Point", "coordinates": [ 11.7896, 45.3995 ] } },
{ "type": "Feature", "properties": { "CodIstat": 28086, "DataSospetto": "2021-10-11T00:00:00", "Categoria": "UCCELLI SELVATICI", "Regione": "VENETO", "Prov": "PD", "Comune": "SELVAZZANO DENTRO", "NumCapiMalati": 1, "NumFocolai": 1 }, "geometry": { "type": "Point", "coordinates": [ 11.7896, 45.3995 ] } }
]
}
