{
"type": "FeatureCollection",
"crs": { "type": "name", "properties": { "name": "urn:ogc:def:crs:OGC:1.3:CRS84" } },
"features": [
{ "type": "Feature", "properties": { "CodIstat": 23010, "DataSospetto": "2009\/11\/04 00:00:00", "Categoria": "EQUIDI", "Regione": "VENETO", "Prov": "VR", "Comune": "BOSCHI SANT'ANNA", "count": 1 }, "geometry": { "type": "Point", "coordinates": [ 11.366844290000074, 45.207621246000031 ] } },
{ "type": "Feature", "properties": { "CodIstat": 6015, "DataSospetto": "2016\/09\/27 00:00:00", "Categoria": "UCCELLI BERSAGLIO", "Regione": "PIEMONTE", "Prov": "AL", "Comune": "BERGAMASCO", "count": 1 }, "geometry": { "type": "Point", "coordinates": [ 8.449775901000066, 44.828293322000036 ] } },
{ "type": "Feature", "properties": { "CodIstat": 38005, "DataSospetto": "2008\/09\/15 00:00:00", "Categoria": "AVICOLI", "Regione": "EMILIA ROMAGNA", "Prov": "FE", "Comune": "CODIGORO", "count": 1 }, "geometry": { "type": "Point", "coordinates": [ 12.128098040000054, 44.858161080000059 ] } },
{ "type": "Feature", "properties": { "CodIstat": 38005, "DataSospetto": "2008\/09\/23 00:00:00", "Categoria": "EQUIDI", "Regione": "EMILIA ROMAGNA", "Prov": "FE", "Comune": "CODIGORO", "count": 1 }, "geometry": { "type": "Point", "coordinates": [ 12.128098040000054, 44.858161080000059 ] } },
{ "type": "Feature", "properties": { "CodIstat": 38005, "DataSospetto": "2008\/09\/29 00:00:00", "Categoria": "EQUIDI", "Regione": "EMILIA ROMAGNA", "Prov": "FE", "Comune": "CODIGORO", "count": 1 }, "geometry": { "type": "Point", "coordinates": [ 12.128098040000054, 44.858161080000059 ] } },
{ "type": "Feature", "properties": { "CodIstat": 38005, "DataSospetto": "2008\/10\/01 00:00:00", "Categoria": "EQUIDI", "Regione": "EMILIA ROMAGNA", "Prov": "FE", "Comune": "CODIGORO", "count": 1 }, "geometry": { "type": "Point", "coordinates": [ 12.128098040000054, 44.858161080000059 ] } },
{ "type": "Feature", "properties": { "CodIstat": 38005, "DataSospetto": "2008\/10\/23 00:00:00", "Categoria": "EQUIDI", "Regione": "EMILIA ROMAGNA", "Prov": "FE", "Comune": "CODIGORO", "count": 1 }, "geometry": { "type": "Point", "coordinates": [ 12.128098040000054, 44.858161080000059 ] } },
{ "type": "Feature", "properties": { "CodIstat": 38005, "DataSospetto": "2008\/10\/29 00:00:00", "Categoria": "EQUIDI", "Regione": "EMILIA ROMAGNA", "Prov": "FE", "Comune": "CODIGORO", "count": 1 }, "geometry": { "type": "Point", "coordinates": [ 12.128098040000054, 44.858161080000059 ] } },
{ "type": "Feature", "properties": { "CodIstat": 38005, "DataSospetto": "2014\/08\/06 00:00:00", "Categoria": "UCCELLI SELVATICI", "Regione": "EMILIA ROMAGNA", "Prov": "FE", "Comune": "CODIGORO", "count": 1 }, "geometry": { "type": "Point", "coordinates": [ 12.128098040000054, 44.858161080000059 ] } },
{ "type": "Feature", "properties": { "CodIstat": 38005, "DataSospetto": "2016\/07\/27 00:00:00", "Categoria": "UCCELLI SELVATICI", "Regione": "EMILIA ROMAGNA", "Prov": "FE", "Comune": "CODIGORO", "count": 1 }, "geometry": { "type": "Point", "coordinates": [ 12.128098040000054, 44.858161080000059 ] } },
{ "type": "Feature", "properties": { "CodIstat": 38005, "DataSospetto": "2018\/06\/29 00:00:00", "Categoria": "UCCELLI SELVATICI", "Regione": "EMILIA ROMAGNA", "Prov": "FE", "Comune": "CODIGORO", "count": 2 }, "geometry": { "type": "Point", "coordinates": [ 12.128098040000054, 44.858161080000059 ] } },
{ "type": "Feature", "properties": { "CodIstat": 30027, "DataSospetto": "2012\/09\/13 00:00:00", "Categoria": "EQUIDI", "Regione": "FRIULI VENEZIA GIULIA", "Prov": "UD", "Comune": "CODROIPO", "count": 1 }, "geometry": { "type": "Point", "coordinates": [ 12.98549173400005, 45.958998705000056 ] } },
{ "type": "Feature", "properties": { "CodIstat": 28033, "DataSospetto": "2008\/10\/01 00:00:00", "Categoria": "EQUIDI", "Regione": "VENETO", "Prov": "PD", "Comune": "CODEVIGO", "count": 1 }, "geometry": { "type": "Point", "coordinates": [ 12.141392332000066, 45.265227028000027 ] } },
{ "type": "Feature", "properties": { "CodIstat": 28033, "DataSospetto": "2017\/08\/02 00:00:00", "Categoria": "EQUIDI", "Regione": "VENETO", "Prov": "PD", "Comune": "CODEVIGO", "count": 1 }, "geometry": { "type": "Point", "coordinates": [ 12.141392332000066, 45.265227028000027 ] } },
{ "type": "Feature", "properties": { "CodIstat": 38006, "DataSospetto": "2008\/09\/18 00:00:00", "Categoria": "EQUIDI", "Regione": "EMILIA ROMAGNA", "Prov": "FE", "Comune": "COMACCHIO", "count": 1 }, "geometry": { "type": "Point", "coordinates": [ 12.162001007000072, 44.683399501000054 ] } },
{ "type": "Feature", "properties": { "CodIstat": 38006, "DataSospetto": "2008\/09\/28 00:00:00", "Categoria": "EQUIDI", "Regione": "EMILIA ROMAGNA", "Prov": "FE", "Comune": "COMACCHIO", "count": 1 }, "geometry": { "type": "Point", "coordinates": [ 12.162001007000072, 44.683399501000054 ] } },
{ "type": "Feature", "properties": { "CodIstat": 38006, "DataSospetto": "2008\/10\/02 00:00:00", "Categoria": "EQUIDI", "Regione": "EMILIA ROMAGNA", "Prov": "FE", "Comune": "COMACCHIO", "count": 1 }, "geometry": { "type": "Point", "coordinates": [ 12.162001007000072, 44.683399501000054 ] } },
{ "type": "Feature", "properties": { "CodIstat": 38006, "DataSospetto": "2008\/10\/09 00:00:00", "Categoria": "EQUIDI", "Regione": "EMILIA ROMAGNA", "Prov": "FE", "Comune": "COMACCHIO", "count": 1 }, "geometry": { "type": "Point", "coordinates": [ 12.162001007000072, 44.683399501000054 ] } },
{ "type": "Feature", "properties": { "CodIstat": 38006, "DataSospetto": "2008\/10\/21 00:00:00", "Categoria": "EQUIDI", "Regione": "EMILIA ROMAGNA", "Prov": "FE", "Comune": "COMACCHIO", "count": 1 }, "geometry": { "type": "Point", "coordinates": [ 12.162001007000072, 44.683399501000054 ] } },
{ "type": "Feature", "properties": { "CodIstat": 38006, "DataSospetto": "2008\/10\/24 00:00:00", "Categoria": "EQUIDI", "Regione": "EMILIA ROMAGNA", "Prov": "FE", "Comune": "COMACCHIO", "count": 1 }, "geometry": { "type": "Point", "coordinates": [ 12.162001007000072, 44.683399501000054 ] } },
{ "type": "Feature", "properties": { "CodIstat": 38006, "DataSospetto": "2009\/10\/05 00:00:00", "Categoria": "EQUIDI", "Regione": "EMILIA ROMAGNA", "Prov": "FE", "Comune": "COMACCHIO", "count": 1 }, "geometry": { "type": "Point", "coordinates": [ 12.162001007000072, 44.683399501000054 ] } },
{ "type": "Feature", "properties": { "CodIstat": 38006, "DataSospetto": "2014\/09\/09 00:00:00", "Categoria": "INSETTI", "Regione": "EMILIA ROMAGNA", "Prov": "FE", "Comune": "COMACCHIO", "count": 1 }, "geometry": { "type": "Point", "coordinates": [ 12.162001007000072, 44.683399501000054 ] } },
{ "type": "Feature", "properties": { "CodIstat": 38006, "DataSospetto": "2016\/08\/23 00:00:00", "Categoria": "INSETTI", "Regione": "EMILIA ROMAGNA", "Prov": "FE", "Comune": "COMACCHIO", "count": 1 }, "geometry": { "type": "Point", "coordinates": [ 12.162001007000072, 44.683399501000054 ] } },
{ "type": "Feature", "properties": { "CodIstat": 38006, "DataSospetto": "2017\/08\/28 00:00:00", "Categoria": "UCCELLI SELVATICI", "Regione": "EMILIA ROMAGNA", "Prov": "FE", "Comune": "COMACCHIO", "count": 1 }, "geometry": { "type": "Point", "coordinates": [ 12.162001007000072, 44.683399501000054 ] } },
{ "type": "Feature", "properties": { "CodIstat": 38006, "DataSospetto": "2018\/07\/13 00:00:00", "Categoria": "INSETTI", "Regione": "EMILIA ROMAGNA", "Prov": "FE", "Comune": "COMACCHIO", "count": 1 }, "geometry": { "type": "Point", "coordinates": [ 12.162001007000072, 44.683399501000054 ] } },
{ "type": "Feature", "properties": { "CodIstat": 38006, "DataSospetto": "2018\/07\/13 00:00:00", "Categoria": "UCCELLI SELVATICI", "Regione": "EMILIA ROMAGNA", "Prov": "FE", "Comune": "COMACCHIO", "count": 1 }, "geometry": { "type": "Point", "coordinates": [ 12.162001007000072, 44.683399501000054 ] } },
{ "type": "Feature", "properties": { "CodIstat": 33018, "DataSospetto": "2015\/08\/11 00:00:00", "Categoria": "INSETTI", "Regione": "EMILIA ROMAGNA", "Prov": "PC", "Comune": "CORTEMAGGIORE", "count": 1 }, "geometry": { "type": "Point", "coordinates": [ 9.920532560000026, 45.00042372200005 ] } },
{ "type": "Feature", "properties": { "CodIstat": 33018, "DataSospetto": "2018\/09\/18 00:00:00", "Categoria": "INSETTI", "Regione": "EMILIA ROMAGNA", "Prov": "PC", "Comune": "CORTEMAGGIORE", "count": 1 }, "geometry": { "type": "Point", "coordinates": [ 9.920532560000026, 45.00042372200005 ] } },
{ "type": "Feature", "properties": { "CodIstat": 29021, "DataSospetto": "2008\/10\/08 00:00:00", "Categoria": "EQUIDI", "Regione": "VENETO", "Prov": "RO", "Comune": "FICAROLO", "count": 1 }, "geometry": { "type": "Point", "coordinates": [ 11.445932400000061, 44.957650980000039 ] } },
{ "type": "Feature", "properties": { "CodIstat": 29021, "DataSospetto": "2008\/10\/10 00:00:00", "Categoria": "EQUIDI", "Regione": "VENETO", "Prov": "RO", "Comune": "FICAROLO", "count": 1 }, "geometry": { "type": "Point", "coordinates": [ 11.445932400000061, 44.957650980000039 ] } },
{ "type": "Feature", "properties": { "CodIstat": 29021, "DataSospetto": "2013\/07\/17 00:00:00", "Categoria": "INSETTI", "Regione": "VENETO", "Prov": "RO", "Comune": "FICAROLO", "count": 1 }, "geometry": { "type": "Point", "coordinates": [ 11.445932400000061, 44.957650980000039 ] } },
{ "type": "Feature", "properties": { "CodIstat": 29021, "DataSospetto": "2013\/08\/12 00:00:00", "Categoria": "EQUIDI", "Regione": "VENETO", "Prov": "RO", "Comune": "FICAROLO", "count": 1 }, "geometry": { "type": "Point", "coordinates": [ 11.445932400000061, 44.957650980000039 ] } },
{ "type": "Feature", "properties": { "CodIstat": 29021, "DataSospetto": "2016\/08\/02 00:00:00", "Categoria": "INSETTI", "Regione": "VENETO", "Prov": "RO", "Comune": "FICAROLO", "count": 1 }, "geometry": { "type": "Point", "coordinates": [ 11.445932400000061, 44.957650980000039 ] } },
{ "type": "Feature", "properties": { "CodIstat": 29021, "DataSospetto": "2018\/06\/26 00:00:00", "Categoria": "INSETTI", "Regione": "VENETO", "Prov": "RO", "Comune": "FICAROLO", "count": 1 }, "geometry": { "type": "Point", "coordinates": [ 11.445932400000061, 44.957650980000039 ] } },
{ "type": "Feature", "properties": { "CodIstat": 4062, "DataSospetto": "2018\/10\/09 00:00:00", "Categoria": "UCCELLI BERSAGLIO", "Regione": "PIEMONTE", "Prov": "CN", "Comune": "CERESOLE ALBA", "count": 1 }, "geometry": { "type": "Point", "coordinates": [ 7.816694933000065, 44.818121684000062 ] } },
{ "type": "Feature", "properties": { "CodIstat": 75023, "DataSospetto": "2015\/10\/06 00:00:00", "Categoria": "EQUIDI", "Regione": "PUGLIA", "Prov": "LE", "Comune": "CORIGLIANO D'OTRANTO", "count": 1 }, "geometry": { "type": "Point", "coordinates": [ 18.250961750000045, 40.155101476000027 ] } },
{ "type": "Feature", "properties": { "CodIstat": 36015, "DataSospetto": "2009\/08\/07 00:00:00", "Categoria": "EQUIDI", "Regione": "EMILIA ROMAGNA", "Prov": "MO", "Comune": "FORMIGINE", "count": 1 }, "geometry": { "type": "Point", "coordinates": [ 10.845983772000068, 44.57987539700008 ] } },
{ "type": "Feature", "properties": { "CodIstat": 36015, "DataSospetto": "2014\/08\/19 00:00:00", "Categoria": "INSETTI", "Regione": "EMILIA ROMAGNA", "Prov": "MO", "Comune": "FORMIGINE", "count": 1 }, "geometry": { "type": "Point", "coordinates": [ 10.845983772000068, 44.57987539700008 ] } },
{ "type": "Feature", "properties": { "CodIstat": 36015, "DataSospetto": "2015\/08\/04 00:00:00", "Categoria": "INSETTI", "Regione": "EMILIA ROMAGNA", "Prov": "MO", "Comune": "FORMIGINE", "count": 1 }, "geometry": { "type": "Point", "coordinates": [ 10.845983772000068, 44.57987539700008 ] } },
{ "type": "Feature", "properties": { "CodIstat": 36015, "DataSospetto": "2017\/07\/05 00:00:00", "Categoria": "INSETTI", "Regione": "EMILIA ROMAGNA", "Prov": "MO", "Comune": "FORMIGINE", "count": 1 }, "geometry": { "type": "Point", "coordinates": [ 10.845983772000068, 44.57987539700008 ] } },
{ "type": "Feature", "properties": { "CodIstat": 36015, "DataSospetto": "2018\/07\/19 00:00:00", "Categoria": "INSETTI", "Regione": "EMILIA ROMAGNA", "Prov": "MO", "Comune": "FORMIGINE", "count": 1 }, "geometry": { "type": "Point", "coordinates": [ 10.845983772000068, 44.57987539700008 ] } },
{ "type": "Feature", "properties": { "CodIstat": 29018, "DataSospetto": "2008\/10\/06 00:00:00", "Categoria": "EQUIDI", "Regione": "VENETO", "Prov": "RO", "Comune": "COSTA DI ROVIGO", "count": 1 }, "geometry": { "type": "Point", "coordinates": [ 11.702551465000056, 45.052699079000035 ] } },
{ "type": "Feature", "properties": { "CodIstat": 29018, "DataSospetto": "2008\/11\/07 00:00:00", "Categoria": "EQUIDI", "Regione": "VENETO", "Prov": "RO", "Comune": "COSTA DI ROVIGO", "count": 1 }, "geometry": { "type": "Point", "coordinates": [ 11.702551465000056, 45.052699079000035 ] } },
{ "type": "Feature", "properties": { "CodIstat": 29018, "DataSospetto": "2016\/09\/20 00:00:00", "Categoria": "UCCELLI BERSAGLIO", "Regione": "VENETO", "Prov": "RO", "Comune": "COSTA DI ROVIGO", "count": 1 }, "geometry": { "type": "Point", "coordinates": [ 11.702551465000056, 45.052699079000035 ] } },
{ "type": "Feature", "properties": { "CodIstat": 29018, "DataSospetto": "2018\/09\/13 00:00:00", "Categoria": "UCCELLI BERSAGLIO", "Regione": "VENETO", "Prov": "RO", "Comune": "COSTA DI ROVIGO", "count": 1 }, "geometry": { "type": "Point", "coordinates": [ 11.702551465000056, 45.052699079000035 ] } },
{ "type": "Feature", "properties": { "CodIstat": 77008, "DataSospetto": "2011\/09\/23 00:00:00", "Categoria": "EQUIDI", "Regione": "BASILICATA", "Prov": "MT", "Comune": "FERRANDINA", "count": 1 }, "geometry": { "type": "Point", "coordinates": [ 16.429585774000032, 40.478152002000058 ] } },
{ "type": "Feature", "properties": { "CodIstat": 77008, "DataSospetto": "2011\/10\/07 00:00:00", "Categoria": "EQUIDI", "Regione": "BASILICATA", "Prov": "MT", "Comune": "FERRANDINA", "count": 2 }, "geometry": { "type": "Point", "coordinates": [ 16.429585774000032, 40.478152002000058 ] } },
{ "type": "Feature", "properties": { "CodIstat": 77008, "DataSospetto": "2011\/10\/17 00:00:00", "Categoria": "EQUIDI", "Regione": "BASILICATA", "Prov": "MT", "Comune": "FERRANDINA", "count": 1 }, "geometry": { "type": "Point", "coordinates": [ 16.429585774000032, 40.478152002000058 ] } },
{ "type": "Feature", "properties": { "CodIstat": 27013, "DataSospetto": "2010\/08\/24 00:00:00", "Categoria": "EQUIDI", "Regione": "VENETO", "Prov": "VE", "Comune": "ERACLEA", "count": 1 }, "geometry": { "type": "Point", "coordinates": [ 12.719641135000074, 45.595045337000045 ] } },
{ "type": "Feature", "properties": { "CodIstat": 87017, "DataSospetto": "2018\/01\/03 00:00:00", "Categoria": "AVICOLI", "Regione": "SICILIA", "Prov": "CT", "Comune": "GIARRE", "count": 1 }, "geometry": { "type": "Point", "coordinates": [ 15.167649848000053, 37.71874867400004 ] } },
{ "type": "Feature", "properties": { "CodIstat": 37037, "DataSospetto": "2016\/07\/14 00:00:00", "Categoria": "INSETTI", "Regione": "EMILIA ROMAGNA", "Prov": "BO", "Comune": "MEDICINA", "count": 1 }, "geometry": { "type": "Point", "coordinates": [ 11.668850033000069, 44.514219294000043 ] } },
{ "type": "Feature", "properties": { "CodIstat": 95027, "DataSospetto": "2011\/09\/23 00:00:00", "Categoria": "EQUIDI", "Regione": "SARDEGNA", "Prov": "OR", "Comune": "MILIS", "count": 1 }, "geometry": { "type": "Point", "coordinates": [ 8.640468013000032, 40.048349278000046 ] } },
{ "type": "Feature", "properties": { "CodIstat": 95027, "DataSospetto": "2011\/10\/07 00:00:00", "Categoria": "EQUIDI", "Regione": "SARDEGNA", "Prov": "OR", "Comune": "MILIS", "count": 1 }, "geometry": { "type": "Point", "coordinates": [ 8.640468013000032, 40.048349278000046 ] } },
{ "type": "Feature", "properties": { "CodIstat": 95027, "DataSospetto": "2018\/08\/29 00:00:00", "Categoria": "UCCELLI SELVATICI", "Regione": "SARDEGNA", "Prov": "OR", "Comune": "MILIS", "count": 1 }, "geometry": { "type": "Point", "coordinates": [ 8.640468013000032, 40.048349278000046 ] } },
{ "type": "Feature", "properties": { "CodIstat": 95027, "DataSospetto": "2018\/09\/13 00:00:00", "Categoria": "UCCELLI SELVATICI", "Regione": "SARDEGNA", "Prov": "OR", "Comune": "MILIS", "count": 1 }, "geometry": { "type": "Point", "coordinates": [ 8.640468013000032, 40.048349278000046 ] } },
{ "type": "Feature", "properties": { "CodIstat": 95027, "DataSospetto": "2018\/10\/10 00:00:00", "Categoria": "UCCELLI SELVATICI", "Regione": "SARDEGNA", "Prov": "OR", "Comune": "MILIS", "count": 1 }, "geometry": { "type": "Point", "coordinates": [ 8.640468013000032, 40.048349278000046 ] } },
{ "type": "Feature", "properties": { "CodIstat": 24052, "DataSospetto": "2016\/10\/04 00:00:00", "Categoria": "EQUIDI", "Regione": "VENETO", "Prov": "VI", "Comune": "LONIGO", "count": 1 }, "geometry": { "type": "Point", "coordinates": [ 11.383154567000076, 45.385381879000079 ] } },
{ "type": "Feature", "properties": { "CodIstat": 29030, "DataSospetto": "2008\/10\/13 00:00:00", "Categoria": "EQUIDI", "Regione": "VENETO", "Prov": "RO", "Comune": "LOREO", "count": 2 }, "geometry": { "type": "Point", "coordinates": [ 12.190221535000035, 45.067333552000036 ] } },
{ "type": "Feature", "properties": { "CodIstat": 35023, "DataSospetto": "2018\/08\/07 00:00:00", "Categoria": "EQUIDI", "Regione": "EMILIA ROMAGNA", "Prov": "RE", "Comune": "GUALTIERI", "count": 1 }, "geometry": { "type": "Point", "coordinates": [ 10.616637744000059, 44.881680740000036 ] } },
{ "type": "Feature", "properties": { "CodIstat": 20030, "DataSospetto": "2009\/09\/08 00:00:00", "Categoria": "EQUIDI", "Regione": "LOMBARDIA", "Prov": "MN", "Comune": "MANTOVA", "count": 1 }, "geometry": { "type": "Point", "coordinates": [ 10.807245263000027, 45.149232174000076 ] } },
{ "type": "Feature", "properties": { "CodIstat": 39012, "DataSospetto": "2008\/09\/16 00:00:00", "Categoria": "EQUIDI", "Regione": "EMILIA ROMAGNA", "Prov": "RA", "Comune": "LUGO", "count": 2 }, "geometry": { "type": "Point", "coordinates": [ 11.906486269000027, 44.477350167000054 ] } },
{ "type": "Feature", "properties": { "CodIstat": 39012, "DataSospetto": "2008\/09\/23 00:00:00", "Categoria": "EQUIDI", "Regione": "EMILIA ROMAGNA", "Prov": "RA", "Comune": "LUGO", "count": 1 }, "geometry": { "type": "Point", "coordinates": [ 11.906486269000027, 44.477350167000054 ] } },
{ "type": "Feature", "properties": { "CodIstat": 39012, "DataSospetto": "2013\/07\/24 00:00:00", "Categoria": "INSETTI", "Regione": "EMILIA ROMAGNA", "Prov": "RA", "Comune": "LUGO", "count": 1 }, "geometry": { "type": "Point", "coordinates": [ 11.906486269000027, 44.477350167000054 ] } },
{ "type": "Feature", "properties": { "CodIstat": 39012, "DataSospetto": "2014\/09\/10 00:00:00", "Categoria": "INSETTI", "Regione": "EMILIA ROMAGNA", "Prov": "RA", "Comune": "LUGO", "count": 1 }, "geometry": { "type": "Point", "coordinates": [ 11.906486269000027, 44.477350167000054 ] } },
{ "type": "Feature", "properties": { "CodIstat": 39012, "DataSospetto": "2018\/07\/24 00:00:00", "Categoria": "INSETTI", "Regione": "EMILIA ROMAGNA", "Prov": "RA", "Comune": "LUGO", "count": 1 }, "geometry": { "type": "Point", "coordinates": [ 11.906486269000027, 44.477350167000054 ] } },
{ "type": "Feature", "properties": { "CodIstat": 39012, "DataSospetto": "2018\/07\/24 00:00:00", "Categoria": "UCCELLI BERSAGLIO", "Regione": "EMILIA ROMAGNA", "Prov": "RA", "Comune": "LUGO", "count": 1 }, "geometry": { "type": "Point", "coordinates": [ 11.906486269000027, 44.477350167000054 ] } },
{ "type": "Feature", "properties": { "CodIstat": 39012, "DataSospetto": "2018\/07\/24 00:00:00", "Categoria": "UCCELLI SELVATICI", "Regione": "EMILIA ROMAGNA", "Prov": "RA", "Comune": "LUGO", "count": 1 }, "geometry": { "type": "Point", "coordinates": [ 11.906486269000027, 44.477350167000054 ] } },
{ "type": "Feature", "properties": { "CodIstat": 24068, "DataSospetto": "2018\/09\/13 00:00:00", "Categoria": "EQUIDI", "Regione": "VENETO", "Prov": "VI", "Comune": "MONTORSO VICENTINO", "count": 1 }, "geometry": { "type": "Point", "coordinates": [ 11.356078197000045, 45.491526049000072 ] } },
{ "type": "Feature", "properties": { "CodIstat": 35026, "DataSospetto": "2013\/08\/21 00:00:00", "Categoria": "INSETTI", "Regione": "EMILIA ROMAGNA", "Prov": "RE", "Comune": "LUZZARA", "count": 1 }, "geometry": { "type": "Point", "coordinates": [ 10.711146362000022, 44.953850224000064 ] } },
{ "type": "Feature", "properties": { "CodIstat": 35026, "DataSospetto": "2014\/08\/07 00:00:00", "Categoria": "INSETTI", "Regione": "EMILIA ROMAGNA", "Prov": "RE", "Comune": "LUZZARA", "count": 1 }, "geometry": { "type": "Point", "coordinates": [ 10.711146362000022, 44.953850224000064 ] } },
{ "type": "Feature", "properties": { "CodIstat": 35026, "DataSospetto": "2018\/07\/13 00:00:00", "Categoria": "INSETTI", "Regione": "EMILIA ROMAGNA", "Prov": "RE", "Comune": "LUZZARA", "count": 1 }, "geometry": { "type": "Point", "coordinates": [ 10.711146362000022, 44.953850224000064 ] } },
{ "type": "Feature", "properties": { "CodIstat": 20036, "DataSospetto": "2014\/08\/18 00:00:00", "Categoria": "EQUIDI", "Regione": "LOMBARDIA", "Prov": "MN", "Comune": "MONZAMBANO", "count": 1 }, "geometry": { "type": "Point", "coordinates": [ 10.667984080000053, 45.37989556000008 ] } },
{ "type": "Feature", "properties": { "CodIstat": 37035, "DataSospetto": "2008\/09\/17 00:00:00", "Categoria": "EQUIDI", "Regione": "EMILIA ROMAGNA", "Prov": "BO", "Comune": "MALALBERGO", "count": 1 }, "geometry": { "type": "Point", "coordinates": [ 11.509677689000057, 44.687775931000033 ] } },
{ "type": "Feature", "properties": { "CodIstat": 37035, "DataSospetto": "2008\/10\/17 00:00:00", "Categoria": "UCCELLI BERSAGLIO", "Regione": "EMILIA ROMAGNA", "Prov": "BO", "Comune": "MALALBERGO", "count": 1 }, "geometry": { "type": "Point", "coordinates": [ 11.509677689000057, 44.687775931000033 ] } },
{ "type": "Feature", "properties": { "CodIstat": 37035, "DataSospetto": "2016\/08\/16 00:00:00", "Categoria": "EQUIDI", "Regione": "EMILIA ROMAGNA", "Prov": "BO", "Comune": "MALALBERGO", "count": 1 }, "geometry": { "type": "Point", "coordinates": [ 11.509677689000057, 44.687775931000033 ] } },
{ "type": "Feature", "properties": { "CodIstat": 37035, "DataSospetto": "2016\/09\/05 00:00:00", "Categoria": "UCCELLI BERSAGLIO", "Regione": "EMILIA ROMAGNA", "Prov": "BO", "Comune": "MALALBERGO", "count": 1 }, "geometry": { "type": "Point", "coordinates": [ 11.509677689000057, 44.687775931000033 ] } },
{ "type": "Feature", "properties": { "CodIstat": 37035, "DataSospetto": "2017\/09\/15 00:00:00", "Categoria": "UCCELLI BERSAGLIO", "Regione": "EMILIA ROMAGNA", "Prov": "BO", "Comune": "MALALBERGO", "count": 1 }, "geometry": { "type": "Point", "coordinates": [ 11.509677689000057, 44.687775931000033 ] } },
{ "type": "Feature", "properties": { "CodIstat": 37035, "DataSospetto": "2018\/06\/18 00:00:00", "Categoria": "UCCELLI BERSAGLIO", "Regione": "EMILIA ROMAGNA", "Prov": "BO", "Comune": "MALALBERGO", "count": 1 }, "geometry": { "type": "Point", "coordinates": [ 11.509677689000057, 44.687775931000033 ] } },
{ "type": "Feature", "properties": { "CodIstat": 30070, "DataSospetto": "2011\/10\/28 00:00:00", "Categoria": "EQUIDI", "Regione": "FRIULI VENEZIA GIULIA", "Prov": "UD", "Comune": "PALMANOVA", "count": 1 }, "geometry": { "type": "Point", "coordinates": [ 13.324697485000058, 45.907540168000025 ] } },
{ "type": "Feature", "properties": { "CodIstat": 30070, "DataSospetto": "2012\/09\/01 00:00:00", "Categoria": "EQUIDI", "Regione": "FRIULI VENEZIA GIULIA", "Prov": "UD", "Comune": "PALMANOVA", "count": 1 }, "geometry": { "type": "Point", "coordinates": [ 13.324697485000058, 45.907540168000025 ] } },
{ "type": "Feature", "properties": { "CodIstat": 23053, "DataSospetto": "2009\/10\/19 00:00:00", "Categoria": "EQUIDI", "Regione": "VENETO", "Prov": "VR", "Comune": "NOGARA", "count": 1 }, "geometry": { "type": "Point", "coordinates": [ 11.064357385000051, 45.187733303000073 ] } },
{ "type": "Feature", "properties": { "CodIstat": 23053, "DataSospetto": "2009\/11\/04 00:00:00", "Categoria": "EQUIDI", "Regione": "VENETO", "Prov": "VR", "Comune": "NOGARA", "count": 1 }, "geometry": { "type": "Point", "coordinates": [ 11.064357385000051, 45.187733303000073 ] } },
{ "type": "Feature", "properties": { "CodIstat": 34027, "DataSospetto": "2013\/09\/26 00:00:00", "Categoria": "EQUIDI", "Regione": "EMILIA ROMAGNA", "Prov": "PR", "Comune": "PARMA", "count": 1 }, "geometry": { "type": "Point", "coordinates": [ 10.32746018000006, 44.793681783000068 ] } },
{ "type": "Feature", "properties": { "CodIstat": 34027, "DataSospetto": "2016\/09\/09 00:00:00", "Categoria": "UCCELLI BERSAGLIO", "Regione": "EMILIA ROMAGNA", "Prov": "PR", "Comune": "PARMA", "count": 1 }, "geometry": { "type": "Point", "coordinates": [ 10.32746018000006, 44.793681783000068 ] } },
{ "type": "Feature", "properties": { "CodIstat": 34027, "DataSospetto": "2018\/07\/31 00:00:00", "Categoria": "INSETTI", "Regione": "EMILIA ROMAGNA", "Prov": "PR", "Comune": "PARMA", "count": 1 }, "geometry": { "type": "Point", "coordinates": [ 10.32746018000006, 44.793681783000068 ] } },
{ "type": "Feature", "properties": { "CodIstat": 23054, "DataSospetto": "2009\/09\/19 00:00:00", "Categoria": "EQUIDI", "Regione": "VENETO", "Prov": "VR", "Comune": "NOGAROLE ROCCA", "count": 1 }, "geometry": { "type": "Point", "coordinates": [ 10.879193250000071, 45.280407251000042 ] } },
{ "type": "Feature", "properties": { "CodIstat": 23054, "DataSospetto": "2013\/08\/12 00:00:00", "Categoria": "INSETTI", "Regione": "VENETO", "Prov": "VR", "Comune": "NOGAROLE ROCCA", "count": 1 }, "geometry": { "type": "Point", "coordinates": [ 10.879193250000071, 45.280407251000042 ] } },
{ "type": "Feature", "properties": { "CodIstat": 23054, "DataSospetto": "2016\/08\/04 00:00:00", "Categoria": "INSETTI", "Regione": "VENETO", "Prov": "VR", "Comune": "NOGAROLE ROCCA", "count": 1 }, "geometry": { "type": "Point", "coordinates": [ 10.879193250000071, 45.280407251000042 ] } },
{ "type": "Feature", "properties": { "CodIstat": 23054, "DataSospetto": "2016\/08\/31 00:00:00", "Categoria": "EQUIDI", "Regione": "VENETO", "Prov": "VR", "Comune": "NOGAROLE ROCCA", "count": 1 }, "geometry": { "type": "Point", "coordinates": [ 10.879193250000071, 45.280407251000042 ] } },
{ "type": "Feature", "properties": { "CodIstat": 23054, "DataSospetto": "2018\/07\/12 00:00:00", "Categoria": "INSETTI", "Regione": "VENETO", "Prov": "VR", "Comune": "NOGAROLE ROCCA", "count": 1 }, "geometry": { "type": "Point", "coordinates": [ 10.879193250000071, 45.280407251000042 ] } },
{ "type": "Feature", "properties": { "CodIstat": 4140, "DataSospetto": "2018\/09\/04 00:00:00", "Categoria": "UCCELLI BERSAGLIO", "Regione": "PIEMONTE", "Prov": "CN", "Comune": "MONTEU ROERO", "count": 1 }, "geometry": { "type": "Point", "coordinates": [ 7.912313754000024, 44.791726311000048 ] } },
{ "type": "Feature", "properties": { "CodIstat": 28053, "DataSospetto": "2008\/10\/01 00:00:00", "Categoria": "EQUIDI", "Regione": "VENETO", "Prov": "PD", "Comune": "MERLARA", "count": 1 }, "geometry": { "type": "Point", "coordinates": [ 11.458018679000077, 45.160010507000038 ] } },
{ "type": "Feature", "properties": { "CodIstat": 38025, "DataSospetto": "2014\/08\/06 00:00:00", "Categoria": "INSETTI", "Regione": "EMILIA ROMAGNA", "Prov": "FE", "Comune": "GORO", "count": 1 }, "geometry": { "type": "Point", "coordinates": [ 12.317030933000069, 44.831681192000076 ] } },
{ "type": "Feature", "properties": { "CodIstat": 38025, "DataSospetto": "2017\/08\/08 00:00:00", "Categoria": "INSETTI", "Regione": "EMILIA ROMAGNA", "Prov": "FE", "Comune": "GORO", "count": 1 }, "geometry": { "type": "Point", "coordinates": [ 12.317030933000069, 44.831681192000076 ] } },
{ "type": "Feature", "properties": { "CodIstat": 38025, "DataSospetto": "2018\/07\/14 00:00:00", "Categoria": "INSETTI", "Regione": "EMILIA ROMAGNA", "Prov": "FE", "Comune": "GORO", "count": 1 }, "geometry": { "type": "Point", "coordinates": [ 12.317030933000069, 44.831681192000076 ] } },
{ "type": "Feature", "properties": { "CodIstat": 38025, "DataSospetto": "2018\/07\/14 00:00:00", "Categoria": "UCCELLI SELVATICI", "Regione": "EMILIA ROMAGNA", "Prov": "FE", "Comune": "GORO", "count": 1 }, "geometry": { "type": "Point", "coordinates": [ 12.317030933000069, 44.831681192000076 ] } },
{ "type": "Feature", "properties": { "CodIstat": 24046, "DataSospetto": "2016\/08\/18 00:00:00", "Categoria": "INSETTI", "Regione": "VENETO", "Prov": "VI", "Comune": "GRISIGNANO DI ZOCCO", "count": 1 }, "geometry": { "type": "Point", "coordinates": [ 11.703134709000039, 45.481940657000052 ] } },
{ "type": "Feature", "properties": { "CodIstat": 24046, "DataSospetto": "2018\/07\/12 00:00:00", "Categoria": "INSETTI", "Regione": "VENETO", "Prov": "VI", "Comune": "GRISIGNANO DI ZOCCO", "count": 1 }, "geometry": { "type": "Point", "coordinates": [ 11.703134709000039, 45.481940657000052 ] } },
{ "type": "Feature", "properties": { "CodIstat": 24046, "DataSospetto": "2018\/08\/17 00:00:00", "Categoria": "EQUIDI", "Regione": "VENETO", "Prov": "VI", "Comune": "GRISIGNANO DI ZOCCO", "count": 1 }, "geometry": { "type": "Point", "coordinates": [ 11.703134709000039, 45.481940657000052 ] } },
{ "type": "Feature", "properties": { "CodIstat": 38010, "DataSospetto": "2008\/09\/14 00:00:00", "Categoria": "UCCELLI BERSAGLIO", "Regione": "EMILIA ROMAGNA", "Prov": "FE", "Comune": "JOLANDA DI SAVOIA", "count": 1 }, "geometry": { "type": "Point", "coordinates": [ 11.978906033000044, 44.875553306000029 ] } },
{ "type": "Feature", "properties": { "CodIstat": 38010, "DataSospetto": "2008\/09\/15 00:00:00", "Categoria": "EQUIDI", "Regione": "EMILIA ROMAGNA", "Prov": "FE", "Comune": "JOLANDA DI SAVOIA", "count": 1 }, "geometry": { "type": "Point", "coordinates": [ 11.978906033000044, 44.875553306000029 ] } },
{ "type": "Feature", "properties": { "CodIstat": 38010, "DataSospetto": "2008\/09\/17 00:00:00", "Categoria": "UCCELLI SELVATICI", "Regione": "EMILIA ROMAGNA", "Prov": "FE", "Comune": "JOLANDA DI SAVOIA", "count": 1 }, "geometry": { "type": "Point", "coordinates": [ 11.978906033000044, 44.875553306000029 ] } },
{ "type": "Feature", "properties": { "CodIstat": 38010, "DataSospetto": "2008\/09\/29 00:00:00", "Categoria": "EQUIDI", "Regione": "EMILIA ROMAGNA", "Prov": "FE", "Comune": "JOLANDA DI SAVOIA", "count": 1 }, "geometry": { "type": "Point", "coordinates": [ 11.978906033000044, 44.875553306000029 ] } },
{ "type": "Feature", "properties": { "CodIstat": 38010, "DataSospetto": "2013\/08\/06 00:00:00", "Categoria": "INSETTI", "Regione": "EMILIA ROMAGNA", "Prov": "FE", "Comune": "JOLANDA DI SAVOIA", "count": 1 }, "geometry": { "type": "Point", "coordinates": [ 11.978906033000044, 44.875553306000029 ] } },
{ "type": "Feature", "properties": { "CodIstat": 38010, "DataSospetto": "2013\/08\/21 00:00:00", "Categoria": "INSETTI", "Regione": "EMILIA ROMAGNA", "Prov": "FE", "Comune": "JOLANDA DI SAVOIA", "count": 1 }, "geometry": { "type": "Point", "coordinates": [ 11.978906033000044, 44.875553306000029 ] } },
{ "type": "Feature", "properties": { "CodIstat": 38010, "DataSospetto": "2013\/08\/21 00:00:00", "Categoria": "UCCELLI BERSAGLIO", "Regione": "EMILIA ROMAGNA", "Prov": "FE", "Comune": "JOLANDA DI SAVOIA", "count": 1 }, "geometry": { "type": "Point", "coordinates": [ 11.978906033000044, 44.875553306000029 ] } },
{ "type": "Feature", "properties": { "CodIstat": 38010, "DataSospetto": "2016\/08\/03 00:00:00", "Categoria": "INSETTI", "Regione": "EMILIA ROMAGNA", "Prov": "FE", "Comune": "JOLANDA DI SAVOIA", "count": 1 }, "geometry": { "type": "Point", "coordinates": [ 11.978906033000044, 44.875553306000029 ] } },
{ "type": "Feature", "properties": { "CodIstat": 38010, "DataSospetto": "2017\/07\/11 00:00:00", "Categoria": "INSETTI", "Regione": "EMILIA ROMAGNA", "Prov": "FE", "Comune": "JOLANDA DI SAVOIA", "count": 1 }, "geometry": { "type": "Point", "coordinates": [ 11.978906033000044, 44.875553306000029 ] } },
{ "type": "Feature", "properties": { "CodIstat": 38010, "DataSospetto": "2018\/07\/10 00:00:00", "Categoria": "INSETTI", "Regione": "EMILIA ROMAGNA", "Prov": "FE", "Comune": "JOLANDA DI SAVOIA", "count": 1 }, "geometry": { "type": "Point", "coordinates": [ 11.978906033000044, 44.875553306000029 ] } },
{ "type": "Feature", "properties": { "CodIstat": 38010, "DataSospetto": "2018\/07\/10 00:00:00", "Categoria": "UCCELLI SELVATICI", "Regione": "EMILIA ROMAGNA", "Prov": "FE", "Comune": "JOLANDA DI SAVOIA", "count": 1 }, "geometry": { "type": "Point", "coordinates": [ 11.978906033000044, 44.875553306000029 ] } },
{ "type": "Feature", "properties": { "CodIstat": 29031, "DataSospetto": "2008\/10\/06 00:00:00", "Categoria": "EQUIDI", "Regione": "VENETO", "Prov": "RO", "Comune": "LUSIA", "count": 1 }, "geometry": { "type": "Point", "coordinates": [ 11.653366559000062, 45.09587386700008 ] } },
{ "type": "Feature", "properties": { "CodIstat": 29031, "DataSospetto": "2008\/11\/27 00:00:00", "Categoria": "EQUIDI", "Regione": "VENETO", "Prov": "RO", "Comune": "LUSIA", "count": 4 }, "geometry": { "type": "Point", "coordinates": [ 11.653366559000062, 45.09587386700008 ] } },
{ "type": "Feature", "properties": { "CodIstat": 36027, "DataSospetto": "2008\/10\/31 00:00:00", "Categoria": "EQUIDI", "Regione": "EMILIA ROMAGNA", "Prov": "MO", "Comune": "NONANTOLA", "count": 2 }, "geometry": { "type": "Point", "coordinates": [ 11.05584755600006, 44.685255319000078 ] } },
{ "type": "Feature", "properties": { "CodIstat": 36027, "DataSospetto": "2013\/07\/23 00:00:00", "Categoria": "INSETTI", "Regione": "EMILIA ROMAGNA", "Prov": "MO", "Comune": "NONANTOLA", "count": 1 }, "geometry": { "type": "Point", "coordinates": [ 11.05584755600006, 44.685255319000078 ] } },
{ "type": "Feature", "properties": { "CodIstat": 36027, "DataSospetto": "2016\/08\/02 00:00:00", "Categoria": "INSETTI", "Regione": "EMILIA ROMAGNA", "Prov": "MO", "Comune": "NONANTOLA", "count": 1 }, "geometry": { "type": "Point", "coordinates": [ 11.05584755600006, 44.685255319000078 ] } },
{ "type": "Feature", "properties": { "CodIstat": 36027, "DataSospetto": "2017\/08\/02 00:00:00", "Categoria": "INSETTI", "Regione": "EMILIA ROMAGNA", "Prov": "MO", "Comune": "NONANTOLA", "count": 1 }, "geometry": { "type": "Point", "coordinates": [ 11.05584755600006, 44.685255319000078 ] } },
{ "type": "Feature", "properties": { "CodIstat": 36027, "DataSospetto": "2018\/07\/19 00:00:00", "Categoria": "INSETTI", "Regione": "EMILIA ROMAGNA", "Prov": "MO", "Comune": "NONANTOLA", "count": 1 }, "geometry": { "type": "Point", "coordinates": [ 11.05584755600006, 44.685255319000078 ] } },
{ "type": "Feature", "properties": { "CodIstat": 24074, "DataSospetto": "2009\/10\/09 00:00:00", "Categoria": "EQUIDI", "Regione": "VENETO", "Prov": "VI", "Comune": "NOVENTA VICENTINA", "count": 1 }, "geometry": { "type": "Point", "coordinates": [ 11.558733639000025, 45.285322849000067 ] } },
{ "type": "Feature", "properties": { "CodIstat": 36028, "DataSospetto": "2009\/05\/10 00:00:00", "Categoria": "UCCELLI BERSAGLIO", "Regione": "EMILIA ROMAGNA", "Prov": "MO", "Comune": "NOVI DI MODENA", "count": 1 }, "geometry": { "type": "Point", "coordinates": [ 10.929528859000072, 44.873623681000026 ] } },
{ "type": "Feature", "properties": { "CodIstat": 36028, "DataSospetto": "2013\/09\/10 00:00:00", "Categoria": "INSETTI", "Regione": "EMILIA ROMAGNA", "Prov": "MO", "Comune": "NOVI DI MODENA", "count": 1 }, "geometry": { "type": "Point", "coordinates": [ 10.929528859000072, 44.873623681000026 ] } },
{ "type": "Feature", "properties": { "CodIstat": 36028, "DataSospetto": "2015\/07\/21 00:00:00", "Categoria": "INSETTI", "Regione": "EMILIA ROMAGNA", "Prov": "MO", "Comune": "NOVI DI MODENA", "count": 1 }, "geometry": { "type": "Point", "coordinates": [ 10.929528859000072, 44.873623681000026 ] } },
{ "type": "Feature", "properties": { "CodIstat": 36028, "DataSospetto": "2016\/08\/17 00:00:00", "Categoria": "INSETTI", "Regione": "EMILIA ROMAGNA", "Prov": "MO", "Comune": "NOVI DI MODENA", "count": 1 }, "geometry": { "type": "Point", "coordinates": [ 10.929528859000072, 44.873623681000026 ] } },
{ "type": "Feature", "properties": { "CodIstat": 36028, "DataSospetto": "2017\/08\/08 00:00:00", "Categoria": "INSETTI", "Regione": "EMILIA ROMAGNA", "Prov": "MO", "Comune": "NOVI DI MODENA", "count": 1 }, "geometry": { "type": "Point", "coordinates": [ 10.929528859000072, 44.873623681000026 ] } },
{ "type": "Feature", "properties": { "CodIstat": 36028, "DataSospetto": "2018\/08\/09 00:00:00", "Categoria": "INSETTI", "Regione": "EMILIA ROMAGNA", "Prov": "MO", "Comune": "NOVI DI MODENA", "count": 1 }, "geometry": { "type": "Point", "coordinates": [ 10.929528859000072, 44.873623681000026 ] } },
{ "type": "Feature", "properties": { "CodIstat": 6114, "DataSospetto": "2015\/09\/22 00:00:00", "Categoria": "EQUIDI", "Regione": "PIEMONTE", "Prov": "AL", "Comune": "NOVI LIGURE", "count": 1 }, "geometry": { "type": "Point", "coordinates": [ 8.794986141000038, 44.765253367000071 ] } },
{ "type": "Feature", "properties": { "CodIstat": 6114, "DataSospetto": "2015\/09\/23 00:00:00", "Categoria": "EQUIDI", "Regione": "PIEMONTE", "Prov": "AL", "Comune": "NOVI LIGURE", "count": 1 }, "geometry": { "type": "Point", "coordinates": [ 8.794986141000038, 44.765253367000071 ] } },
{ "type": "Feature", "properties": { "CodIstat": 20038, "DataSospetto": "2008\/09\/26 00:00:00", "Categoria": "EQUIDI", "Regione": "LOMBARDIA", "Prov": "MN", "Comune": "OSTIGLIA", "count": 1 }, "geometry": { "type": "Point", "coordinates": [ 11.150706644000024, 45.085797920000061 ] } },
{ "type": "Feature", "properties": { "CodIstat": 20038, "DataSospetto": "2008\/10\/14 00:00:00", "Categoria": "AVICOLI", "Regione": "LOMBARDIA", "Prov": "MN", "Comune": "OSTIGLIA", "count": 1 }, "geometry": { "type": "Point", "coordinates": [ 11.150706644000024, 45.085797920000061 ] } },
{ "type": "Feature", "properties": { "CodIstat": 20038, "DataSospetto": "2008\/10\/15 00:00:00", "Categoria": "EQUIDI", "Regione": "LOMBARDIA", "Prov": "MN", "Comune": "OSTIGLIA", "count": 2 }, "geometry": { "type": "Point", "coordinates": [ 11.150706644000024, 45.085797920000061 ] } },
{ "type": "Feature", "properties": { "CodIstat": 20038, "DataSospetto": "2008\/10\/16 00:00:00", "Categoria": "EQUIDI", "Regione": "LOMBARDIA", "Prov": "MN", "Comune": "OSTIGLIA", "count": 1 }, "geometry": { "type": "Point", "coordinates": [ 11.150706644000024, 45.085797920000061 ] } },
{ "type": "Feature", "properties": { "CodIstat": 3106, "DataSospetto": "2015\/08\/11 00:00:00", "Categoria": "INSETTI", "Regione": "PIEMONTE", "Prov": "NO", "Comune": "NOVARA", "count": 1 }, "geometry": { "type": "Point", "coordinates": [ 8.615455842000074, 45.439660223000033 ] } },
{ "type": "Feature", "properties": { "CodIstat": 3106, "DataSospetto": "2015\/08\/21 00:00:00", "Categoria": "INSETTI", "Regione": "PIEMONTE", "Prov": "NO", "Comune": "NOVARA", "count": 1 }, "geometry": { "type": "Point", "coordinates": [ 8.615455842000074, 45.439660223000033 ] } },
{ "type": "Feature", "properties": { "CodIstat": 3106, "DataSospetto": "2015\/09\/03 00:00:00", "Categoria": "EQUIDI", "Regione": "PIEMONTE", "Prov": "NO", "Comune": "NOVARA", "count": 1 }, "geometry": { "type": "Point", "coordinates": [ 8.615455842000074, 45.439660223000033 ] } },
{ "type": "Feature", "properties": { "CodIstat": 3106, "DataSospetto": "2017\/08\/01 00:00:00", "Categoria": "INSETTI", "Regione": "PIEMONTE", "Prov": "NO", "Comune": "NOVARA", "count": 1 }, "geometry": { "type": "Point", "coordinates": [ 8.615455842000074, 45.439660223000033 ] } },
{ "type": "Feature", "properties": { "CodIstat": 3106, "DataSospetto": "2018\/08\/08 00:00:00", "Categoria": "INSETTI", "Regione": "PIEMONTE", "Prov": "NO", "Comune": "NOVARA", "count": 2 }, "geometry": { "type": "Point", "coordinates": [ 8.615455842000074, 45.439660223000033 ] } },
{ "type": "Feature", "properties": { "CodIstat": 3106, "DataSospetto": "2018\/08\/23 00:00:00", "Categoria": "INSETTI", "Regione": "PIEMONTE", "Prov": "NO", "Comune": "NOVARA", "count": 1 }, "geometry": { "type": "Point", "coordinates": [ 8.615455842000074, 45.439660223000033 ] } },
{ "type": "Feature", "properties": { "CodIstat": 3106, "DataSospetto": "2018\/09\/06 00:00:00", "Categoria": "INSETTI", "Regione": "PIEMONTE", "Prov": "NO", "Comune": "NOVARA", "count": 2 }, "geometry": { "type": "Point", "coordinates": [ 8.615455842000074, 45.439660223000033 ] } },
{ "type": "Feature", "properties": { "CodIstat": 93028, "DataSospetto": "2012\/09\/11 00:00:00", "Categoria": "EQUIDI", "Regione": "FRIULI VENEZIA GIULIA", "Prov": "PN", "Comune": "MORSANO AL TAGLIAMENTO", "count": 1 }, "geometry": { "type": "Point", "coordinates": [ 12.940220012000054, 45.857667199000048 ] } },
{ "type": "Feature", "properties": { "CodIstat": 39013, "DataSospetto": "2013\/08\/14 00:00:00", "Categoria": "INSETTI", "Regione": "EMILIA ROMAGNA", "Prov": "RA", "Comune": "MASSA LOMBARDA", "count": 1 }, "geometry": { "type": "Point", "coordinates": [ 11.814203750000047, 44.461397048000038 ] } },
{ "type": "Feature", "properties": { "CodIstat": 90043, "DataSospetto": "2013\/09\/30 00:00:00", "Categoria": "UCCELLI SELVATICI", "Regione": "SARDEGNA", "Prov": "SS", "Comune": "MUROS", "count": 1 }, "geometry": { "type": "Point", "coordinates": [ 8.617040650000035, 40.696172022000042 ] } },
{ "type": "Feature", "properties": { "CodIstat": 77017, "DataSospetto": "2012\/11\/26 00:00:00", "Categoria": "AVICOLI", "Regione": "BASILICATA", "Prov": "MT", "Comune": "MONTESCAGLIOSO", "count": 1 }, "geometry": { "type": "Point", "coordinates": [ 16.666837788000066, 40.507230435000054 ] } },
{ "type": "Feature", "properties": { "CodIstat": 97057, "DataSospetto": "2014\/09\/26 00:00:00", "Categoria": "UCCELLI BERSAGLIO", "Regione": "LOMBARDIA", "Prov": "LC", "Comune": "OGGIONO", "count": 1 }, "geometry": { "type": "Point", "coordinates": [ 9.344968155000061, 45.791671388000054 ] } },
{ "type": "Feature", "properties": { "CodIstat": 27024, "DataSospetto": "2017\/08\/18 00:00:00", "Categoria": "EQUIDI", "Regione": "VENETO", "Prov": "VE", "Comune": "MIRANO", "count": 1 }, "geometry": { "type": "Point", "coordinates": [ 12.08763310300003, 45.485662309000077 ] } },
{ "type": "Feature", "properties": { "CodIstat": 27024, "DataSospetto": "2018\/07\/10 00:00:00", "Categoria": "INSETTI", "Regione": "VENETO", "Prov": "VE", "Comune": "MIRANO", "count": 1 }, "geometry": { "type": "Point", "coordinates": [ 12.08763310300003, 45.485662309000077 ] } },
{ "type": "Feature", "properties": { "CodIstat": 27024, "DataSospetto": "2018\/07\/31 00:00:00", "Categoria": "EQUIDI", "Regione": "VENETO", "Prov": "VE", "Comune": "MIRANO", "count": 1 }, "geometry": { "type": "Point", "coordinates": [ 12.08763310300003, 45.485662309000077 ] } },
{ "type": "Feature", "properties": { "CodIstat": 27024, "DataSospetto": "2018\/08\/13 00:00:00", "Categoria": "EQUIDI", "Regione": "VENETO", "Prov": "VE", "Comune": "MIRANO", "count": 1 }, "geometry": { "type": "Point", "coordinates": [ 12.08763310300003, 45.485662309000077 ] } },
{ "type": "Feature", "properties": { "CodIstat": 27025, "DataSospetto": "2011\/10\/17 00:00:00", "Categoria": "EQUIDI", "Regione": "VENETO", "Prov": "VE", "Comune": "MUSILE DI PIAVE", "count": 1 }, "geometry": { "type": "Point", "coordinates": [ 12.523769789000028, 45.599730758000078 ] } },
{ "type": "Feature", "properties": { "CodIstat": 27025, "DataSospetto": "2017\/10\/02 00:00:00", "Categoria": "EQUIDI", "Regione": "VENETO", "Prov": "VE", "Comune": "MUSILE DI PIAVE", "count": 1 }, "geometry": { "type": "Point", "coordinates": [ 12.523769789000028, 45.599730758000078 ] } },
{ "type": "Feature", "properties": { "CodIstat": 20035, "DataSospetto": "2008\/10\/13 00:00:00", "Categoria": "EQUIDI", "Regione": "LOMBARDIA", "Prov": "MN", "Comune": "MOGLIA", "count": 3 }, "geometry": { "type": "Point", "coordinates": [ 10.925850749000062, 44.950831584000071 ] } },
{ "type": "Feature", "properties": { "CodIstat": 20035, "DataSospetto": "2008\/10\/21 00:00:00", "Categoria": "EQUIDI", "Regione": "LOMBARDIA", "Prov": "MN", "Comune": "MOGLIA", "count": 1 }, "geometry": { "type": "Point", "coordinates": [ 10.925850749000062, 44.950831584000071 ] } },
{ "type": "Feature", "properties": { "CodIstat": 20035, "DataSospetto": "2008\/10\/23 00:00:00", "Categoria": "EQUIDI", "Regione": "LOMBARDIA", "Prov": "MN", "Comune": "MOGLIA", "count": 1 }, "geometry": { "type": "Point", "coordinates": [ 10.925850749000062, 44.950831584000071 ] } },
{ "type": "Feature", "properties": { "CodIstat": 20035, "DataSospetto": "2009\/08\/24 00:00:00", "Categoria": "EQUIDI", "Regione": "LOMBARDIA", "Prov": "MN", "Comune": "MOGLIA", "count": 1 }, "geometry": { "type": "Point", "coordinates": [ 10.925850749000062, 44.950831584000071 ] } },
{ "type": "Feature", "properties": { "CodIstat": 20035, "DataSospetto": "2015\/08\/06 00:00:00", "Categoria": "UCCELLI BERSAGLIO", "Regione": "LOMBARDIA", "Prov": "MN", "Comune": "MOGLIA", "count": 1 }, "geometry": { "type": "Point", "coordinates": [ 10.925850749000062, 44.950831584000071 ] } },
{ "type": "Feature", "properties": { "CodIstat": 20035, "DataSospetto": "2018\/07\/16 00:00:00", "Categoria": "UCCELLI BERSAGLIO", "Regione": "LOMBARDIA", "Prov": "MN", "Comune": "MOGLIA", "count": 1 }, "geometry": { "type": "Point", "coordinates": [ 10.925850749000062, 44.950831584000071 ] } },
{ "type": "Feature", "properties": { "CodIstat": 26043, "DataSospetto": "2018\/07\/27 00:00:00", "Categoria": "EQUIDI", "Regione": "VENETO", "Prov": "TV", "Comune": "MOGLIANO VENETO", "count": 1 }, "geometry": { "type": "Point", "coordinates": [ 12.252443989000028, 45.567908744000079 ] } },
{ "type": "Feature", "properties": { "CodIstat": 38014, "DataSospetto": "2008\/09\/28 00:00:00", "Categoria": "EQUIDI", "Regione": "EMILIA ROMAGNA", "Prov": "FE", "Comune": "MESOLA", "count": 2 }, "geometry": { "type": "Point", "coordinates": [ 12.218792182000072, 44.899748009000064 ] } },
{ "type": "Feature", "properties": { "CodIstat": 38014, "DataSospetto": "2009\/09\/04 00:00:00", "Categoria": "EQUIDI", "Regione": "EMILIA ROMAGNA", "Prov": "FE", "Comune": "MESOLA", "count": 1 }, "geometry": { "type": "Point", "coordinates": [ 12.218792182000072, 44.899748009000064 ] } },
{ "type": "Feature", "properties": { "CodIstat": 38014, "DataSospetto": "2013\/08\/13 00:00:00", "Categoria": "INSETTI", "Regione": "EMILIA ROMAGNA", "Prov": "FE", "Comune": "MESOLA", "count": 1 }, "geometry": { "type": "Point", "coordinates": [ 12.218792182000072, 44.899748009000064 ] } },
{ "type": "Feature", "properties": { "CodIstat": 38014, "DataSospetto": "2014\/09\/02 00:00:00", "Categoria": "INSETTI", "Regione": "EMILIA ROMAGNA", "Prov": "FE", "Comune": "MESOLA", "count": 1 }, "geometry": { "type": "Point", "coordinates": [ 12.218792182000072, 44.899748009000064 ] } },
{ "type": "Feature", "properties": { "CodIstat": 38014, "DataSospetto": "2017\/09\/01 00:00:00", "Categoria": "INSETTI", "Regione": "EMILIA ROMAGNA", "Prov": "FE", "Comune": "MESOLA", "count": 1 }, "geometry": { "type": "Point", "coordinates": [ 12.218792182000072, 44.899748009000064 ] } },
{ "type": "Feature", "properties": { "CodIstat": 38014, "DataSospetto": "2018\/06\/26 00:00:00", "Categoria": "INSETTI", "Regione": "EMILIA ROMAGNA", "Prov": "FE", "Comune": "MESOLA", "count": 1 }, "geometry": { "type": "Point", "coordinates": [ 12.218792182000072, 44.899748009000064 ] } },
{ "type": "Feature", "properties": { "CodIstat": 29033, "DataSospetto": "2008\/10\/08 00:00:00", "Categoria": "EQUIDI", "Regione": "VENETO", "Prov": "RO", "Comune": "OCCHIOBELLO", "count": 1 }, "geometry": { "type": "Point", "coordinates": [ 11.605579577000071, 44.919259169000043 ] } },
{ "type": "Feature", "properties": { "CodIstat": 29033, "DataSospetto": "2008\/10\/09 00:00:00", "Categoria": "EQUIDI", "Regione": "VENETO", "Prov": "RO", "Comune": "OCCHIOBELLO", "count": 1 }, "geometry": { "type": "Point", "coordinates": [ 11.605579577000071, 44.919259169000043 ] } },
{ "type": "Feature", "properties": { "CodIstat": 29033, "DataSospetto": "2008\/11\/03 00:00:00", "Categoria": "EQUIDI", "Regione": "VENETO", "Prov": "RO", "Comune": "OCCHIOBELLO", "count": 1 }, "geometry": { "type": "Point", "coordinates": [ 11.605579577000071, 44.919259169000043 ] } },
{ "type": "Feature", "properties": { "CodIstat": 29033, "DataSospetto": "2013\/08\/21 00:00:00", "Categoria": "INSETTI", "Regione": "VENETO", "Prov": "RO", "Comune": "OCCHIOBELLO", "count": 1 }, "geometry": { "type": "Point", "coordinates": [ 11.605579577000071, 44.919259169000043 ] } },
{ "type": "Feature", "properties": { "CodIstat": 29033, "DataSospetto": "2013\/08\/29 00:00:00", "Categoria": "UCCELLI SELVATICI", "Regione": "VENETO", "Prov": "RO", "Comune": "OCCHIOBELLO", "count": 1 }, "geometry": { "type": "Point", "coordinates": [ 11.605579577000071, 44.919259169000043 ] } },
{ "type": "Feature", "properties": { "CodIstat": 18110, "DataSospetto": "2015\/08\/06 00:00:00", "Categoria": "INSETTI", "Regione": "LOMBARDIA", "Prov": "PV", "Comune": "PAVIA", "count": 1 }, "geometry": { "type": "Point", "coordinates": [ 9.164497327000049, 45.197716697000033 ] } },
{ "type": "Feature", "properties": { "CodIstat": 18110, "DataSospetto": "2018\/09\/20 00:00:00", "Categoria": "UCCELLI BERSAGLIO", "Regione": "LOMBARDIA", "Prov": "PV", "Comune": "PAVIA", "count": 1 }, "geometry": { "type": "Point", "coordinates": [ 9.164497327000049, 45.197716697000033 ] } },
{ "type": "Feature", "properties": { "CodIstat": 18110, "DataSospetto": "2018\/09\/20 00:00:00", "Categoria": "UCCELLI SELVATICI", "Regione": "LOMBARDIA", "Prov": "PV", "Comune": "PAVIA", "count": 1 }, "geometry": { "type": "Point", "coordinates": [ 9.164497327000049, 45.197716697000033 ] } },
{ "type": "Feature", "properties": { "CodIstat": 90049, "DataSospetto": "2012\/11\/20 00:00:00", "Categoria": "UCCELLI BERSAGLIO", "Regione": "SARDEGNA", "Prov": "SS", "Comune": "OSCHIRI", "count": 1 }, "geometry": { "type": "Point", "coordinates": [ 9.101708488000043, 40.727058663000037 ] } },
{ "type": "Feature", "properties": { "CodIstat": 90049, "DataSospetto": "2018\/09\/13 00:00:00", "Categoria": "EQUIDI", "Regione": "SARDEGNA", "Prov": "SS", "Comune": "OSCHIRI", "count": 1 }, "geometry": { "type": "Point", "coordinates": [ 9.101708488000043, 40.727058663000037 ] } },
{ "type": "Feature", "properties": { "CodIstat": 33036, "DataSospetto": "2016\/09\/22 00:00:00", "Categoria": "UCCELLI SELVATICI", "Regione": "EMILIA ROMAGNA", "Prov": "PC", "Comune": "PONTE DELL'OLIO", "count": 1 }, "geometry": { "type": "Point", "coordinates": [ 9.664960245000032, 44.858601197000041 ] } },
{ "type": "Feature", "properties": { "CodIstat": 26058, "DataSospetto": "2018\/07\/24 00:00:00", "Categoria": "INSETTI", "Regione": "VENETO", "Prov": "TV", "Comune": "PONTE DI PIAVE", "count": 1 }, "geometry": { "type": "Point", "coordinates": [ 12.467181492000066, 45.731934472000034 ] } },
{ "type": "Feature", "properties": { "CodIstat": 37048, "DataSospetto": "2008\/09\/25 00:00:00", "Categoria": "EQUIDI", "Regione": "EMILIA ROMAGNA", "Prov": "BO", "Comune": "PIEVE DI CENTO", "count": 1 }, "geometry": { "type": "Point", "coordinates": [ 11.324505658000021, 44.733424550000052 ] } },
{ "type": "Feature", "properties": { "CodIstat": 30072, "DataSospetto": "2011\/12\/05 00:00:00", "Categoria": "EQUIDI", "Regione": "FRIULI VENEZIA GIULIA", "Prov": "UD", "Comune": "PASIAN DI PRATO", "count": 1 }, "geometry": { "type": "Point", "coordinates": [ 13.167721712000059, 46.052821127000072 ] } },
{ "type": "Feature", "properties": { "CodIstat": 1183, "DataSospetto": "2016\/11\/10 00:00:00", "Categoria": "UCCELLI BERSAGLIO", "Regione": "PIEMONTE", "Prov": "TO", "Comune": "PECETTO TORINESE", "count": 1 }, "geometry": { "type": "Point", "coordinates": [ 7.752782711000066, 45.018042851000075 ] } },
{ "type": "Feature", "properties": { "CodIstat": 27030, "DataSospetto": "2009\/09\/16 00:00:00", "Categoria": "EQUIDI", "Regione": "VENETO", "Prov": "VE", "Comune": "PRAMAGGIORE", "count": 1 }, "geometry": { "type": "Point", "coordinates": [ 12.729444061000038, 45.802043021000031 ] } },
{ "type": "Feature", "properties": { "CodIstat": 30075, "DataSospetto": "2018\/10\/18 00:00:00", "Categoria": "UCCELLI BERSAGLIO", "Regione": "FRIULI VENEZIA GIULIA", "Prov": "UD", "Comune": "POCENIA", "count": 1 }, "geometry": { "type": "Point", "coordinates": [ 13.117828717000066, 45.852514069000051 ] } },
{ "type": "Feature", "properties": { "CodIstat": 17119, "DataSospetto": "2018\/07\/23 00:00:00", "Categoria": "INSETTI", "Regione": "LOMBARDIA", "Prov": "BS", "Comune": "NUVOLENTO", "count": 1 }, "geometry": { "type": "Point", "coordinates": [ 10.387320483000053, 45.541667548000078 ] } },
{ "type": "Feature", "properties": { "CodIstat": 29036, "DataSospetto": "2008\/12\/17 00:00:00", "Categoria": "EQUIDI", "Regione": "VENETO", "Prov": "RO", "Comune": "PINCARA", "count": 1 }, "geometry": { "type": "Point", "coordinates": [ 11.627154819000054, 44.990042379000045 ] } },
{ "type": "Feature", "properties": { "CodIstat": 1197, "DataSospetto": "2018\/07\/20 00:00:00", "Categoria": "UCCELLI BERSAGLIO", "Regione": "PIEMONTE", "Prov": "TO", "Comune": "POIRINO", "count": 1 }, "geometry": { "type": "Point", "coordinates": [ 7.842638547000035, 44.902678276000074 ] } },
{ "type": "Feature", "properties": { "CodIstat": 70055, "DataSospetto": "2010\/10\/13 00:00:00", "Categoria": "EQUIDI", "Regione": "MOLISE", "Prov": "CB", "Comune": "PORTOCANNONE", "count": 1 }, "geometry": { "type": "Point", "coordinates": [ 15.009172835000072, 41.909790274000045 ] } },
{ "type": "Feature", "properties": { "CodIstat": 70055, "DataSospetto": "2010\/10\/20 00:00:00", "Categoria": "EQUIDI", "Regione": "MOLISE", "Prov": "CB", "Comune": "PORTOCANNONE", "count": 1 }, "geometry": { "type": "Point", "coordinates": [ 15.009172835000072, 41.909790274000045 ] } },
{ "type": "Feature", "properties": { "CodIstat": 38018, "DataSospetto": "2008\/09\/17 00:00:00", "Categoria": "UCCELLI BERSAGLIO", "Regione": "EMILIA ROMAGNA", "Prov": "FE", "Comune": "POGGIO RENATICO", "count": 2 }, "geometry": { "type": "Point", "coordinates": [ 11.496945050000022, 44.77036408400005 ] } },
{ "type": "Feature", "properties": { "CodIstat": 38018, "DataSospetto": "2008\/09\/17 00:00:00", "Categoria": "UCCELLI SELVATICI", "Regione": "EMILIA ROMAGNA", "Prov": "FE", "Comune": "POGGIO RENATICO", "count": 1 }, "geometry": { "type": "Point", "coordinates": [ 11.496945050000022, 44.77036408400005 ] } },
{ "type": "Feature", "properties": { "CodIstat": 38018, "DataSospetto": "2009\/09\/25 00:00:00", "Categoria": "EQUIDI", "Regione": "EMILIA ROMAGNA", "Prov": "FE", "Comune": "POGGIO RENATICO", "count": 1 }, "geometry": { "type": "Point", "coordinates": [ 11.496945050000022, 44.77036408400005 ] } },
{ "type": "Feature", "properties": { "CodIstat": 38018, "DataSospetto": "2013\/07\/31 00:00:00", "Categoria": "INSETTI", "Regione": "EMILIA ROMAGNA", "Prov": "FE", "Comune": "POGGIO RENATICO", "count": 1 }, "geometry": { "type": "Point", "coordinates": [ 11.496945050000022, 44.77036408400005 ] } },
{ "type": "Feature", "properties": { "CodIstat": 38018, "DataSospetto": "2013\/07\/31 00:00:00", "Categoria": "UCCELLI BERSAGLIO", "Regione": "EMILIA ROMAGNA", "Prov": "FE", "Comune": "POGGIO RENATICO", "count": 2 }, "geometry": { "type": "Point", "coordinates": [ 11.496945050000022, 44.77036408400005 ] } },
{ "type": "Feature", "properties": { "CodIstat": 38018, "DataSospetto": "2014\/08\/11 00:00:00", "Categoria": "UCCELLI BERSAGLIO", "Regione": "EMILIA ROMAGNA", "Prov": "FE", "Comune": "POGGIO RENATICO", "count": 1 }, "geometry": { "type": "Point", "coordinates": [ 11.496945050000022, 44.77036408400005 ] } },
{ "type": "Feature", "properties": { "CodIstat": 38018, "DataSospetto": "2015\/07\/25 00:00:00", "Categoria": "UCCELLI BERSAGLIO", "Regione": "EMILIA ROMAGNA", "Prov": "FE", "Comune": "POGGIO RENATICO", "count": 1 }, "geometry": { "type": "Point", "coordinates": [ 11.496945050000022, 44.77036408400005 ] } },
{ "type": "Feature", "properties": { "CodIstat": 38018, "DataSospetto": "2015\/07\/25 00:00:00", "Categoria": "UCCELLI SELVATICI", "Regione": "EMILIA ROMAGNA", "Prov": "FE", "Comune": "POGGIO RENATICO", "count": 1 }, "geometry": { "type": "Point", "coordinates": [ 11.496945050000022, 44.77036408400005 ] } },
{ "type": "Feature", "properties": { "CodIstat": 38018, "DataSospetto": "2016\/08\/09 00:00:00", "Categoria": "INSETTI", "Regione": "EMILIA ROMAGNA", "Prov": "FE", "Comune": "POGGIO RENATICO", "count": 1 }, "geometry": { "type": "Point", "coordinates": [ 11.496945050000022, 44.77036408400005 ] } },
{ "type": "Feature", "properties": { "CodIstat": 38018, "DataSospetto": "2017\/08\/24 00:00:00", "Categoria": "INSETTI", "Regione": "EMILIA ROMAGNA", "Prov": "FE", "Comune": "POGGIO RENATICO", "count": 1 }, "geometry": { "type": "Point", "coordinates": [ 11.496945050000022, 44.77036408400005 ] } },
{ "type": "Feature", "properties": { "CodIstat": 38018, "DataSospetto": "2018\/07\/05 00:00:00", "Categoria": "INSETTI", "Regione": "EMILIA ROMAGNA", "Prov": "FE", "Comune": "POGGIO RENATICO", "count": 1 }, "geometry": { "type": "Point", "coordinates": [ 11.496945050000022, 44.77036408400005 ] } },
{ "type": "Feature", "properties": { "CodIstat": 38018, "DataSospetto": "2018\/07\/05 00:00:00", "Categoria": "UCCELLI SELVATICI", "Regione": "EMILIA ROMAGNA", "Prov": "FE", "Comune": "POGGIO RENATICO", "count": 3 }, "geometry": { "type": "Point", "coordinates": [ 11.496945050000022, 44.77036408400005 ] } },
{ "type": "Feature", "properties": { "CodIstat": 20042, "DataSospetto": "2008\/10\/17 00:00:00", "Categoria": "EQUIDI", "Regione": "LOMBARDIA", "Prov": "MN", "Comune": "POGGIO RUSCO", "count": 1 }, "geometry": { "type": "Point", "coordinates": [ 11.158354661000033, 44.963667921000081 ] } },
{ "type": "Feature", "properties": { "CodIstat": 20042, "DataSospetto": "2018\/07\/03 00:00:00", "Categoria": "INSETTI", "Regione": "LOMBARDIA", "Prov": "MN", "Comune": "POGGIO RUSCO", "count": 1 }, "geometry": { "type": "Point", "coordinates": [ 11.158354661000033, 44.963667921000081 ] } },
{ "type": "Feature", "properties": { "CodIstat": 31012, "DataSospetto": "2011\/10\/20 00:00:00", "Categoria": "EQUIDI", "Regione": "FRIULI VENEZIA GIULIA", "Prov": "GO", "Comune": "MONFALCONE", "count": 1 }, "geometry": { "type": "Point", "coordinates": [ 13.542084714000055, 45.800038359000041 ] } },
{ "type": "Feature", "properties": { "CodIstat": 20029, "DataSospetto": "2008\/10\/13 00:00:00", "Categoria": "EQUIDI", "Regione": "LOMBARDIA", "Prov": "MN", "Comune": "MAGNACAVALLO", "count": 1 }, "geometry": { "type": "Point", "coordinates": [ 11.181077285000072, 45.002771944000074 ] } },
{ "type": "Feature", "properties": { "CodIstat": 95030, "DataSospetto": "2011\/10\/12 00:00:00", "Categoria": "EQUIDI", "Regione": "SARDEGNA", "Prov": "OR", "Comune": "MORGONGIORI", "count": 1 }, "geometry": { "type": "Point", "coordinates": [ 8.743899954000028, 39.754824385000063 ] } },
{ "type": "Feature", "properties": { "CodIstat": 98035, "DataSospetto": "2015\/07\/15 00:00:00", "Categoria": "INSETTI", "Regione": "LOMBARDIA", "Prov": "LO", "Comune": "MALEO", "count": 1 }, "geometry": { "type": "Point", "coordinates": [ 9.763458271000047, 45.162670862000027 ] } },
{ "type": "Feature", "properties": { "CodIstat": 27023, "DataSospetto": "2018\/08\/02 00:00:00", "Categoria": "EQUIDI", "Regione": "VENETO", "Prov": "VE", "Comune": "MIRA", "count": 1 }, "geometry": { "type": "Point", "coordinates": [ 12.185483364000049, 45.413035453000077 ] } },
{ "type": "Feature", "properties": { "CodIstat": 28045, "DataSospetto": "2008\/10\/25 00:00:00", "Categoria": "EQUIDI", "Regione": "VENETO", "Prov": "PD", "Comune": "LIMENA", "count": 1 }, "geometry": { "type": "Point", "coordinates": [ 11.835867627000027, 45.47512068900005 ] } },
{ "type": "Feature", "properties": { "CodIstat": 91051, "DataSospetto": "2018\/09\/03 00:00:00", "Categoria": "UCCELLI BERSAGLIO", "Regione": "SARDEGNA", "Prov": "NU", "Comune": "NUORO", "count": 2 }, "geometry": { "type": "Point", "coordinates": [ 9.299505138000029, 40.339339134000056 ] } },
{ "type": "Feature", "properties": { "CodIstat": 91051, "DataSospetto": "2018\/09\/13 00:00:00", "Categoria": "UCCELLI BERSAGLIO", "Regione": "SARDEGNA", "Prov": "NU", "Comune": "NUORO", "count": 1 }, "geometry": { "type": "Point", "coordinates": [ 9.299505138000029, 40.339339134000056 ] } },
{ "type": "Feature", "properties": { "CodIstat": 91051, "DataSospetto": "2018\/09\/14 00:00:00", "Categoria": "UCCELLI SELVATICI", "Regione": "SARDEGNA", "Prov": "NU", "Comune": "NUORO", "count": 1 }, "geometry": { "type": "Point", "coordinates": [ 9.299505138000029, 40.339339134000056 ] } },
{ "type": "Feature", "properties": { "CodIstat": 91051, "DataSospetto": "2018\/09\/19 00:00:00", "Categoria": "UCCELLI BERSAGLIO", "Regione": "SARDEGNA", "Prov": "NU", "Comune": "NUORO", "count": 2 }, "geometry": { "type": "Point", "coordinates": [ 9.299505138000029, 40.339339134000056 ] } },
{ "type": "Feature", "properties": { "CodIstat": 91051, "DataSospetto": "2018\/09\/25 00:00:00", "Categoria": "UCCELLI SELVATICI", "Regione": "SARDEGNA", "Prov": "NU", "Comune": "NUORO", "count": 1 }, "geometry": { "type": "Point", "coordinates": [ 9.299505138000029, 40.339339134000056 ] } },
{ "type": "Feature", "properties": { "CodIstat": 91051, "DataSospetto": "2018\/09\/28 00:00:00", "Categoria": "UCCELLI BERSAGLIO", "Regione": "SARDEGNA", "Prov": "NU", "Comune": "NUORO", "count": 1 }, "geometry": { "type": "Point", "coordinates": [ 9.299505138000029, 40.339339134000056 ] } },
{ "type": "Feature", "properties": { "CodIstat": 91051, "DataSospetto": "2018\/10\/04 00:00:00", "Categoria": "UCCELLI BERSAGLIO", "Regione": "SARDEGNA", "Prov": "NU", "Comune": "NUORO", "count": 2 }, "geometry": { "type": "Point", "coordinates": [ 9.299505138000029, 40.339339134000056 ] } },
{ "type": "Feature", "properties": { "CodIstat": 91051, "DataSospetto": "2018\/10\/17 00:00:00", "Categoria": "UCCELLI BERSAGLIO", "Regione": "SARDEGNA", "Prov": "NU", "Comune": "NUORO", "count": 1 }, "geometry": { "type": "Point", "coordinates": [ 9.299505138000029, 40.339339134000056 ] } },
{ "type": "Feature", "properties": { "CodIstat": 91051, "DataSospetto": "2018\/10\/24 00:00:00", "Categoria": "EQUIDI", "Regione": "SARDEGNA", "Prov": "NU", "Comune": "NUORO", "count": 1 }, "geometry": { "type": "Point", "coordinates": [ 9.299505138000029, 40.339339134000056 ] } },
{ "type": "Feature", "properties": { "CodIstat": 91063, "DataSospetto": "2011\/10\/10 00:00:00", "Categoria": "EQUIDI", "Regione": "SARDEGNA", "Prov": "NU", "Comune": "OROSEI", "count": 1 }, "geometry": { "type": "Point", "coordinates": [ 9.723899307000067, 40.405904042000031 ] } },
{ "type": "Feature", "properties": { "CodIstat": 23055, "DataSospetto": "2014\/09\/03 00:00:00", "Categoria": "EQUIDI", "Regione": "VENETO", "Prov": "VR", "Comune": "OPPEANO", "count": 1 }, "geometry": { "type": "Point", "coordinates": [ 11.113315647000036, 45.310311312000067 ] } },
{ "type": "Feature", "properties": { "CodIstat": 23055, "DataSospetto": "2016\/09\/14 00:00:00", "Categoria": "EQUIDI", "Regione": "VENETO", "Prov": "VR", "Comune": "OPPEANO", "count": 1 }, "geometry": { "type": "Point", "coordinates": [ 11.113315647000036, 45.310311312000067 ] } },
{ "type": "Feature", "properties": { "CodIstat": 23055, "DataSospetto": "2016\/09\/21 00:00:00", "Categoria": "EQUIDI", "Regione": "VENETO", "Prov": "VR", "Comune": "OPPEANO", "count": 1 }, "geometry": { "type": "Point", "coordinates": [ 11.113315647000036, 45.310311312000067 ] } },
{ "type": "Feature", "properties": { "CodIstat": 23055, "DataSospetto": "2018\/06\/26 00:00:00", "Categoria": "INSETTI", "Regione": "VENETO", "Prov": "VR", "Comune": "OPPEANO", "count": 1 }, "geometry": { "type": "Point", "coordinates": [ 11.113315647000036, 45.310311312000067 ] } },
{ "type": "Feature", "properties": { "CodIstat": 20045, "DataSospetto": "2016\/09\/13 00:00:00", "Categoria": "INSETTI", "Regione": "LOMBARDIA", "Prov": "MN", "Comune": "PORTO MANTOVANO", "count": 1 }, "geometry": { "type": "Point", "coordinates": [ 10.75515064700005, 45.192243922000046 ] } },
{ "type": "Feature", "properties": { "CodIstat": 95050, "DataSospetto": "2011\/09\/23 00:00:00", "Categoria": "EQUIDI", "Regione": "SARDEGNA", "Prov": "OR", "Comune": "SAN VERO MILIS", "count": 1 }, "geometry": { "type": "Point", "coordinates": [ 8.501916216000041, 40.021550044000037 ] } },
{ "type": "Feature", "properties": { "CodIstat": 95050, "DataSospetto": "2011\/09\/29 00:00:00", "Categoria": "EQUIDI", "Regione": "SARDEGNA", "Prov": "OR", "Comune": "SAN VERO MILIS", "count": 1 }, "geometry": { "type": "Point", "coordinates": [ 8.501916216000041, 40.021550044000037 ] } },
{ "type": "Feature", "properties": { "CodIstat": 95050, "DataSospetto": "2011\/12\/15 00:00:00", "Categoria": "EQUIDI", "Regione": "SARDEGNA", "Prov": "OR", "Comune": "SAN VERO MILIS", "count": 2 }, "geometry": { "type": "Point", "coordinates": [ 8.501916216000041, 40.021550044000037 ] } },
{ "type": "Feature", "properties": { "CodIstat": 5100, "DataSospetto": "2015\/09\/11 00:00:00", "Categoria": "EQUIDI", "Regione": "PIEMONTE", "Prov": "AT", "Comune": "SAN MARZANO OLIVETO", "count": 1 }, "geometry": { "type": "Point", "coordinates": [ 8.300480331000074, 44.75534987900005 ] } },
{ "type": "Feature", "properties": { "CodIstat": 29001, "DataSospetto": "2008\/10\/07 00:00:00", "Categoria": "EQUIDI", "Regione": "VENETO", "Prov": "RO", "Comune": "ADRIA", "count": 1 }, "geometry": { "type": "Point", "coordinates": [ 12.045107565000023, 45.056903854000041 ] } },
{ "type": "Feature", "properties": { "CodIstat": 29001, "DataSospetto": "2008\/10\/14 00:00:00", "Categoria": "EQUIDI", "Regione": "VENETO", "Prov": "RO", "Comune": "ADRIA", "count": 2 }, "geometry": { "type": "Point", "coordinates": [ 12.045107565000023, 45.056903854000041 ] } },
{ "type": "Feature", "properties": { "CodIstat": 29001, "DataSospetto": "2009\/10\/02 00:00:00", "Categoria": "EQUIDI", "Regione": "VENETO", "Prov": "RO", "Comune": "ADRIA", "count": 1 }, "geometry": { "type": "Point", "coordinates": [ 12.045107565000023, 45.056903854000041 ] } },
{ "type": "Feature", "properties": { "CodIstat": 29001, "DataSospetto": "2016\/09\/05 00:00:00", "Categoria": "EQUIDI", "Regione": "VENETO", "Prov": "RO", "Comune": "ADRIA", "count": 1 }, "geometry": { "type": "Point", "coordinates": [ 12.045107565000023, 45.056903854000041 ] } },
{ "type": "Feature", "properties": { "CodIstat": 29001, "DataSospetto": "2017\/08\/03 00:00:00", "Categoria": "EQUIDI", "Regione": "VENETO", "Prov": "RO", "Comune": "ADRIA", "count": 1 }, "geometry": { "type": "Point", "coordinates": [ 12.045107565000023, 45.056903854000041 ] } },
{ "type": "Feature", "properties": { "CodIstat": 29001, "DataSospetto": "2018\/07\/26 00:00:00", "Categoria": "EQUIDI", "Regione": "VENETO", "Prov": "RO", "Comune": "ADRIA", "count": 1 }, "geometry": { "type": "Point", "coordinates": [ 12.045107565000023, 45.056903854000041 ] } },
{ "type": "Feature", "properties": { "CodIstat": 6003, "DataSospetto": "2015\/09\/14 00:00:00", "Categoria": "EQUIDI", "Regione": "PIEMONTE", "Prov": "AL", "Comune": "ALESSANDRIA", "count": 1 }, "geometry": { "type": "Point", "coordinates": [ 8.644397053000034, 44.909194178000064 ] } },
{ "type": "Feature", "properties": { "CodIstat": 33006, "DataSospetto": "2015\/08\/05 00:00:00", "Categoria": "EQUIDI", "Regione": "EMILIA ROMAGNA", "Prov": "PC", "Comune": "BORGONOVO VAL TIDONE", "count": 2 }, "geometry": { "type": "Point", "coordinates": [ 9.461898688000076, 45.00773167400007 ] } },
{ "type": "Feature", "properties": { "CodIstat": 33006, "DataSospetto": "2018\/08\/30 00:00:00", "Categoria": "UCCELLI SELVATICI", "Regione": "EMILIA ROMAGNA", "Prov": "PC", "Comune": "BORGONOVO VAL TIDONE", "count": 1 }, "geometry": { "type": "Point", "coordinates": [ 9.461898688000076, 45.00773167400007 ] } },
{ "type": "Feature", "properties": { "CodIstat": 37024, "DataSospetto": "2008\/10\/18 00:00:00", "Categoria": "EQUIDI", "Regione": "EMILIA ROMAGNA", "Prov": "BO", "Comune": "CREVALCORE", "count": 1 }, "geometry": { "type": "Point", "coordinates": [ 11.185571920000029, 44.752543975000037 ] } },
{ "type": "Feature", "properties": { "CodIstat": 37024, "DataSospetto": "2013\/07\/17 00:00:00", "Categoria": "INSETTI", "Regione": "EMILIA ROMAGNA", "Prov": "BO", "Comune": "CREVALCORE", "count": 1 }, "geometry": { "type": "Point", "coordinates": [ 11.185571920000029, 44.752543975000037 ] } },
{ "type": "Feature", "properties": { "CodIstat": 37024, "DataSospetto": "2014\/08\/06 00:00:00", "Categoria": "INSETTI", "Regione": "EMILIA ROMAGNA", "Prov": "BO", "Comune": "CREVALCORE", "count": 1 }, "geometry": { "type": "Point", "coordinates": [ 11.185571920000029, 44.752543975000037 ] } },
{ "type": "Feature", "properties": { "CodIstat": 37024, "DataSospetto": "2015\/08\/13 00:00:00", "Categoria": "INSETTI", "Regione": "EMILIA ROMAGNA", "Prov": "BO", "Comune": "CREVALCORE", "count": 1 }, "geometry": { "type": "Point", "coordinates": [ 11.185571920000029, 44.752543975000037 ] } },
{ "type": "Feature", "properties": { "CodIstat": 37024, "DataSospetto": "2016\/07\/27 00:00:00", "Categoria": "INSETTI", "Regione": "EMILIA ROMAGNA", "Prov": "BO", "Comune": "CREVALCORE", "count": 1 }, "geometry": { "type": "Point", "coordinates": [ 11.185571920000029, 44.752543975000037 ] } },
{ "type": "Feature", "properties": { "CodIstat": 37024, "DataSospetto": "2017\/07\/11 00:00:00", "Categoria": "INSETTI", "Regione": "EMILIA ROMAGNA", "Prov": "BO", "Comune": "CREVALCORE", "count": 1 }, "geometry": { "type": "Point", "coordinates": [ 11.185571920000029, 44.752543975000037 ] } },
{ "type": "Feature", "properties": { "CodIstat": 37024, "DataSospetto": "2018\/06\/28 00:00:00", "Categoria": "INSETTI", "Regione": "EMILIA ROMAGNA", "Prov": "BO", "Comune": "CREVALCORE", "count": 1 }, "geometry": { "type": "Point", "coordinates": [ 11.185571920000029, 44.752543975000037 ] } },
{ "type": "Feature", "properties": { "CodIstat": 37024, "DataSospetto": "2018\/06\/28 00:00:00", "Categoria": "UCCELLI BERSAGLIO", "Regione": "EMILIA ROMAGNA", "Prov": "BO", "Comune": "CREVALCORE", "count": 1 }, "geometry": { "type": "Point", "coordinates": [ 11.185571920000029, 44.752543975000037 ] } },
{ "type": "Feature", "properties": { "CodIstat": 111013, "DataSospetto": "2018\/09\/25 00:00:00", "Categoria": "AVICOLI", "Regione": "SARDEGNA", "Prov": "SU", "Comune": "DECIMOPUTZU", "count": 1 }, "geometry": { "type": "Point", "coordinates": [ 8.882508900000062, 39.341755444000057 ] } },
{ "type": "Feature", "properties": { "CodIstat": 39007, "DataSospetto": "2018\/09\/03 00:00:00", "Categoria": "UCCELLI SELVATICI", "Regione": "EMILIA ROMAGNA", "Prov": "RA", "Comune": "CERVIA", "count": 1 }, "geometry": { "type": "Point", "coordinates": [ 12.314872511000033, 44.251420943000028 ] } },
{ "type": "Feature", "properties": { "CodIstat": 27006, "DataSospetto": "2008\/10\/03 00:00:00", "Categoria": "EQUIDI", "Regione": "VENETO", "Prov": "VE", "Comune": "CAVARZERE", "count": 1 }, "geometry": { "type": "Point", "coordinates": [ 12.119825066000033, 45.124033621000081 ] } },
{ "type": "Feature", "properties": { "CodIstat": 27006, "DataSospetto": "2008\/10\/29 00:00:00", "Categoria": "EQUIDI", "Regione": "VENETO", "Prov": "VE", "Comune": "CAVARZERE", "count": 2 }, "geometry": { "type": "Point", "coordinates": [ 12.119825066000033, 45.124033621000081 ] } },
{ "type": "Feature", "properties": { "CodIstat": 27006, "DataSospetto": "2008\/11\/22 00:00:00", "Categoria": "EQUIDI", "Regione": "VENETO", "Prov": "VE", "Comune": "CAVARZERE", "count": 1 }, "geometry": { "type": "Point", "coordinates": [ 12.119825066000033, 45.124033621000081 ] } },
{ "type": "Feature", "properties": { "CodIstat": 27006, "DataSospetto": "2011\/08\/09 00:00:00", "Categoria": "EQUIDI", "Regione": "VENETO", "Prov": "VE", "Comune": "CAVARZERE", "count": 1 }, "geometry": { "type": "Point", "coordinates": [ 12.119825066000033, 45.124033621000081 ] } },
{ "type": "Feature", "properties": { "CodIstat": 27006, "DataSospetto": "2016\/08\/29 00:00:00", "Categoria": "EQUIDI", "Regione": "VENETO", "Prov": "VE", "Comune": "CAVARZERE", "count": 1 }, "geometry": { "type": "Point", "coordinates": [ 12.119825066000033, 45.124033621000081 ] } },
{ "type": "Feature", "properties": { "CodIstat": 27006, "DataSospetto": "2017\/07\/11 00:00:00", "Categoria": "INSETTI", "Regione": "VENETO", "Prov": "VE", "Comune": "CAVARZERE", "count": 1 }, "geometry": { "type": "Point", "coordinates": [ 12.119825066000033, 45.124033621000081 ] } },
{ "type": "Feature", "properties": { "CodIstat": 27006, "DataSospetto": "2017\/07\/25 00:00:00", "Categoria": "EQUIDI", "Regione": "VENETO", "Prov": "VE", "Comune": "CAVARZERE", "count": 1 }, "geometry": { "type": "Point", "coordinates": [ 12.119825066000033, 45.124033621000081 ] } },
{ "type": "Feature", "properties": { "CodIstat": 27006, "DataSospetto": "2017\/07\/26 00:00:00", "Categoria": "EQUIDI", "Regione": "VENETO", "Prov": "VE", "Comune": "CAVARZERE", "count": 1 }, "geometry": { "type": "Point", "coordinates": [ 12.119825066000033, 45.124033621000081 ] } },
{ "type": "Feature", "properties": { "CodIstat": 27006, "DataSospetto": "2018\/07\/17 00:00:00", "Categoria": "INSETTI", "Regione": "VENETO", "Prov": "VE", "Comune": "CAVARZERE", "count": 1 }, "geometry": { "type": "Point", "coordinates": [ 12.119825066000033, 45.124033621000081 ] } },
{ "type": "Feature", "properties": { "CodIstat": 27006, "DataSospetto": "2018\/08\/01 00:00:00", "Categoria": "EQUIDI", "Regione": "VENETO", "Prov": "VE", "Comune": "CAVARZERE", "count": 1 }, "geometry": { "type": "Point", "coordinates": [ 12.119825066000033, 45.124033621000081 ] } },
{ "type": "Feature", "properties": { "CodIstat": 18044, "DataSospetto": "2017\/08\/29 00:00:00", "Categoria": "UCCELLI BERSAGLIO", "Regione": "LOMBARDIA", "Prov": "PV", "Comune": "CERETTO LOMELLINA", "count": 1 }, "geometry": { "type": "Point", "coordinates": [ 8.670087293000051, 45.250713676000032 ] } },
{ "type": "Feature", "properties": { "CodIstat": 35020, "DataSospetto": "2009\/07\/24 00:00:00", "Categoria": "EQUIDI", "Regione": "EMILIA ROMAGNA", "Prov": "RE", "Comune": "CORREGGIO", "count": 1 }, "geometry": { "type": "Point", "coordinates": [ 10.765519096000048, 44.763281806000066 ] } },
{ "type": "Feature", "properties": { "CodIstat": 35020, "DataSospetto": "2013\/09\/02 00:00:00", "Categoria": "UCCELLI SELVATICI", "Regione": "EMILIA ROMAGNA", "Prov": "RE", "Comune": "CORREGGIO", "count": 1 }, "geometry": { "type": "Point", "coordinates": [ 10.765519096000048, 44.763281806000066 ] } },
{ "type": "Feature", "properties": { "CodIstat": 35020, "DataSospetto": "2016\/08\/02 00:00:00", "Categoria": "UCCELLI BERSAGLIO", "Regione": "EMILIA ROMAGNA", "Prov": "RE", "Comune": "CORREGGIO", "count": 1 }, "geometry": { "type": "Point", "coordinates": [ 10.765519096000048, 44.763281806000066 ] } },
{ "type": "Feature", "properties": { "CodIstat": 35020, "DataSospetto": "2018\/07\/13 00:00:00", "Categoria": "INSETTI", "Regione": "EMILIA ROMAGNA", "Prov": "RE", "Comune": "CORREGGIO", "count": 1 }, "geometry": { "type": "Point", "coordinates": [ 10.765519096000048, 44.763281806000066 ] } },
{ "type": "Feature", "properties": { "CodIstat": 28035, "DataSospetto": "2008\/10\/10 00:00:00", "Categoria": "EQUIDI", "Regione": "VENETO", "Prov": "PD", "Comune": "CORREZZOLA", "count": 2 }, "geometry": { "type": "Point", "coordinates": [ 12.078968365000037, 45.217354098000044 ] } },
{ "type": "Feature", "properties": { "CodIstat": 28035, "DataSospetto": "2009\/09\/29 00:00:00", "Categoria": "EQUIDI", "Regione": "VENETO", "Prov": "PD", "Comune": "CORREZZOLA", "count": 1 }, "geometry": { "type": "Point", "coordinates": [ 12.078968365000037, 45.217354098000044 ] } },
{ "type": "Feature", "properties": { "CodIstat": 28035, "DataSospetto": "2016\/09\/30 00:00:00", "Categoria": "EQUIDI", "Regione": "VENETO", "Prov": "PD", "Comune": "CORREZZOLA", "count": 1 }, "geometry": { "type": "Point", "coordinates": [ 12.078968365000037, 45.217354098000044 ] } },
{ "type": "Feature", "properties": { "CodIstat": 28035, "DataSospetto": "2017\/08\/07 00:00:00", "Categoria": "EQUIDI", "Regione": "VENETO", "Prov": "PD", "Comune": "CORREZZOLA", "count": 2 }, "geometry": { "type": "Point", "coordinates": [ 12.078968365000037, 45.217354098000044 ] } },
{ "type": "Feature", "properties": { "CodIstat": 28035, "DataSospetto": "2018\/08\/06 00:00:00", "Categoria": "EQUIDI", "Regione": "VENETO", "Prov": "PD", "Comune": "CORREZZOLA", "count": 1 }, "geometry": { "type": "Point", "coordinates": [ 12.078968365000037, 45.217354098000044 ] } },
{ "type": "Feature", "properties": { "CodIstat": 23032, "DataSospetto": "2013\/07\/17 00:00:00", "Categoria": "INSETTI", "Regione": "VENETO", "Prov": "VR", "Comune": "ERBE'", "count": 1 }, "geometry": { "type": "Point", "coordinates": [ 10.973335365000025, 45.24164644800004 ] } },
{ "type": "Feature", "properties": { "CodIstat": 23032, "DataSospetto": "2013\/08\/01 00:00:00", "Categoria": "EQUIDI", "Regione": "VENETO", "Prov": "VR", "Comune": "ERBE'", "count": 2 }, "geometry": { "type": "Point", "coordinates": [ 10.973335365000025, 45.24164644800004 ] } },
{ "type": "Feature", "properties": { "CodIstat": 23032, "DataSospetto": "2016\/07\/21 00:00:00", "Categoria": "INSETTI", "Regione": "VENETO", "Prov": "VR", "Comune": "ERBE'", "count": 1 }, "geometry": { "type": "Point", "coordinates": [ 10.973335365000025, 45.24164644800004 ] } },
{ "type": "Feature", "properties": { "CodIstat": 23032, "DataSospetto": "2017\/08\/17 00:00:00", "Categoria": "INSETTI", "Regione": "VENETO", "Prov": "VR", "Comune": "ERBE'", "count": 1 }, "geometry": { "type": "Point", "coordinates": [ 10.973335365000025, 45.24164644800004 ] } },
{ "type": "Feature", "properties": { "CodIstat": 23032, "DataSospetto": "2018\/07\/19 00:00:00", "Categoria": "INSETTI", "Regione": "VENETO", "Prov": "VR", "Comune": "ERBE'", "count": 1 }, "geometry": { "type": "Point", "coordinates": [ 10.973335365000025, 45.24164644800004 ] } },
{ "type": "Feature", "properties": { "CodIstat": 23032, "DataSospetto": "2018\/08\/02 00:00:00", "Categoria": "EQUIDI", "Regione": "VENETO", "Prov": "VR", "Comune": "ERBE'", "count": 1 }, "geometry": { "type": "Point", "coordinates": [ 10.973335365000025, 45.24164644800004 ] } },
{ "type": "Feature", "properties": { "CodIstat": 98004, "DataSospetto": "2014\/07\/22 00:00:00", "Categoria": "INSETTI", "Regione": "LOMBARDIA", "Prov": "LO", "Comune": "BORGHETTO LODIGIANO", "count": 1 }, "geometry": { "type": "Point", "coordinates": [ 9.498786557000074, 45.212124204000077 ] } },
{ "type": "Feature", "properties": { "CodIstat": 98004, "DataSospetto": "2015\/07\/15 00:00:00", "Categoria": "INSETTI", "Regione": "LOMBARDIA", "Prov": "LO", "Comune": "BORGHETTO LODIGIANO", "count": 1 }, "geometry": { "type": "Point", "coordinates": [ 9.498786557000074, 45.212124204000077 ] } },
{ "type": "Feature", "properties": { "CodIstat": 98004, "DataSospetto": "2016\/08\/26 00:00:00", "Categoria": "INSETTI", "Regione": "LOMBARDIA", "Prov": "LO", "Comune": "BORGHETTO LODIGIANO", "count": 1 }, "geometry": { "type": "Point", "coordinates": [ 9.498786557000074, 45.212124204000077 ] } },
{ "type": "Feature", "properties": { "CodIstat": 98004, "DataSospetto": "2016\/09\/16 00:00:00", "Categoria": "INSETTI", "Regione": "LOMBARDIA", "Prov": "LO", "Comune": "BORGHETTO LODIGIANO", "count": 1 }, "geometry": { "type": "Point", "coordinates": [ 9.498786557000074, 45.212124204000077 ] } },
{ "type": "Feature", "properties": { "CodIstat": 98004, "DataSospetto": "2018\/08\/08 00:00:00", "Categoria": "INSETTI", "Regione": "LOMBARDIA", "Prov": "LO", "Comune": "BORGHETTO LODIGIANO", "count": 1 }, "geometry": { "type": "Point", "coordinates": [ 9.498786557000074, 45.212124204000077 ] } },
{ "type": "Feature", "properties": { "CodIstat": 36001, "DataSospetto": "2009\/10\/03 00:00:00", "Categoria": "EQUIDI", "Regione": "EMILIA ROMAGNA", "Prov": "MO", "Comune": "BASTIGLIA", "count": 1 }, "geometry": { "type": "Point", "coordinates": [ 10.996037916000034, 44.719675468000048 ] } },
{ "type": "Feature", "properties": { "CodIstat": 38003, "DataSospetto": "2008\/09\/09 00:00:00", "Categoria": "EQUIDI", "Regione": "EMILIA ROMAGNA", "Prov": "FE", "Comune": "BONDENO", "count": 2 }, "geometry": { "type": "Point", "coordinates": [ 11.373549815000047, 44.903090030000044 ] } },
{ "type": "Feature", "properties": { "CodIstat": 38003, "DataSospetto": "2008\/09\/30 00:00:00", "Categoria": "UCCELLI BERSAGLIO", "Regione": "EMILIA ROMAGNA", "Prov": "FE", "Comune": "BONDENO", "count": 1 }, "geometry": { "type": "Point", "coordinates": [ 11.373549815000047, 44.903090030000044 ] } },
{ "type": "Feature", "properties": { "CodIstat": 38003, "DataSospetto": "2013\/07\/31 00:00:00", "Categoria": "INSETTI", "Regione": "EMILIA ROMAGNA", "Prov": "FE", "Comune": "BONDENO", "count": 1 }, "geometry": { "type": "Point", "coordinates": [ 11.373549815000047, 44.903090030000044 ] } },
{ "type": "Feature", "properties": { "CodIstat": 38003, "DataSospetto": "2014\/08\/19 00:00:00", "Categoria": "INSETTI", "Regione": "EMILIA ROMAGNA", "Prov": "FE", "Comune": "BONDENO", "count": 1 }, "geometry": { "type": "Point", "coordinates": [ 11.373549815000047, 44.903090030000044 ] } },
{ "type": "Feature", "properties": { "CodIstat": 38003, "DataSospetto": "2015\/07\/21 00:00:00", "Categoria": "INSETTI", "Regione": "EMILIA ROMAGNA", "Prov": "FE", "Comune": "BONDENO", "count": 1 }, "geometry": { "type": "Point", "coordinates": [ 11.373549815000047, 44.903090030000044 ] } },
{ "type": "Feature", "properties": { "CodIstat": 38003, "DataSospetto": "2015\/07\/21 00:00:00", "Categoria": "UCCELLI BERSAGLIO", "Regione": "EMILIA ROMAGNA", "Prov": "FE", "Comune": "BONDENO", "count": 1 }, "geometry": { "type": "Point", "coordinates": [ 11.373549815000047, 44.903090030000044 ] } },
{ "type": "Feature", "properties": { "CodIstat": 38003, "DataSospetto": "2016\/07\/27 00:00:00", "Categoria": "INSETTI", "Regione": "EMILIA ROMAGNA", "Prov": "FE", "Comune": "BONDENO", "count": 1 }, "geometry": { "type": "Point", "coordinates": [ 11.373549815000047, 44.903090030000044 ] } },
{ "type": "Feature", "properties": { "CodIstat": 38003, "DataSospetto": "2017\/08\/08 00:00:00", "Categoria": "INSETTI", "Regione": "EMILIA ROMAGNA", "Prov": "FE", "Comune": "BONDENO", "count": 1 }, "geometry": { "type": "Point", "coordinates": [ 11.373549815000047, 44.903090030000044 ] } },
{ "type": "Feature", "properties": { "CodIstat": 38003, "DataSospetto": "2017\/08\/08 00:00:00", "Categoria": "UCCELLI SELVATICI", "Regione": "EMILIA ROMAGNA", "Prov": "FE", "Comune": "BONDENO", "count": 1 }, "geometry": { "type": "Point", "coordinates": [ 11.373549815000047, 44.903090030000044 ] } },
{ "type": "Feature", "properties": { "CodIstat": 38003, "DataSospetto": "2018\/06\/19 00:00:00", "Categoria": "INSETTI", "Regione": "EMILIA ROMAGNA", "Prov": "FE", "Comune": "BONDENO", "count": 1 }, "geometry": { "type": "Point", "coordinates": [ 11.373549815000047, 44.903090030000044 ] } },
{ "type": "Feature", "properties": { "CodIstat": 38003, "DataSospetto": "2018\/06\/19 00:00:00", "Categoria": "UCCELLI SELVATICI", "Regione": "EMILIA ROMAGNA", "Prov": "FE", "Comune": "BONDENO", "count": 5 }, "geometry": { "type": "Point", "coordinates": [ 11.373549815000047, 44.903090030000044 ] } },
{ "type": "Feature", "properties": { "CodIstat": 17020, "DataSospetto": "2014\/09\/04 00:00:00", "Categoria": "INSETTI", "Regione": "LOMBARDIA", "Prov": "BS", "Comune": "BORGO SAN GIACOMO", "count": 1 }, "geometry": { "type": "Point", "coordinates": [ 9.978528899000025, 45.34586923300003 ] } },
{ "type": "Feature", "properties": { "CodIstat": 17020, "DataSospetto": "2015\/07\/22 00:00:00", "Categoria": "INSETTI", "Regione": "LOMBARDIA", "Prov": "BS", "Comune": "BORGO SAN GIACOMO", "count": 1 }, "geometry": { "type": "Point", "coordinates": [ 9.978528899000025, 45.34586923300003 ] } },
{ "type": "Feature", "properties": { "CodIstat": 17020, "DataSospetto": "2017\/07\/12 00:00:00", "Categoria": "INSETTI", "Regione": "LOMBARDIA", "Prov": "BS", "Comune": "BORGO SAN GIACOMO", "count": 1 }, "geometry": { "type": "Point", "coordinates": [ 9.978528899000025, 45.34586923300003 ] } },
{ "type": "Feature", "properties": { "CodIstat": 1027, "DataSospetto": "2018\/09\/12 00:00:00", "Categoria": "EQUIDI", "Regione": "PIEMONTE", "Prov": "TO", "Comune": "BOLLENGO", "count": 1 }, "geometry": { "type": "Point", "coordinates": [ 7.948478888000068, 45.46624530400004 ] } },
{ "type": "Feature", "properties": { "CodIstat": 37006, "DataSospetto": "2008\/10\/23 00:00:00", "Categoria": "EQUIDI", "Regione": "EMILIA ROMAGNA", "Prov": "BO", "Comune": "BOLOGNA", "count": 1 }, "geometry": { "type": "Point", "coordinates": [ 11.333126250000021, 44.49809742900004 ] } },
{ "type": "Feature", "properties": { "CodIstat": 37006, "DataSospetto": "2016\/07\/27 00:00:00", "Categoria": "INSETTI", "Regione": "EMILIA ROMAGNA", "Prov": "BO", "Comune": "BOLOGNA", "count": 1 }, "geometry": { "type": "Point", "coordinates": [ 11.333126250000021, 44.49809742900004 ] } },
{ "type": "Feature", "properties": { "CodIstat": 37006, "DataSospetto": "2016\/07\/27 00:00:00", "Categoria": "UCCELLI BERSAGLIO", "Regione": "EMILIA ROMAGNA", "Prov": "BO", "Comune": "BOLOGNA", "count": 2 }, "geometry": { "type": "Point", "coordinates": [ 11.333126250000021, 44.49809742900004 ] } },
{ "type": "Feature", "properties": { "CodIstat": 37006, "DataSospetto": "2018\/07\/13 00:00:00", "Categoria": "INSETTI", "Regione": "EMILIA ROMAGNA", "Prov": "BO", "Comune": "BOLOGNA", "count": 1 }, "geometry": { "type": "Point", "coordinates": [ 11.333126250000021, 44.49809742900004 ] } },
{ "type": "Feature", "properties": { "CodIstat": 37006, "DataSospetto": "2018\/07\/13 00:00:00", "Categoria": "UCCELLI BERSAGLIO", "Regione": "EMILIA ROMAGNA", "Prov": "BO", "Comune": "BOLOGNA", "count": 1 }, "geometry": { "type": "Point", "coordinates": [ 11.333126250000021, 44.49809742900004 ] } },
{ "type": "Feature", "properties": { "CodIstat": 37006, "DataSospetto": "2018\/07\/13 00:00:00", "Categoria": "UCCELLI SELVATICI", "Regione": "EMILIA ROMAGNA", "Prov": "BO", "Comune": "BOLOGNA", "count": 1 }, "geometry": { "type": "Point", "coordinates": [ 11.333126250000021, 44.49809742900004 ] } },
{ "type": "Feature", "properties": { "CodIstat": 37006, "DataSospetto": "2018\/08\/29 00:00:00", "Categoria": "EQUIDI", "Regione": "EMILIA ROMAGNA", "Prov": "BO", "Comune": "BOLOGNA", "count": 1 }, "geometry": { "type": "Point", "coordinates": [ 11.333126250000021, 44.49809742900004 ] } },
{ "type": "Feature", "properties": { "CodIstat": 93009, "DataSospetto": "2018\/08\/07 00:00:00", "Categoria": "INSETTI", "Regione": "FRIULI VENEZIA GIULIA", "Prov": "PN", "Comune": "CANEVA", "count": 1 }, "geometry": { "type": "Point", "coordinates": [ 12.447454082000036, 45.994429921000062 ] } },
{ "type": "Feature", "properties": { "CodIstat": 30013, "DataSospetto": "2011\/10\/24 00:00:00", "Categoria": "EQUIDI", "Regione": "FRIULI VENEZIA GIULIA", "Prov": "UD", "Comune": "BUJA", "count": 1 }, "geometry": { "type": "Point", "coordinates": [ 13.111234263000028, 46.214815773000055 ] } },
{ "type": "Feature", "properties": { "CodIstat": 30013, "DataSospetto": "2012\/09\/20 00:00:00", "Categoria": "EQUIDI", "Regione": "FRIULI VENEZIA GIULIA", "Prov": "UD", "Comune": "BUJA", "count": 1 }, "geometry": { "type": "Point", "coordinates": [ 13.111234263000028, 46.214815773000055 ] } },
{ "type": "Feature", "properties": { "CodIstat": 30032, "DataSospetto": "2018\/09\/27 00:00:00", "Categoria": "EQUIDI", "Regione": "FRIULI VENEZIA GIULIA", "Prov": "UD", "Comune": "DIGNANO", "count": 1 }, "geometry": { "type": "Point", "coordinates": [ 12.949073240000075, 46.09411601000005 ] } },
{ "type": "Feature", "properties": { "CodIstat": 29024, "DataSospetto": "2008\/10\/27 00:00:00", "Categoria": "EQUIDI", "Regione": "VENETO", "Prov": "RO", "Comune": "FRATTA POLESINE", "count": 1 }, "geometry": { "type": "Point", "coordinates": [ 11.633084120000035, 45.021226283000033 ] } },
{ "type": "Feature", "properties": { "CodIstat": 34015, "DataSospetto": "2013\/09\/02 00:00:00", "Categoria": "UCCELLI BERSAGLIO", "Regione": "EMILIA ROMAGNA", "Prov": "PR", "Comune": "FONTANELLATO", "count": 1 }, "geometry": { "type": "Point", "coordinates": [ 10.164201040000023, 44.880885248000027 ] } },
{ "type": "Feature", "properties": { "CodIstat": 27009, "DataSospetto": "2011\/07\/27 00:00:00", "Categoria": "INSETTI", "Regione": "VENETO", "Prov": "VE", "Comune": "CINTO CAOMAGGIORE", "count": 1 }, "geometry": { "type": "Point", "coordinates": [ 12.780139532000021, 45.82146093800003 ] } },
{ "type": "Feature", "properties": { "CodIstat": 27009, "DataSospetto": "2012\/07\/31 00:00:00", "Categoria": "INSETTI", "Regione": "VENETO", "Prov": "VE", "Comune": "CINTO CAOMAGGIORE", "count": 1 }, "geometry": { "type": "Point", "coordinates": [ 12.780139532000021, 45.82146093800003 ] } },
{ "type": "Feature", "properties": { "CodIstat": 27009, "DataSospetto": "2018\/07\/31 00:00:00", "Categoria": "INSETTI", "Regione": "VENETO", "Prov": "VE", "Comune": "CINTO CAOMAGGIORE", "count": 1 }, "geometry": { "type": "Point", "coordinates": [ 12.780139532000021, 45.82146093800003 ] } },
{ "type": "Feature", "properties": { "CodIstat": 17043, "DataSospetto": "2018\/08\/09 00:00:00", "Categoria": "UCCELLI BERSAGLIO", "Regione": "LOMBARDIA", "Prov": "BS", "Comune": "CASTENEDOLO", "count": 1 }, "geometry": { "type": "Point", "coordinates": [ 10.29515824300006, 45.467238974000054 ] } },
{ "type": "Feature", "properties": { "CodIstat": 29013, "DataSospetto": "2008\/10\/07 00:00:00", "Categoria": "EQUIDI", "Regione": "VENETO", "Prov": "RO", "Comune": "CASTELNOVO BARIANO", "count": 1 }, "geometry": { "type": "Point", "coordinates": [ 11.307356585000036, 45.055639623000047 ] } },
{ "type": "Feature", "properties": { "CodIstat": 29013, "DataSospetto": "2013\/08\/07 00:00:00", "Categoria": "INSETTI", "Regione": "VENETO", "Prov": "RO", "Comune": "CASTELNOVO BARIANO", "count": 1 }, "geometry": { "type": "Point", "coordinates": [ 11.307356585000036, 45.055639623000047 ] } },
{ "type": "Feature", "properties": { "CodIstat": 35015, "DataSospetto": "2014\/08\/21 00:00:00", "Categoria": "EQUIDI", "Regione": "EMILIA ROMAGNA", "Prov": "RE", "Comune": "CASTELNOVO DI SOTTO", "count": 1 }, "geometry": { "type": "Point", "coordinates": [ 10.577550552000048, 44.82165907600006 ] } },
{ "type": "Feature", "properties": { "CodIstat": 35015, "DataSospetto": "2015\/07\/23 00:00:00", "Categoria": "UCCELLI BERSAGLIO", "Regione": "EMILIA ROMAGNA", "Prov": "RE", "Comune": "CASTELNOVO DI SOTTO", "count": 1 }, "geometry": { "type": "Point", "coordinates": [ 10.577550552000048, 44.82165907600006 ] } },
{ "type": "Feature", "properties": { "CodIstat": 87015, "DataSospetto": "2014\/09\/29 00:00:00", "Categoria": "AVICOLI", "Regione": "SICILIA", "Prov": "CT", "Comune": "CATANIA", "count": 2 }, "geometry": { "type": "Point", "coordinates": [ 15.035672033000026, 37.442155443000047 ] } },
{ "type": "Feature", "properties": { "CodIstat": 87015, "DataSospetto": "2014\/09\/29 00:00:00", "Categoria": "UCCELLI SELVATICI", "Regione": "SICILIA", "Prov": "CT", "Comune": "CATANIA", "count": 1 }, "geometry": { "type": "Point", "coordinates": [ 15.035672033000026, 37.442155443000047 ] } },
{ "type": "Feature", "properties": { "CodIstat": 20024, "DataSospetto": "2009\/09\/25 00:00:00", "Categoria": "EQUIDI", "Regione": "LOMBARDIA", "Prov": "MN", "Comune": "GAZOLDO DEGLI IPPOLITI", "count": 1 }, "geometry": { "type": "Point", "coordinates": [ 10.56532702100003, 45.194017 ] } },
{ "type": "Feature", "properties": { "CodIstat": 77003, "DataSospetto": "2012\/11\/26 00:00:00", "Categoria": "AVICOLI", "Regione": "BASILICATA", "Prov": "MT", "Comune": "BERNALDA", "count": 2 }, "geometry": { "type": "Point", "coordinates": [ 16.762409350000041, 40.409030883000071 ] } },
{ "type": "Feature", "properties": { "CodIstat": 1013, "DataSospetto": "2016\/12\/15 00:00:00", "Categoria": "UCCELLI SELVATICI", "Regione": "PIEMONTE", "Prov": "TO", "Comune": "AVIGLIANA", "count": 1 }, "geometry": { "type": "Point", "coordinates": [ 7.392199512000047, 45.074918453000066 ] } },
{ "type": "Feature", "properties": { "CodIstat": 30001, "DataSospetto": "2011\/10\/26 00:00:00", "Categoria": "EQUIDI", "Regione": "FRIULI VENEZIA GIULIA", "Prov": "UD", "Comune": "AIELLO DEL FRIULI", "count": 1 }, "geometry": { "type": "Point", "coordinates": [ 13.353763045000051, 45.872255519000078 ] } },
{ "type": "Feature", "properties": { "CodIstat": 30001, "DataSospetto": "2011\/11\/28 00:00:00", "Categoria": "EQUIDI", "Regione": "FRIULI VENEZIA GIULIA", "Prov": "UD", "Comune": "AIELLO DEL FRIULI", "count": 1 }, "geometry": { "type": "Point", "coordinates": [ 13.353763045000051, 45.872255519000078 ] } },
{ "type": "Feature", "properties": { "CodIstat": 33002, "DataSospetto": "2018\/07\/24 00:00:00", "Categoria": "INSETTI", "Regione": "EMILIA ROMAGNA", "Prov": "PC", "Comune": "ALSENO", "count": 1 }, "geometry": { "type": "Point", "coordinates": [ 9.962484394000057, 44.887353463000068 ] } },
{ "type": "Feature", "properties": { "CodIstat": 2003, "DataSospetto": "2018\/07\/31 00:00:00", "Categoria": "INSETTI", "Regione": "PIEMONTE", "Prov": "VC", "Comune": "ALBANO VERCELLESE", "count": 1 }, "geometry": { "type": "Point", "coordinates": [ 8.380794008000066, 45.425553637000064 ] } },
{ "type": "Feature", "properties": { "CodIstat": 37008, "DataSospetto": "2008\/10\/10 00:00:00", "Categoria": "EQUIDI", "Regione": "EMILIA ROMAGNA", "Prov": "BO", "Comune": "BUDRIO", "count": 1 }, "geometry": { "type": "Point", "coordinates": [ 11.54604484400005, 44.562643367000078 ] } },
{ "type": "Feature", "properties": { "CodIstat": 37008, "DataSospetto": "2014\/08\/06 00:00:00", "Categoria": "INSETTI", "Regione": "EMILIA ROMAGNA", "Prov": "BO", "Comune": "BUDRIO", "count": 1 }, "geometry": { "type": "Point", "coordinates": [ 11.54604484400005, 44.562643367000078 ] } },
{ "type": "Feature", "properties": { "CodIstat": 37008, "DataSospetto": "2016\/07\/14 00:00:00", "Categoria": "INSETTI", "Regione": "EMILIA ROMAGNA", "Prov": "BO", "Comune": "BUDRIO", "count": 1 }, "geometry": { "type": "Point", "coordinates": [ 11.54604484400005, 44.562643367000078 ] } },
{ "type": "Feature", "properties": { "CodIstat": 37008, "DataSospetto": "2016\/07\/14 00:00:00", "Categoria": "UCCELLI BERSAGLIO", "Regione": "EMILIA ROMAGNA", "Prov": "BO", "Comune": "BUDRIO", "count": 2 }, "geometry": { "type": "Point", "coordinates": [ 11.54604484400005, 44.562643367000078 ] } },
{ "type": "Feature", "properties": { "CodIstat": 37008, "DataSospetto": "2016\/08\/05 00:00:00", "Categoria": "EQUIDI", "Regione": "EMILIA ROMAGNA", "Prov": "BO", "Comune": "BUDRIO", "count": 1 }, "geometry": { "type": "Point", "coordinates": [ 11.54604484400005, 44.562643367000078 ] } },
{ "type": "Feature", "properties": { "CodIstat": 37008, "DataSospetto": "2017\/01\/27 00:00:00", "Categoria": "UCCELLI SELVATICI", "Regione": "EMILIA ROMAGNA", "Prov": "BO", "Comune": "BUDRIO", "count": 1 }, "geometry": { "type": "Point", "coordinates": [ 11.54604484400005, 44.562643367000078 ] } },
{ "type": "Feature", "properties": { "CodIstat": 37008, "DataSospetto": "2017\/08\/02 00:00:00", "Categoria": "INSETTI", "Regione": "EMILIA ROMAGNA", "Prov": "BO", "Comune": "BUDRIO", "count": 1 }, "geometry": { "type": "Point", "coordinates": [ 11.54604484400005, 44.562643367000078 ] } },
{ "type": "Feature", "properties": { "CodIstat": 37008, "DataSospetto": "2018\/07\/13 00:00:00", "Categoria": "INSETTI", "Regione": "EMILIA ROMAGNA", "Prov": "BO", "Comune": "BUDRIO", "count": 1 }, "geometry": { "type": "Point", "coordinates": [ 11.54604484400005, 44.562643367000078 ] } },
{ "type": "Feature", "properties": { "CodIstat": 37008, "DataSospetto": "2018\/07\/13 00:00:00", "Categoria": "UCCELLI BERSAGLIO", "Regione": "EMILIA ROMAGNA", "Prov": "BO", "Comune": "BUDRIO", "count": 1 }, "geometry": { "type": "Point", "coordinates": [ 11.54604484400005, 44.562643367000078 ] } },
{ "type": "Feature", "properties": { "CodIstat": 36002, "DataSospetto": "2008\/09\/10 00:00:00", "Categoria": "EQUIDI", "Regione": "EMILIA ROMAGNA", "Prov": "MO", "Comune": "BOMPORTO", "count": 1 }, "geometry": { "type": "Point", "coordinates": [ 11.04755000800003, 44.752902972000072 ] } },
{ "type": "Feature", "properties": { "CodIstat": 36002, "DataSospetto": "2008\/10\/09 00:00:00", "Categoria": "EQUIDI", "Regione": "EMILIA ROMAGNA", "Prov": "MO", "Comune": "BOMPORTO", "count": 1 }, "geometry": { "type": "Point", "coordinates": [ 11.04755000800003, 44.752902972000072 ] } },
{ "type": "Feature", "properties": { "CodIstat": 36002, "DataSospetto": "2009\/09\/01 00:00:00", "Categoria": "UCCELLI BERSAGLIO", "Regione": "EMILIA ROMAGNA", "Prov": "MO", "Comune": "BOMPORTO", "count": 1 }, "geometry": { "type": "Point", "coordinates": [ 11.04755000800003, 44.752902972000072 ] } },
{ "type": "Feature", "properties": { "CodIstat": 33014, "DataSospetto": "2013\/08\/08 00:00:00", "Categoria": "UCCELLI BERSAGLIO", "Regione": "EMILIA ROMAGNA", "Prov": "PC", "Comune": "CASTELVETRO PIACENTINO", "count": 1 }, "geometry": { "type": "Point", "coordinates": [ 9.991470188000051, 45.088230857000042 ] } },
{ "type": "Feature", "properties": { "CodIstat": 33014, "DataSospetto": "2014\/08\/19 00:00:00", "Categoria": "INSETTI", "Regione": "EMILIA ROMAGNA", "Prov": "PC", "Comune": "CASTELVETRO PIACENTINO", "count": 1 }, "geometry": { "type": "Point", "coordinates": [ 9.991470188000051, 45.088230857000042 ] } },
{ "type": "Feature", "properties": { "CodIstat": 33014, "DataSospetto": "2015\/09\/09 00:00:00", "Categoria": "INSETTI", "Regione": "EMILIA ROMAGNA", "Prov": "PC", "Comune": "CASTELVETRO PIACENTINO", "count": 1 }, "geometry": { "type": "Point", "coordinates": [ 9.991470188000051, 45.088230857000042 ] } },
{ "type": "Feature", "properties": { "CodIstat": 24021, "DataSospetto": "2018\/07\/31 00:00:00", "Categoria": "EQUIDI", "Regione": "VENETO", "Prov": "VI", "Comune": "CAMISANO VICENTINO", "count": 1 }, "geometry": { "type": "Point", "coordinates": [ 11.711818978000053, 45.525350891000073 ] } },
{ "type": "Feature", "properties": { "CodIstat": 38007, "DataSospetto": "2008\/09\/28 00:00:00", "Categoria": "UCCELLI SELVATICI", "Regione": "EMILIA ROMAGNA", "Prov": "FE", "Comune": "COPPARO", "count": 1 }, "geometry": { "type": "Point", "coordinates": [ 11.860675907000029, 44.902406816000052 ] } },
{ "type": "Feature", "properties": { "CodIstat": 38007, "DataSospetto": "2008\/09\/29 00:00:00", "Categoria": "EQUIDI", "Regione": "EMILIA ROMAGNA", "Prov": "FE", "Comune": "COPPARO", "count": 1 }, "geometry": { "type": "Point", "coordinates": [ 11.860675907000029, 44.902406816000052 ] } },
{ "type": "Feature", "properties": { "CodIstat": 38007, "DataSospetto": "2008\/09\/30 00:00:00", "Categoria": "EQUIDI", "Regione": "EMILIA ROMAGNA", "Prov": "FE", "Comune": "COPPARO", "count": 2 }, "geometry": { "type": "Point", "coordinates": [ 11.860675907000029, 44.902406816000052 ] } },
{ "type": "Feature", "properties": { "CodIstat": 38007, "DataSospetto": "2008\/10\/15 00:00:00", "Categoria": "EQUIDI", "Regione": "EMILIA ROMAGNA", "Prov": "FE", "Comune": "COPPARO", "count": 1 }, "geometry": { "type": "Point", "coordinates": [ 11.860675907000029, 44.902406816000052 ] } },
{ "type": "Feature", "properties": { "CodIstat": 38007, "DataSospetto": "2008\/10\/21 00:00:00", "Categoria": "EQUIDI", "Regione": "EMILIA ROMAGNA", "Prov": "FE", "Comune": "COPPARO", "count": 1 }, "geometry": { "type": "Point", "coordinates": [ 11.860675907000029, 44.902406816000052 ] } },
{ "type": "Feature", "properties": { "CodIstat": 38007, "DataSospetto": "2008\/10\/31 00:00:00", "Categoria": "EQUIDI", "Regione": "EMILIA ROMAGNA", "Prov": "FE", "Comune": "COPPARO", "count": 1 },