{
"type": "FeatureCollection",
"crs": { "type": "name", "properties": { "name": "urn:ogc:def:crs:OGC:1.3:CRS84" } },
"features": [
{ "type": "Feature", "properties": { "CodIstat": 26023, "AnnoBollettino": 2018, "Regione": "VENETO", "Prov": "TV", "Comune": "CORNUDA", "INSETTI": 0, "UCCELLI": 1, "EQUIDI": 0, "AVICOLI": 0, "UOMO": 0 }, "geometry": { "type": "Point", "coordinates": [ 11.995798776000072, 45.832265679000045 ] } },
{ "type": "Feature", "properties": { "CodIstat": 38006, "AnnoBollettino": 2018, "Regione": "EMILIA ROMAGNA", "Prov": "FE", "Comune": "COMACCHIO", "INSETTI": 3, "UCCELLI": 1, "EQUIDI": 0, "AVICOLI": 0, "UOMO": 0 }, "geometry": { "type": "Point", "coordinates": [ 12.162001007000072, 44.683399501000054 ] } },
{ "type": "Feature", "properties": { "CodIstat": 33018, "AnnoBollettino": 2018, "Regione": "EMILIA ROMAGNA", "Prov": "PC", "Comune": "CORTEMAGGIORE", "INSETTI": 1, "UCCELLI": 0, "EQUIDI": 0, "AVICOLI": 0, "UOMO": 0 }, "geometry": { "type": "Point", "coordinates": [ 9.920532560000026, 45.00042372200005 ] } },
{ "type": "Feature", "properties": { "CodIstat": 29021, "AnnoBollettino": 2018, "Regione": "VENETO", "Prov": "RO", "Comune": "FICAROLO", "INSETTI": 2, "UCCELLI": 0, "EQUIDI": 0, "AVICOLI": 0, "UOMO": 0 }, "geometry": { "type": "Point", "coordinates": [ 11.445932400000061, 44.957650980000039 ] } },
{ "type": "Feature", "properties": { "CodIstat": 36015, "AnnoBollettino": 2018, "Regione": "EMILIA ROMAGNA", "Prov": "MO", "Comune": "FORMIGINE", "INSETTI": 2, "UCCELLI": 0, "EQUIDI": 0, "AVICOLI": 0, "UOMO": 0 }, "geometry": { "type": "Point", "coordinates": [ 10.845983772000068, 44.57987539700008 ] } },
{ "type": "Feature", "properties": { "CodIstat": 20030, "AnnoBollettino": 2018, "Regione": "LOMBARDIA", "Prov": "MN", "Comune": "MANTOVA", "INSETTI": 1, "UCCELLI": 0, "EQUIDI": 0, "AVICOLI": 0, "UOMO": 0 }, "geometry": { "type": "Point", "coordinates": [ 10.807245263000027, 45.149232174000076 ] } },
{ "type": "Feature", "properties": { "CodIstat": 39012, "AnnoBollettino": 2018, "Regione": "EMILIA ROMAGNA", "Prov": "RA", "Comune": "LUGO", "INSETTI": 2, "UCCELLI": 1, "EQUIDI": 0, "AVICOLI": 0, "UOMO": 0 }, "geometry": { "type": "Point", "coordinates": [ 11.906486269000027, 44.477350167000054 ] } },
{ "type": "Feature", "properties": { "CodIstat": 108033, "AnnoBollettino": 2018, "Regione": "LOMBARDIA", "Prov": "MB", "Comune": "MONZA", "INSETTI": 0, "UCCELLI": 1, "EQUIDI": 0, "AVICOLI": 0, "UOMO": 0 }, "geometry": { "type": "Point", "coordinates": [ 9.275801379000029, 45.585108520000063 ] } },
{ "type": "Feature", "properties": { "CodIstat": 108033, "AnnoBollettino": 2018, "Regione": "LOMBARDIA", "Prov": "MI", "Comune": "MONZA", "INSETTI": 0, "UCCELLI": 1, "EQUIDI": 0, "AVICOLI": 0, "UOMO": 0 }, "geometry": { "type": "Point", "coordinates": [ 9.275801379000029, 45.585108520000063 ] } },
{ "type": "Feature", "properties": { "CodIstat": 20036, "AnnoBollettino": 2018, "Regione": "LOMBARDIA", "Prov": "MN", "Comune": "MONZAMBANO", "INSETTI": 1, "UCCELLI": 0, "EQUIDI": 0, "AVICOLI": 0, "UOMO": 0 }, "geometry": { "type": "Point", "coordinates": [ 10.667984080000053, 45.37989556000008 ] } },
{ "type": "Feature", "properties": { "CodIstat": 34027, "AnnoBollettino": 2018, "Regione": "EMILIA ROMAGNA", "Prov": "PR", "Comune": "PARMA", "INSETTI": 2, "UCCELLI": 0, "EQUIDI": 0, "AVICOLI": 0, "UOMO": 0 }, "geometry": { "type": "Point", "coordinates": [ 10.32746018000006, 44.793681783000068 ] } },
{ "type": "Feature", "properties": { "CodIstat": 38025, "AnnoBollettino": 2018, "Regione": "EMILIA ROMAGNA", "Prov": "FE", "Comune": "GORO", "INSETTI": 1, "UCCELLI": 0, "EQUIDI": 0, "AVICOLI": 0, "UOMO": 0 }, "geometry": { "type": "Point", "coordinates": [ 12.317030933000069, 44.831681192000076 ] } },
{ "type": "Feature", "properties": { "CodIstat": 38010, "AnnoBollettino": 2018, "Regione": "EMILIA ROMAGNA", "Prov": "FE", "Comune": "JOLANDA DI SAVOIA", "INSETTI": 2, "UCCELLI": 0, "EQUIDI": 0, "AVICOLI": 0, "UOMO": 0 }, "geometry": { "type": "Point", "coordinates": [ 11.978906033000044, 44.875553306000029 ] } },
{ "type": "Feature", "properties": { "CodIstat": 36027, "AnnoBollettino": 2018, "Regione": "EMILIA ROMAGNA", "Prov": "MO", "Comune": "NONANTOLA", "INSETTI": 5, "UCCELLI": 0, "EQUIDI": 0, "AVICOLI": 0, "UOMO": 0 }, "geometry": { "type": "Point", "coordinates": [ 11.05584755600006, 44.685255319000078 ] } },
{ "type": "Feature", "properties": { "CodIstat": 36028, "AnnoBollettino": 2018, "Regione": "EMILIA ROMAGNA", "Prov": "MO", "Comune": "NOVI DI MODENA", "INSETTI": 1, "UCCELLI": 0, "EQUIDI": 0, "AVICOLI": 0, "UOMO": 0 }, "geometry": { "type": "Point", "coordinates": [ 10.929528859000072, 44.873623681000026 ] } },
{ "type": "Feature", "properties": { "CodIstat": 3106, "AnnoBollettino": 2018, "Regione": "PIEMONTE", "Prov": "NO", "Comune": "NOVARA", "INSETTI": 2, "UCCELLI": 0, "EQUIDI": 0, "AVICOLI": 0, "UOMO": 0 }, "geometry": { "type": "Point", "coordinates": [ 8.615455842000074, 45.439660223000033 ] } },
{ "type": "Feature", "properties": { "CodIstat": 97057, "AnnoBollettino": 2018, "Regione": "LOMBARDIA", "Prov": "LC", "Comune": "OGGIONO", "INSETTI": 1, "UCCELLI": 0, "EQUIDI": 0, "AVICOLI": 0, "UOMO": 0 }, "geometry": { "type": "Point", "coordinates": [ 9.344968155000061, 45.791671388000054 ] } },
{ "type": "Feature", "properties": { "CodIstat": 27024, "AnnoBollettino": 2018, "Regione": "VENETO", "Prov": "VE", "Comune": "MIRANO", "INSETTI": 2, "UCCELLI": 0, "EQUIDI": 0, "AVICOLI": 0, "UOMO": 0 }, "geometry": { "type": "Point", "coordinates": [ 12.08763310300003, 45.485662309000077 ] } },
{ "type": "Feature", "properties": { "CodIstat": 38014, "AnnoBollettino": 2018, "Regione": "EMILIA ROMAGNA", "Prov": "FE", "Comune": "MESOLA", "INSETTI": 1, "UCCELLI": 0, "EQUIDI": 0, "AVICOLI": 0, "UOMO": 0 }, "geometry": { "type": "Point", "coordinates": [ 12.218792182000072, 44.899748009000064 ] } },
{ "type": "Feature", "properties": { "CodIstat": 103057, "AnnoBollettino": 2018, "Regione": "PIEMONTE", "Prov": "VB", "Comune": "PREMOSELLO-CHIOVENDA", "INSETTI": 0, "UCCELLI": 2, "EQUIDI": 0, "AVICOLI": 0, "UOMO": 0 }, "geometry": { "type": "Point", "coordinates": [ 8.362820750000026, 46.016896778000046 ] } },
{ "type": "Feature", "properties": { "CodIstat": 30072, "AnnoBollettino": 2018, "Regione": "FRIULI VENEZIA GIULIA", "Prov": "UD", "Comune": "PASIAN DI PRATO", "INSETTI": 0, "UCCELLI": 1, "EQUIDI": 0, "AVICOLI": 0, "UOMO": 0 }, "geometry": { "type": "Point", "coordinates": [ 13.167721712000059, 46.052821127000072 ] } },
{ "type": "Feature", "properties": { "CodIstat": 17119, "AnnoBollettino": 2018, "Regione": "LOMBARDIA", "Prov": "BS", "Comune": "NUVOLENTO", "INSETTI": 1, "UCCELLI": 0, "EQUIDI": 0, "AVICOLI": 0, "UOMO": 0 }, "geometry": { "type": "Point", "coordinates": [ 10.387320483000053, 45.541667548000078 ] } },
{ "type": "Feature", "properties": { "CodIstat": 38018, "AnnoBollettino": 2018, "Regione": "EMILIA ROMAGNA", "Prov": "FE", "Comune": "POGGIO RENATICO", "INSETTI": 3, "UCCELLI": 1, "EQUIDI": 0, "AVICOLI": 0, "UOMO": 0 }, "geometry": { "type": "Point", "coordinates": [ 11.496945050000022, 44.77036408400005 ] } },
{ "type": "Feature", "properties": { "CodIstat": 20042, "AnnoBollettino": 2018, "Regione": "LOMBARDIA", "Prov": "MN", "Comune": "POGGIO RUSCO", "INSETTI": 1, "UCCELLI": 0, "EQUIDI": 0, "AVICOLI": 0, "UOMO": 0 }, "geometry": { "type": "Point", "coordinates": [ 11.158354661000033, 44.963667921000081 ] } },
{ "type": "Feature", "properties": { "CodIstat": 23055, "AnnoBollettino": 2018, "Regione": "VENETO", "Prov": "VR", "Comune": "OPPEANO", "INSETTI": 1, "UCCELLI": 0, "EQUIDI": 0, "AVICOLI": 0, "UOMO": 0 }, "geometry": { "type": "Point", "coordinates": [ 11.113315647000036, 45.310311312000067 ] } },
{ "type": "Feature", "properties": { "CodIstat": 22153, "AnnoBollettino": 2018, "Regione": "TRENTO", "Prov": "TN", "Comune": "RIVA DEL GARDA", "INSETTI": 0, "UCCELLI": 1, "EQUIDI": 0, "AVICOLI": 0, "UOMO": 0 }, "geometry": { "type": "Point", "coordinates": [ 10.821034960000077, 45.889200792000054 ] } },
{ "type": "Feature", "properties": { "CodIstat": 6003, "AnnoBollettino": 2018, "Regione": "PIEMONTE", "Prov": "AL", "Comune": "ALESSANDRIA", "INSETTI": 2, "UCCELLI": 0, "EQUIDI": 0, "AVICOLI": 0, "UOMO": 0 }, "geometry": { "type": "Point", "coordinates": [ 8.644397053000034, 44.909194178000064 ] } },
{ "type": "Feature", "properties": { "CodIstat": 37024, "AnnoBollettino": 2018, "Regione": "EMILIA ROMAGNA", "Prov": "BO", "Comune": "CREVALCORE", "INSETTI": 2, "UCCELLI": 0, "EQUIDI": 0, "AVICOLI": 0, "UOMO": 0 }, "geometry": { "type": "Point", "coordinates": [ 11.185571920000029, 44.752543975000037 ] } },
{ "type": "Feature", "properties": { "CodIstat": 23032, "AnnoBollettino": 2018, "Regione": "VENETO", "Prov": "VR", "Comune": "ERBE'", "INSETTI": 1, "UCCELLI": 0, "EQUIDI": 0, "AVICOLI": 0, "UOMO": 0 }, "geometry": { "type": "Point", "coordinates": [ 10.973335365000025, 45.24164644800004 ] } },
{ "type": "Feature", "properties": { "CodIstat": 98004, "AnnoBollettino": 2018, "Regione": "LOMBARDIA", "Prov": "LO", "Comune": "BORGHETTO LODIGIANO", "INSETTI": 1, "UCCELLI": 0, "EQUIDI": 0, "AVICOLI": 0, "UOMO": 0 }, "geometry": { "type": "Point", "coordinates": [ 9.498786557000074, 45.212124204000077 ] } },
{ "type": "Feature", "properties": { "CodIstat": 38003, "AnnoBollettino": 2018, "Regione": "EMILIA ROMAGNA", "Prov": "FE", "Comune": "BONDENO", "INSETTI": 2, "UCCELLI": 2, "EQUIDI": 0, "AVICOLI": 0, "UOMO": 0 }, "geometry": { "type": "Point", "coordinates": [ 11.373549815000047, 44.903090030000044 ] } },
{ "type": "Feature", "properties": { "CodIstat": 37006, "AnnoBollettino": 2018, "Regione": "EMILIA ROMAGNA", "Prov": "BO", "Comune": "BOLOGNA", "INSETTI": 6, "UCCELLI": 61, "EQUIDI": 0, "AVICOLI": 0, "UOMO": 0 }, "geometry": { "type": "Point", "coordinates": [ 11.333126250000021, 44.49809742900004 ] } },
{ "type": "Feature", "properties": { "CodIstat": 93009, "AnnoBollettino": 2018, "Regione": "FRIULI VENEZIA GIULIA", "Prov": "PN", "Comune": "CANEVA", "INSETTI": 1, "UCCELLI": 0, "EQUIDI": 0, "AVICOLI": 0, "UOMO": 0 }, "geometry": { "type": "Point", "coordinates": [ 12.447454082000036, 45.994429921000062 ] } },
{ "type": "Feature", "properties": { "CodIstat": 37008, "AnnoBollettino": 2018, "Regione": "EMILIA ROMAGNA", "Prov": "BO", "Comune": "BUDRIO", "INSETTI": 2, "UCCELLI": 1, "EQUIDI": 0, "AVICOLI": 0, "UOMO": 0 }, "geometry": { "type": "Point", "coordinates": [ 11.54604484400005, 44.562643367000078 ] } },
{ "type": "Feature", "properties": { "CodIstat": 38007, "AnnoBollettino": 2018, "Regione": "EMILIA ROMAGNA", "Prov": "FE", "Comune": "COPPARO", "INSETTI": 4, "UCCELLI": 0, "EQUIDI": 0, "AVICOLI": 0, "UOMO": 0 }, "geometry": { "type": "Point", "coordinates": [ 11.860675907000029, 44.902406816000052 ] } },
{ "type": "Feature", "properties": { "CodIstat": 59001, "AnnoBollettino": 2018, "Regione": "LAZIO", "Prov": "LT", "Comune": "APRILIA", "INSETTI": 1, "UCCELLI": 0, "EQUIDI": 0, "AVICOLI": 0, "UOMO": 0 }, "geometry": { "type": "Point", "coordinates": [ 12.656093227000042, 41.578585702000055 ] } },
{ "type": "Feature", "properties": { "CodIstat": 38001, "AnnoBollettino": 2018, "Regione": "EMILIA ROMAGNA", "Prov": "FE", "Comune": "ARGENTA", "INSETTI": 2, "UCCELLI": 2, "EQUIDI": 0, "AVICOLI": 0, "UOMO": 0 }, "geometry": { "type": "Point", "coordinates": [ 11.888721223000061, 44.622211224000068 ] } },
{ "type": "Feature", "properties": { "CodIstat": 35021, "AnnoBollettino": 2018, "Regione": "EMILIA ROMAGNA", "Prov": "RE", "Comune": "FABBRICO", "INSETTI": 4, "UCCELLI": 0, "EQUIDI": 0, "AVICOLI": 0, "UOMO": 0 }, "geometry": { "type": "Point", "coordinates": [ 10.812774404000038, 44.875873221000063 ] } },
{ "type": "Feature", "properties": { "CodIstat": 15041, "AnnoBollettino": 2018, "Regione": "LOMBARDIA", "Prov": "MI", "Comune": "BUSTO GAROLFO", "INSETTI": 1, "UCCELLI": 0, "EQUIDI": 0, "AVICOLI": 0, "UOMO": 0 }, "geometry": { "type": "Point", "coordinates": [ 8.884613619000049, 45.544619070000067 ] } },
{ "type": "Feature", "properties": { "CodIstat": 4049, "AnnoBollettino": 2018, "Regione": "EMILIA ROMAGNA", "Prov": "PR", "Comune": "SISSA TRECASALI", "INSETTI": 2, "UCCELLI": 0, "EQUIDI": 0, "AVICOLI": 0, "UOMO": 0 }, "geometry": { "type": "Point", "coordinates": [ 7.635572460000049, 44.431345116000045 ] } },
{ "type": "Feature", "properties": { "CodIstat": 33010, "AnnoBollettino": 2018, "Regione": "EMILIA ROMAGNA", "Prov": "PC", "Comune": "CAORSO", "INSETTI": 1, "UCCELLI": 0, "EQUIDI": 0, "AVICOLI": 0, "UOMO": 0 }, "geometry": { "type": "Point", "coordinates": [ 9.855391808000036, 45.05358803200005 ] } },
{ "type": "Feature", "properties": { "CodIstat": 59005, "AnnoBollettino": 2018, "Regione": "LAZIO", "Prov": "LT", "Comune": "CISTERNA DI LATINA", "INSETTI": 7, "UCCELLI": 0, "EQUIDI": 0, "AVICOLI": 0, "UOMO": 0 }, "geometry": { "type": "Point", "coordinates": [ 12.83733987200003, 41.573361358000056 ] } },
{ "type": "Feature", "properties": { "CodIstat": 33013, "AnnoBollettino": 2018, "Regione": "EMILIA ROMAGNA", "Prov": "PC", "Comune": "CASTEL SAN GIOVANNI", "INSETTI": 2, "UCCELLI": 0, "EQUIDI": 0, "AVICOLI": 0, "UOMO": 0 }, "geometry": { "type": "Point", "coordinates": [ 9.427557903000036, 45.058024206000027 ] } },
{ "type": "Feature", "properties": { "CodIstat": 6049, "AnnoBollettino": 2018, "Regione": "PIEMONTE", "Prov": "AL", "Comune": "CASTELLETTO D'ORBA", "INSETTI": 0, "UCCELLI": 1, "EQUIDI": 0, "AVICOLI": 0, "UOMO": 0 }, "geometry": { "type": "Point", "coordinates": [ 8.708496524000054, 44.68822477100008 ] } },
{ "type": "Feature", "properties": { "CodIstat": 37045, "AnnoBollettino": 2018, "Regione": "EMILIA ROMAGNA", "Prov": "BO", "Comune": "MORDANO", "INSETTI": 2, "UCCELLI": 0, "EQUIDI": 0, "AVICOLI": 0, "UOMO": 0 }, "geometry": { "type": "Point", "coordinates": [ 11.796195598000054, 44.409512989000063 ] } },
{ "type": "Feature", "properties": { "CodIstat": 30010, "AnnoBollettino": 2018, "Regione": "FRIULI VENEZIA GIULIA", "Prov": "UD", "Comune": "BERTIOLO", "INSETTI": 1, "UCCELLI": 0, "EQUIDI": 0, "AVICOLI": 0, "UOMO": 0 }, "geometry": { "type": "Point", "coordinates": [ 13.060954293000066, 45.936336012000027 ] } },
{ "type": "Feature", "properties": { "CodIstat": 36005, "AnnoBollettino": 2018, "Regione": "EMILIA ROMAGNA", "Prov": "MO", "Comune": "CARPI", "INSETTI": 3, "UCCELLI": 0, "EQUIDI": 0, "AVICOLI": 0, "UOMO": 0 }, "geometry": { "type": "Point", "coordinates": [ 10.892723445000058, 44.801874354000063 ] } },
{ "type": "Feature", "properties": { "CodIstat": 29014, "AnnoBollettino": 2018, "Regione": "VENETO", "Prov": "RO", "Comune": "CENESELLI", "INSETTI": 3, "UCCELLI": 0, "EQUIDI": 0, "AVICOLI": 0, "UOMO": 0 }, "geometry": { "type": "Point", "coordinates": [ 11.380659784000045, 45.026649533000068 ] } },
{ "type": "Feature", "properties": { "CodIstat": 40016, "AnnoBollettino": 2018, "Regione": "EMILIA ROMAGNA", "Prov": "FC", "Comune": "GATTEO", "INSETTI": 0, "UCCELLI": 1, "EQUIDI": 0, "AVICOLI": 0, "UOMO": 0 }, "geometry": { "type": "Point", "coordinates": [ 12.391834931000062, 44.131226794000042 ] } },
{ "type": "Feature", "properties": { "CodIstat": 37036, "AnnoBollettino": 2018, "Regione": "EMILIA ROMAGNA", "Prov": "BO", "Comune": "MARZABOTTO", "INSETTI": 0, "UCCELLI": 1, "EQUIDI": 0, "AVICOLI": 0, "UOMO": 0 }, "geometry": { "type": "Point", "coordinates": [ 11.201866938000023, 44.33867033000007 ] } },
{ "type": "Feature", "properties": { "CodIstat": 24026, "AnnoBollettino": 2018, "Regione": "VENETO", "Prov": "VI", "Comune": "CASSOLA", "INSETTI": 0, "UCCELLI": 1, "EQUIDI": 0, "AVICOLI": 0, "UOMO": 0 }, "geometry": { "type": "Point", "coordinates": [ 11.781115025000076, 45.744118861000061 ] } },
{ "type": "Feature", "properties": { "CodIstat": 35006, "AnnoBollettino": 2018, "Regione": "EMILIA ROMAGNA", "Prov": "RE", "Comune": "BRESCELLO", "INSETTI": 1, "UCCELLI": 0, "EQUIDI": 0, "AVICOLI": 0, "UOMO": 0 }, "geometry": { "type": "Point", "coordinates": [ 10.490782747000026, 44.88346344200005 ] } },
{ "type": "Feature", "properties": { "CodIstat": 39014, "AnnoBollettino": 2018, "Regione": "EMILIA ROMAGNA", "Prov": "RA", "Comune": "RAVENNA", "INSETTI": 5, "UCCELLI": 0, "EQUIDI": 0, "AVICOLI": 0, "UOMO": 0 }, "geometry": { "type": "Point", "coordinates": [ 12.193712100000027, 44.413842140000042 ] } },
{ "type": "Feature", "properties": { "CodIstat": 50026, "AnnoBollettino": 2018, "Regione": "TOSCANA", "Prov": "PI", "Comune": "PISA", "INSETTI": 1, "UCCELLI": 0, "EQUIDI": 0, "AVICOLI": 0, "UOMO": 0 }, "geometry": { "type": "Point", "coordinates": [ 10.353902978000065, 43.67245009700008 ] } },
{ "type": "Feature", "properties": { "CodIstat": 95018, "AnnoBollettino": 2018, "Regione": "SARDEGNA", "Prov": "OR", "Comune": "CABRAS", "INSETTI": 0, "UCCELLI": 1, "EQUIDI": 0, "AVICOLI": 0, "UOMO": 0 }, "geometry": { "type": "Point", "coordinates": [ 8.465451395000059, 39.934569694000061 ] } },
{ "type": "Feature", "properties": { "CodIstat": 41013, "AnnoBollettino": 2018, "Regione": "MARCHE", "Prov": "PU", "Comune": "FANO", "INSETTI": 3, "UCCELLI": 0, "EQUIDI": 0, "AVICOLI": 0, "UOMO": 0 }, "geometry": { "type": "Point", "coordinates": [ 12.994681832000026, 43.812316018000047 ] } },
{ "type": "Feature", "properties": { "CodIstat": 28041, "AnnoBollettino": 2018, "Regione": "VENETO", "Prov": "PD", "Comune": "GAZZO", "INSETTI": 1, "UCCELLI": 0, "EQUIDI": 0, "AVICOLI": 0, "UOMO": 0 }, "geometry": { "type": "Point", "coordinates": [ 11.693067001000031, 45.566657320000047 ] } },
{ "type": "Feature", "properties": { "CodIstat": 37050, "AnnoBollettino": 2018, "Regione": "EMILIA ROMAGNA", "Prov": "BO", "Comune": "SALA BOLOGNESE", "INSETTI": 3, "UCCELLI": 0, "EQUIDI": 0, "AVICOLI": 0, "UOMO": 0 }, "geometry": { "type": "Point", "coordinates": [ 11.267963123000072, 44.626941112000054 ] } },
{ "type": "Feature", "properties": { "CodIstat": 2158, "AnnoBollettino": 2018, "Regione": "PIEMONTE", "Prov": "VC", "Comune": "VERCELLI", "INSETTI": 0, "UCCELLI": 2, "EQUIDI": 0, "AVICOLI": 0, "UOMO": 0 }, "geometry": { "type": "Point", "coordinates": [ 8.411032352000063, 45.319691727000077 ] } },
{ "type": "Feature", "properties": { "CodIstat": 29050, "AnnoBollettino": 2018, "Regione": "VENETO", "Prov": "RO", "Comune": "VILLANOVA DEL GHEBBO", "INSETTI": 1, "UCCELLI": 0, "EQUIDI": 0, "AVICOLI": 0, "UOMO": 0 }, "geometry": { "type": "Point", "coordinates": [ 11.658581543000025, 45.06707175400004 ] } },
{ "type": "Feature", "properties": { "CodIstat": 17162, "AnnoBollettino": 2018, "Regione": "LOMBARDIA", "Prov": "BS", "Comune": "ROCCAFRANCA", "INSETTI": 1, "UCCELLI": 0, "EQUIDI": 0, "AVICOLI": 0, "UOMO": 0 }, "geometry": { "type": "Point", "coordinates": [ 9.917215343000066, 45.454930558000058 ] } },
{ "type": "Feature", "properties": { "CodIstat": 20057, "AnnoBollettino": 2018, "Regione": "LOMBARDIA", "Prov": "MN", "Comune": "SAN GIORGIO DI MANTOVA", "INSETTI": 2, "UCCELLI": 0, "EQUIDI": 0, "AVICOLI": 0, "UOMO": 0 }, "geometry": { "type": "Point", "coordinates": [ 10.883252441000025, 45.183557969000049 ] } },
{ "type": "Feature", "properties": { "CodIstat": 27042, "AnnoBollettino": 2018, "Regione": "VENETO", "Prov": "VE", "Comune": "VENEZIA", "INSETTI": 1, "UCCELLI": 0, "EQUIDI": 0, "AVICOLI": 0, "UOMO": 0 }, "geometry": { "type": "Point", "coordinates": [ 12.345477470000048, 45.467700812000032 ] } },
{ "type": "Feature", "properties": { "CodIstat": 35028, "AnnoBollettino": 2018, "Regione": "EMILIA ROMAGNA", "Prov": "RE", "Comune": "NOVELLARA", "INSETTI": 1, "UCCELLI": 0, "EQUIDI": 0, "AVICOLI": 0, "UOMO": 0 }, "geometry": { "type": "Point", "coordinates": [ 10.708439074000069, 44.845286525000063 ] } },
{ "type": "Feature", "properties": { "CodIstat": 20055, "AnnoBollettino": 2018, "Regione": "LOMBARDIA", "Prov": "MN", "Comune": "SAN BENEDETTO PO", "INSETTI": 1, "UCCELLI": 0, "EQUIDI": 0, "AVICOLI": 0, "UOMO": 0 }, "geometry": { "type": "Point", "coordinates": [ 10.929855546000056, 45.034342256000059 ] } },
{ "type": "Feature", "properties": { "CodIstat": 68028, "AnnoBollettino": 2018, "Regione": "ABRUZZO", "Prov": "PE", "Comune": "PESCARA", "INSETTI": 3, "UCCELLI": 0, "EQUIDI": 0, "AVICOLI": 0, "UOMO": 0 }, "geometry": { "type": "Point", "coordinates": [ 14.203078137000034, 42.455945845000031 ] } },
{ "type": "Feature", "properties": { "CodIstat": 41044, "AnnoBollettino": 2018, "Regione": "MARCHE", "Prov": "PU", "Comune": "PESARO", "INSETTI": 2, "UCCELLI": 0, "EQUIDI": 0, "AVICOLI": 0, "UOMO": 0 }, "geometry": { "type": "Point", "coordinates": [ 12.863348517000077, 43.886613929000077 ] } },
{ "type": "Feature", "properties": { "CodIstat": 44045, "AnnoBollettino": 2018, "Regione": "MARCHE", "Prov": "AP", "Comune": "MONTEPRANDONE", "INSETTI": 1, "UCCELLI": 1, "EQUIDI": 0, "AVICOLI": 0, "UOMO": 0 }, "geometry": { "type": "Point", "coordinates": [ 13.839945200000045, 42.909223945000065 ] } },
{ "type": "Feature", "properties": { "CodIstat": 34030, "AnnoBollettino": 2018, "Regione": "EMILIA ROMAGNA", "Prov": "PR", "Comune": "ROCCABIANCA", "INSETTI": 1, "UCCELLI": 0, "EQUIDI": 0, "AVICOLI": 0, "UOMO": 0 }, "geometry": { "type": "Point", "coordinates": [ 10.211300705000042, 44.99795286300008 ] } },
{ "type": "Feature", "properties": { "CodIstat": 26063, "AnnoBollettino": 2018, "Regione": "VENETO", "Prov": "TV", "Comune": "PREGANZIOL", "INSETTI": 1, "UCCELLI": 0, "EQUIDI": 0, "AVICOLI": 0, "UOMO": 0 }, "geometry": { "type": "Point", "coordinates": [ 12.226936887000022, 45.607643981000081 ] } },
{ "type": "Feature", "properties": { "CodIstat": 44066, "AnnoBollettino": 2018, "Regione": "MARCHE", "Prov": "AP", "Comune": "SAN BENEDETTO DEL TRONTO", "INSETTI": 1, "UCCELLI": 2, "EQUIDI": 0, "AVICOLI": 0, "UOMO": 0 }, "geometry": { "type": "Point", "coordinates": [ 13.877722250000033, 42.929000374000054 ] } },
{ "type": "Feature", "properties": { "CodIstat": 28100, "AnnoBollettino": 2018, "Regione": "VENETO", "Prov": "PD", "Comune": "VIGONZA", "INSETTI": 1, "UCCELLI": 0, "EQUIDI": 0, "AVICOLI": 0, "UOMO": 0 }, "geometry": { "type": "Point", "coordinates": [ 11.971367333000046, 45.448827362000031 ] } },
{ "type": "Feature", "properties": { "CodIstat": 34009, "AnnoBollettino": 2018, "Regione": "EMILIA ROMAGNA", "Prov": "PR", "Comune": "COLLECCHIO", "INSETTI": 1, "UCCELLI": 0, "EQUIDI": 0, "AVICOLI": 0, "UOMO": 0 }, "geometry": { "type": "Point", "coordinates": [ 10.207369916000061, 44.751121185000045 ] } },
{ "type": "Feature", "properties": { "CodIstat": 19014, "AnnoBollettino": 2018, "Regione": "LOMBARDIA", "Prov": "CR", "Comune": "CAPPELLA DE' PICENARDI", "INSETTI": 1, "UCCELLI": 0, "EQUIDI": 0, "AVICOLI": 0, "UOMO": 0 }, "geometry": { "type": "Point", "coordinates": [ 10.232568394000054, 45.145064638000065 ] } },
{ "type": "Feature", "properties": { "CodIstat": 19036, "AnnoBollettino": 2018, "Regione": "LOMBARDIA", "Prov": "CR", "Comune": "CREMONA", "INSETTI": 1, "UCCELLI": 0, "EQUIDI": 0, "AVICOLI": 0, "UOMO": 0 }, "geometry": { "type": "Point", "coordinates": [ 10.029541707000021, 45.140906245000053 ] } },
{ "type": "Feature", "properties": { "CodIstat": 40007, "AnnoBollettino": 2018, "Regione": "EMILIA ROMAGNA", "Prov": "FC", "Comune": "CESENA", "INSETTI": 1, "UCCELLI": 0, "EQUIDI": 0, "AVICOLI": 0, "UOMO": 0 }, "geometry": { "type": "Point", "coordinates": [ 12.234699587000023, 44.130416905000061 ] } },
{ "type": "Feature", "properties": { "CodIstat": 36010, "AnnoBollettino": 2018, "Regione": "EMILIA ROMAGNA", "Prov": "MO", "Comune": "CONCORDIA SULLA SECCHIA", "INSETTI": 1, "UCCELLI": 0, "EQUIDI": 0, "AVICOLI": 0, "UOMO": 0 }, "geometry": { "type": "Point", "coordinates": [ 11.001488395000024, 44.924865391000026 ] } },
{ "type": "Feature", "properties": { "CodIstat": 34010, "AnnoBollettino": 2018, "Regione": "EMILIA ROMAGNA", "Prov": "PR", "Comune": "COLORNO", "INSETTI": 1, "UCCELLI": 0, "EQUIDI": 0, "AVICOLI": 0, "UOMO": 0 }, "geometry": { "type": "Point", "coordinates": [ 10.380507097000077, 44.941384115000062 ] } },
{ "type": "Feature", "properties": { "CodIstat": 30026, "AnnoBollettino": 2018, "Regione": "FRIULI VENEZIA GIULIA", "Prov": "UD", "Comune": "CIVIDALE DEL FRIULI", "INSETTI": 0, "UCCELLI": 1, "EQUIDI": 0, "AVICOLI": 0, "UOMO": 0 }, "geometry": { "type": "Point", "coordinates": [ 13.444109910000066, 46.082354876000068 ] } },
{ "type": "Feature", "properties": { "CodIstat": 37001, "AnnoBollettino": 2018, "Regione": "EMILIA ROMAGNA", "Prov": "BO", "Comune": "ANZOLA DELL'EMILIA", "INSETTI": 2, "UCCELLI": 0, "EQUIDI": 0, "AVICOLI": 0, "UOMO": 0 }, "geometry": { "type": "Point", "coordinates": [ 11.193588662000025, 44.565243942000052 ] } },
{ "type": "Feature", "properties": { "CodIstat": 95001, "AnnoBollettino": 2018, "Regione": "SARDEGNA", "Prov": "OR", "Comune": "ABBASANTA", "INSETTI": 0, "UCCELLI": 1, "EQUIDI": 0, "AVICOLI": 0, "UOMO": 0 }, "geometry": { "type": "Point", "coordinates": [ 8.769857327000068, 40.140112058000057 ] } },
{ "type": "Feature", "properties": { "CodIstat": 37010, "AnnoBollettino": 2018, "Regione": "EMILIA ROMAGNA", "Prov": "BO", "Comune": "CAMUGNANO", "INSETTI": 0, "UCCELLI": 1, "EQUIDI": 0, "AVICOLI": 0, "UOMO": 0 }, "geometry": { "type": "Point", "coordinates": [ 11.095873574000052, 44.152779144000078 ] } },
{ "type": "Feature", "properties": { "CodIstat": 26049, "AnnoBollettino": 2018, "Regione": "VENETO", "Prov": "TV", "Comune": "MOTTA DI LIVENZA", "INSETTI": 2, "UCCELLI": 0, "EQUIDI": 0, "AVICOLI": 0, "UOMO": 0 }, "geometry": { "type": "Point", "coordinates": [ 12.623008297000069, 45.766277820000028 ] } },
{ "type": "Feature", "properties": { "CodIstat": 37005, "AnnoBollettino": 2018, "Regione": "EMILIA ROMAGNA", "Prov": "BO", "Comune": "BENTIVOGLIO", "INSETTI": 1, "UCCELLI": 0, "EQUIDI": 0, "AVICOLI": 0, "UOMO": 0 }, "geometry": { "type": "Point", "coordinates": [ 11.422780187000058, 44.632906324000032 ] } },
{ "type": "Feature", "properties": { "CodIstat": 42002, "AnnoBollettino": 2018, "Regione": "MARCHE", "Prov": "AN", "Comune": "ANCONA", "INSETTI": 2, "UCCELLI": 0, "EQUIDI": 0, "AVICOLI": 0, "UOMO": 0 }, "geometry": { "type": "Point", "coordinates": [ 13.491601637000031, 43.572758309000051 ] } },
{ "type": "Feature", "properties": { "CodIstat": 29004, "AnnoBollettino": 2018, "Regione": "VENETO", "Prov": "RO", "Comune": "BADIA POLESINE", "INSETTI": 1, "UCCELLI": 0, "EQUIDI": 0, "AVICOLI": 0, "UOMO": 0 }, "geometry": { "type": "Point", "coordinates": [ 11.497179086000074, 45.092935964000048 ] } },
{ "type": "Feature", "properties": { "CodIstat": 29028, "AnnoBollettino": 2018, "Regione": "VENETO", "Prov": "RO", "Comune": "GUARDA VENETA", "INSETTI": 1, "UCCELLI": 0, "EQUIDI": 0, "AVICOLI": 0, "UOMO": 0 }, "geometry": { "type": "Point", "coordinates": [ 11.801949451000041, 44.984659673000067 ] } },
{ "type": "Feature", "properties": { "CodIstat": 23019, "AnnoBollettino": 2018, "Regione": "VENETO", "Prov": "VR", "Comune": "CASALEONE", "INSETTI": 1, "UCCELLI": 0, "EQUIDI": 0, "AVICOLI": 0, "UOMO": 0 }, "geometry": { "type": "Point", "coordinates": [ 11.198646197000073, 45.145032477000029 ] } },
{ "type": "Feature", "properties": { "CodIstat": 99014, "AnnoBollettino": 2018, "Regione": "EMILIA ROMAGNA", "Prov": "RN", "Comune": "RIMINI", "INSETTI": 2, "UCCELLI": 2, "EQUIDI": 0, "AVICOLI": 0, "UOMO": 0 }, "geometry": { "type": "Point", "coordinates": [ 12.529823040000053, 44.038749046000078 ] } },
{ "type": "Feature", "properties": { "CodIstat": 17166, "AnnoBollettino": 2018, "Regione": "LOMBARDIA", "Prov": "BS", "Comune": "ROVATO", "INSETTI": 2, "UCCELLI": 0, "EQUIDI": 0, "AVICOLI": 0, "UOMO": 0 }, "geometry": { "type": "Point", "coordinates": [ 10.010324613000023, 45.545242786000074 ] } },
{ "type": "Feature", "properties": { "CodIstat": 35002, "AnnoBollettino": 2018, "Regione": "EMILIA ROMAGNA", "Prov": "RE", "Comune": "BAGNOLO IN PIANO", "INSETTI": 1, "UCCELLI": 0, "EQUIDI": 0, "AVICOLI": 0, "UOMO": 0 }, "geometry": { "type": "Point", "coordinates": [ 10.678764349000062, 44.784089299000073 ] } },
{ "type": "Feature", "properties": { "CodIstat": 33008, "AnnoBollettino": 2018, "Regione": "EMILIA ROMAGNA", "Prov": "PC", "Comune": "CALENDASCO", "INSETTI": 2, "UCCELLI": 0, "EQUIDI": 0, "AVICOLI": 0, "UOMO": 0 }, "geometry": { "type": "Point", "coordinates": [ 9.608141599000021, 45.091250481000031 ] } },
{ "type": "Feature", "properties": { "CodIstat": 98003, "AnnoBollettino": 2018, "Regione": "LOMBARDIA", "Prov": "LO", "Comune": "BOFFALORA D'ADDA", "INSETTI": 1, "UCCELLI": 0, "EQUIDI": 0, "AVICOLI": 0, "UOMO": 0 }, "geometry": { "type": "Point", "coordinates": [ 9.486885962000031, 45.358689179000066 ] } },
{ "type": "Feature", "properties": { "CodIstat": 36022, "AnnoBollettino": 2018, "Regione": "EMILIA ROMAGNA", "Prov": "MO", "Comune": "MIRANDOLA", "INSETTI": 2, "UCCELLI": 0, "EQUIDI": 0, "AVICOLI": 0, "UOMO": 0 }, "geometry": { "type": "Point", "coordinates": [ 11.124164834000055, 44.907481682000025 ] } },
{ "type": "Feature", "properties": { "CodIstat": 37039, "AnnoBollettino": 2018, "Regione": "EMILIA ROMAGNA", "Prov": "BO", "Comune": "MOLINELLA", "INSETTI": 1, "UCCELLI": 0, "EQUIDI": 0, "AVICOLI": 0, "UOMO": 0 }, "geometry": { "type": "Point", "coordinates": [ 11.685647190000054, 44.608341571000039 ] } },
{ "type": "Feature", "properties": { "CodIstat": 37032, "AnnoBollettino": 2018, "Regione": "EMILIA ROMAGNA", "Prov": "BO", "Comune": "IMOLA", "INSETTI": 0, "UCCELLI": 1, "EQUIDI": 0, "AVICOLI": 0, "UOMO": 0 }, "geometry": { "type": "Point", "coordinates": [ 11.715654488000041, 44.387811800000065 ] } },
{ "type": "Feature", "properties": { "CodIstat": 35033, "AnnoBollettino": 2018, "Regione": "EMILIA ROMAGNA", "Prov": "RE", "Comune": "REGGIO NELL'EMILIA", "INSETTI": 3, "UCCELLI": 0, "EQUIDI": 0, "AVICOLI": 0, "UOMO": 0 }, "geometry": { "type": "Point", "coordinates": [ 10.634512271000062, 44.697433032000049 ] } },
{ "type": "Feature", "properties": { "CodIstat": 15188, "AnnoBollettino": 2018, "Regione": "LOMBARDIA", "Prov": "MI", "Comune": "ROSATE", "INSETTI": 1, "UCCELLI": 0, "EQUIDI": 0, "AVICOLI": 0, "UOMO": 0 }, "geometry": { "type": "Point", "coordinates": [ 9.018524389000049, 45.351051491000078 ] } },
{ "type": "Feature", "properties": { "CodIstat": 95038, "AnnoBollettino": 2018, "Regione": "SARDEGNA", "Prov": "OR", "Comune": "ORISTANO", "INSETTI": 1, "UCCELLI": 0, "EQUIDI": 0, "AVICOLI": 0, "UOMO": 0 }, "geometry": { "type": "Point", "coordinates": [ 8.614472278000051, 39.909230226000034 ] } },
{ "type": "Feature", "properties": { "CodIstat": 17062, "AnnoBollettino": 2018, "Regione": "LOMBARDIA", "Prov": "BS", "Comune": "CORTE FRANCA", "INSETTI": 3, "UCCELLI": 0, "EQUIDI": 0, "AVICOLI": 0, "UOMO": 0 }, "geometry": { "type": "Point", "coordinates": [ 10.002004384000031, 45.630937454000048 ] } },
{ "type": "Feature", "properties": { "CodIstat": 36012, "AnnoBollettino": 2018, "Regione": "EMILIA ROMAGNA", "Prov": "MO", "Comune": "FINALE EMILIA", "INSETTI": 5, "UCCELLI": 0, "EQUIDI": 0, "AVICOLI": 0, "UOMO": 0 }, "geometry": { "type": "Point", "coordinates": [ 11.266477194000061, 44.849116109000079 ] } },
{ "type": "Feature", "properties": { "CodIstat": 40012, "AnnoBollettino": 2018, "Regione": "EMILIA ROMAGNA", "Prov": "FC", "Comune": "FORLI'", "INSETTI": 7, "UCCELLI": 2, "EQUIDI": 0, "AVICOLI": 0, "UOMO": 0 }, "geometry": { "type": "Point", "coordinates": [ 12.049687739000035, 44.227453774000026 ] } },
{ "type": "Feature", "properties": { "CodIstat": 38008, "AnnoBollettino": 2018, "Regione": "EMILIA ROMAGNA", "Prov": "FE", "Comune": "FERRARA", "INSETTI": 9, "UCCELLI": 12, "EQUIDI": 0, "AVICOLI": 0, "UOMO": 0 }, "geometry": { "type": "Point", "coordinates": [ 11.649123246000045, 44.822929214000055 ] } },
{ "type": "Feature", "properties": { "CodIstat": 18109, "AnnoBollettino": 2018, "Regione": "LOMBARDIA", "Prov": "PV", "Comune": "PARONA", "INSETTI": 6, "UCCELLI": 0, "EQUIDI": 0, "AVICOLI": 0, "UOMO": 0 }, "geometry": { "type": "Point", "coordinates": [ 8.761282848000064, 45.283342456000071 ] } },
{ "type": "Feature", "properties": { "CodIstat": 36023, "AnnoBollettino": 2018, "Regione": "EMILIA ROMAGNA", "Prov": "MO", "Comune": "MODENA", "INSETTI": 5, "UCCELLI": 0, "EQUIDI": 0, "AVICOLI": 0, "UOMO": 0 }, "geometry": { "type": "Point", "coordinates": [ 10.915345621000029, 44.644094874000075 ] } },
{ "type": "Feature", "properties": { "CodIstat": 38017, "AnnoBollettino": 2018, "Regione": "EMILIA ROMAGNA", "Prov": "FE", "Comune": "OSTELLATO", "INSETTI": 2, "UCCELLI": 1, "EQUIDI": 0, "AVICOLI": 0, "UOMO": 0 }, "geometry": { "type": "Point", "coordinates": [ 11.977784728000074, 44.723705839000047 ] } },
{ "type": "Feature", "properties": { "CodIstat": 23048, "AnnoBollettino": 2018, "Regione": "VENETO", "Prov": "VR", "Comune": "MINERBE", "INSETTI": 6, "UCCELLI": 0, "EQUIDI": 0, "AVICOLI": 0, "UOMO": 0 }, "geometry": { "type": "Point", "coordinates": [ 11.352762462000044, 45.249136588000056 ] } },
{ "type": "Feature", "properties": { "CodIstat": 10025, "AnnoBollettino": 2018, "Regione": "LIGURIA", "Prov": "GE", "Comune": "GENOVA", "INSETTI": 1, "UCCELLI": 0, "EQUIDI": 0, "AVICOLI": 0, "UOMO": 0 }, "geometry": { "type": "Point", "coordinates": [ 8.893308537000053, 44.441865757000073 ] } },
{ "type": "Feature", "properties": { "CodIstat": 33032, "AnnoBollettino": 2018, "Regione": "EMILIA ROMAGNA", "Prov": "PC", "Comune": "PIACENZA", "INSETTI": 1, "UCCELLI": 0, "EQUIDI": 0, "AVICOLI": 0, "UOMO": 0 }, "geometry": { "type": "Point", "coordinates": [ 9.717737473000057, 45.041430220000052 ] } },
{ "type": "Feature", "properties": { "CodIstat": 99013, "AnnoBollettino": 2018, "Regione": "EMILIA ROMAGNA", "Prov": "RN", "Comune": "RICCIONE", "INSETTI": 1, "UCCELLI": 0, "EQUIDI": 0, "AVICOLI": 0, "UOMO": 0 }, "geometry": { "type": "Point", "coordinates": [ 12.645436544000063, 43.99645225200004 ] } },
{ "type": "Feature", "properties": { "CodIstat": 37055, "AnnoBollettino": 2018, "Regione": "EMILIA ROMAGNA", "Prov": "BO", "Comune": "SAN PIETRO IN CASALE", "INSETTI": 5, "UCCELLI": 0, "EQUIDI": 0, "AVICOLI": 0, "UOMO": 0 }, "geometry": { "type": "Point", "coordinates": [ 11.404694340000049, 44.710534353000071 ] } },
{ "type": "Feature", "properties": { "CodIstat": 30069, "AnnoBollettino": 2018, "Regione": "FRIULI VENEZIA GIULIA", "Prov": "UD", "Comune": "PALAZZOLO DELLO STELLA", "INSETTI": 2, "UCCELLI": 0, "EQUIDI": 0, "AVICOLI": 0, "UOMO": 0 }, "geometry": { "type": "Point", "coordinates": [ 13.078476821000038, 45.790233152000042 ] } },
{ "type": "Feature", "properties": { "CodIstat": 15229, "AnnoBollettino": 2018, "Regione": "LOMBARDIA", "Prov": "MI", "Comune": "VANZAGO", "INSETTI": 0, "UCCELLI": 1, "EQUIDI": 0, "AVICOLI": 0, "UOMO": 0 }, "geometry": { "type": "Point", "coordinates": [ 8.98464357000006, 45.519875371000069 ] } },
{ "type": "Feature", "properties": { "CodIstat": 26086, "AnnoBollettino": 2018, "Regione": "VENETO", "Prov": "TV", "Comune": "TREVISO", "INSETTI": 1, "UCCELLI": 0, "EQUIDI": 0, "AVICOLI": 0, "UOMO": 0 }, "geometry": { "type": "Point", "coordinates": [ 12.227596680000033, 45.663830029000053 ] } },
{ "type": "Feature", "properties": { "CodIstat": 37053, "AnnoBollettino": 2018, "Regione": "EMILIA ROMAGNA", "Prov": "BO", "Comune": "SAN GIOVANNI IN PERSICETO", "INSETTI": 10, "UCCELLI": 2, "EQUIDI": 0, "AVICOLI": 0, "UOMO": 0 }, "geometry": { "type": "Point", "coordinates": [ 11.203030177000073, 44.66028536400006 ] } },
{ "type": "Feature", "properties": { "CodIstat": 23064, "AnnoBollettino": 2018, "Regione": "VENETO", "Prov": "VR", "Comune": "RONCO ALL'ADIGE", "INSETTI": 1, "UCCELLI": 0, "EQUIDI": 0, "AVICOLI": 0, "UOMO": 0 }, "geometry": { "type": "Point", "coordinates": [ 11.224292393000042, 45.326137634000077 ] } },
{ "type": "Feature", "properties": { "CodIstat": 95062, "AnnoBollettino": 2018, "Regione": "SARDEGNA", "Prov": "OR", "Comune": "SOLARUSSA", "INSETTI": 0, "UCCELLI": 1, "EQUIDI": 0, "AVICOLI": 0, "UOMO": 0 }, "geometry": { "type": "Point", "coordinates": [ 8.681726437000066, 39.971503386000052 ] } },
{ "type": "Feature", "properties": { "CodIstat": 18162, "AnnoBollettino": 2018, "Regione": "LOMBARDIA", "Prov": "PV", "Comune": "TRAVACO' SICCOMARIO", "INSETTI": 1, "UCCELLI": 0, "EQUIDI": 0, "AVICOLI": 0, "UOMO": 0 }, "geometry": { "type": "Point", "coordinates": [ 9.174433674000056, 45.150140001000068 ] } },
{ "type": "Feature", "properties": { "CodIstat": 6173, "AnnoBollettino": 2018, "Regione": "PIEMONTE", "Prov": "AL", "Comune": "TICINETO", "INSETTI": 1, "UCCELLI": 0, "EQUIDI": 0, "AVICOLI": 0, "UOMO": 0 }, "geometry": { "type": "Point", "coordinates": [ 8.558160194000038, 45.101914755000053 ] } },
{ "type": "Feature", "properties": { "CodIstat": 37061, "AnnoBollettino": 2018, "Regione": "EMILIA ROMAGNA", "Prov": "BO", "Comune": "VALSAMOGGIA", "INSETTI": 0, "UCCELLI": 1, "EQUIDI": 0, "AVICOLI": 0, "UOMO": 0 }, "geometry": { "type": "Point", "coordinates": [ 11.091031895000071, 44.443395671000076 ] } },
{ "type": "Feature", "properties": { "CodIstat": 24124, "AnnoBollettino": 2018, "Regione": "VENETO", "Prov": "VI", "Comune": "BARBARANO MOSSANO", "INSETTI": 1, "UCCELLI": 0, "EQUIDI": 0, "AVICOLI": 0, "UOMO": 0 }, "geometry": { "type": "Point", "coordinates": [ 11.564613423000026, 45.408796534000032 ] } }
]
}
