{
"type": "FeatureCollection",
"crs": { "type": "name", "properties": { "name": "urn:ogc:def:crs:OGC:1.3:CRS84" } },
"features": [
{ "type": "Feature", "properties": { "CodIstat": 99023.0, "AnnoBollettino": 2021, "Regione": "EMILIA ROMAGNA", "Prov": "RIMINI", "Comune": "NOVAFELTRIA", "INSETTI": 0, "UCCELLI": 2, "EQUIDI": 0, "AVICOLI": 0, "UOMO": 0 }, "geometry": { "type": "Point", "coordinates": [ 12.2783, 43.9006 ] } },
{ "type": "Feature", "properties": { "CodIstat": 29004.0, "AnnoBollettino": 2021, "Regione": "VENETO", "Prov": "ROVIGO", "Comune": "BADIA POLESINE", "INSETTI": 1, "UCCELLI": 0, "EQUIDI": 0, "AVICOLI": 0, "UOMO": 0 }, "geometry": { "type": "Point", "coordinates": [ 11.4972, 45.0929 ] } },
{ "type": "Feature", "properties": { "CodIstat": 67031.0, "AnnoBollettino": 2021, "Regione": "ABRUZZO", "Prov": "TERAMO", "Comune": "NERETO", "INSETTI": 2, "UCCELLI": 0, "EQUIDI": 0, "AVICOLI": 0, "UOMO": 0 }, "geometry": { "type": "Point", "coordinates": [ 13.8119, 42.8181 ] } },
{ "type": "Feature", "properties": { "CodIstat": 29028.0, "AnnoBollettino": 2021, "Regione": "VENETO", "Prov": "ROVIGO", "Comune": "GUARDA VENETA", "INSETTI": 1, "UCCELLI": 0, "EQUIDI": 0, "AVICOLI": 0, "UOMO": 0 }, "geometry": { "type": "Point", "coordinates": [ 11.8019, 44.9847 ] } },
{ "type": "Feature", "properties": { "CodIstat": 42002.0, "AnnoBollettino": 2021, "Regione": "MARCHE", "Prov": "ANCONA", "Comune": "ANCONA", "INSETTI": 4, "UCCELLI": 0, "EQUIDI": 0, "AVICOLI": 0, "UOMO": 0 }, "geometry": { "type": "Point", "coordinates": [ 13.4916, 43.5728 ] } },
{ "type": "Feature", "properties": { "CodIstat": 28044.0, "AnnoBollettino": 2021, "Regione": "VENETO", "Prov": "PADOVA", "Comune": "LEGNARO", "INSETTI": 0, "UCCELLI": 1, "EQUIDI": 0, "AVICOLI": 0, "UOMO": 0 }, "geometry": { "type": "Point", "coordinates": [ 11.9646, 45.3429 ] } },
{ "type": "Feature", "properties": { "CodIstat": 23058.0, "AnnoBollettino": 2021, "Regione": "VENETO", "Prov": "VERONA", "Comune": "PESCANTINA", "INSETTI": 0, "UCCELLI": 1, "EQUIDI": 0, "AVICOLI": 0, "UOMO": 0 }, "geometry": { "type": "Point", "coordinates": [ 10.8611, 45.4906 ] } },
{ "type": "Feature", "properties": { "CodIstat": 43013.0, "AnnoBollettino": 2021, "Regione": "MARCHE", "Prov": "MACERATA", "Comune": "CIVITANOVA MARCHE", "INSETTI": 1, "UCCELLI": 0, "EQUIDI": 0, "AVICOLI": 0, "UOMO": 0 }, "geometry": { "type": "Point", "coordinates": [ 13.685, 43.3134 ] } },
{ "type": "Feature", "properties": { "CodIstat": 99001.0, "AnnoBollettino": 2021, "Regione": "EMILIA ROMAGNA", "Prov": "RIMINI", "Comune": "BELLARIA-IGEA MARINA", "INSETTI": 0, "UCCELLI": 1, "EQUIDI": 0, "AVICOLI": 0, "UOMO": 0 }, "geometry": { "type": "Point", "coordinates": [ 12.4635, 44.1317 ] } },
{ "type": "Feature", "properties": { "CodIstat": 99014.0, "AnnoBollettino": 2021, "Regione": "EMILIA ROMAGNA", "Prov": "RIMINI", "Comune": "RIMINI", "INSETTI": 4, "UCCELLI": 24, "EQUIDI": 0, "AVICOLI": 0, "UOMO": 0 }, "geometry": { "type": "Point", "coordinates": [ 12.5298, 44.0387 ] } },
{ "type": "Feature", "properties": { "CodIstat": 58091.0, "AnnoBollettino": 2021, "Regione": "LAZIO", "Prov": "ROMA", "Comune": "ROMA", "INSETTI": 1, "UCCELLI": 0, "EQUIDI": 0, "AVICOLI": 0, "UOMO": 0 }, "geometry": { "type": "Point", "coordinates": [ 12.4608, 41.8858 ] } },
{ "type": "Feature", "properties": { "CodIstat": 23019.0, "AnnoBollettino": 2021, "Regione": "VENETO", "Prov": "VERONA", "Comune": "CASALEONE", "INSETTI": 1, "UCCELLI": 0, "EQUIDI": 0, "AVICOLI": 0, "UOMO": 0 }, "geometry": { "type": "Point", "coordinates": [ 11.1986, 45.145 ] } },
{ "type": "Feature", "properties": { "CodIstat": 37009.0, "AnnoBollettino": 2021, "Regione": "EMILIA ROMAGNA", "Prov": "BOLOGNA", "Comune": "CALDERARA DI RENO", "INSETTI": 0, "UCCELLI": 1, "EQUIDI": 0, "AVICOLI": 0, "UOMO": 0 }, "geometry": { "type": "Point", "coordinates": [ 11.2744, 44.5684 ] } },
{ "type": "Feature", "properties": { "CodIstat": 36003.0, "AnnoBollettino": 2021, "Regione": "EMILIA ROMAGNA", "Prov": "MODENA", "Comune": "CAMPOGALLIANO", "INSETTI": 0, "UCCELLI": 1, "EQUIDI": 0, "AVICOLI": 0, "UOMO": 0 }, "geometry": { "type": "Point", "coordinates": [ 10.8413, 44.6997 ] } },
{ "type": "Feature", "properties": { "CodIstat": 109006.0, "AnnoBollettino": 2021, "Regione": "MARCHE", "Prov": "FERMO", "Comune": "FERMO", "INSETTI": 6, "UCCELLI": 3, "EQUIDI": 0, "AVICOLI": 0, "UOMO": 0 }, "geometry": { "type": "Point", "coordinates": [ 13.717, 43.1608 ] } },
{ "type": "Feature", "properties": { "CodIstat": 29021.0, "AnnoBollettino": 2021, "Regione": "VENETO", "Prov": "ROVIGO", "Comune": "FICAROLO", "INSETTI": 2, "UCCELLI": 0, "EQUIDI": 0, "AVICOLI": 0, "UOMO": 0 }, "geometry": { "type": "Point", "coordinates": [ 11.4459, 44.9577 ] } },
{ "type": "Feature", "properties": { "CodIstat": 38018.0, "AnnoBollettino": 2021, "Regione": "EMILIA ROMAGNA", "Prov": "FERRARA", "Comune": "POGGIO RENATICO", "INSETTI": 1, "UCCELLI": 0, "EQUIDI": 0, "AVICOLI": 0, "UOMO": 0 }, "geometry": { "type": "Point", "coordinates": [ 11.4969, 44.7704 ] } },
{ "type": "Feature", "properties": { "CodIstat": 38007.0, "AnnoBollettino": 2021, "Regione": "EMILIA ROMAGNA", "Prov": "FERRARA", "Comune": "COPPARO", "INSETTI": 1, "UCCELLI": 0, "EQUIDI": 0, "AVICOLI": 0, "UOMO": 0 }, "geometry": { "type": "Point", "coordinates": [ 11.8607, 44.9024 ] } },
{ "type": "Feature", "properties": { "CodIstat": 38004.0, "AnnoBollettino": 2021, "Regione": "EMILIA ROMAGNA", "Prov": "FERRARA", "Comune": "CENTO", "INSETTI": 0, "UCCELLI": 1, "EQUIDI": 0, "AVICOLI": 0, "UOMO": 0 }, "geometry": { "type": "Point", "coordinates": [ 11.3077, 44.7759 ] } },
{ "type": "Feature", "properties": { "CodIstat": 42015.0, "AnnoBollettino": 2021, "Regione": "MARCHE", "Prov": "ANCONA", "Comune": "CORINALDO", "INSETTI": 2, "UCCELLI": 0, "EQUIDI": 0, "AVICOLI": 0, "UOMO": 0 }, "geometry": { "type": "Point", "coordinates": [ 13.0443, 43.6485 ] } },
{ "type": "Feature", "properties": { "CodIstat": 36015.0, "AnnoBollettino": 2021, "Regione": "EMILIA ROMAGNA", "Prov": "MODENA", "Comune": "FORMIGINE", "INSETTI": 1, "UCCELLI": 0, "EQUIDI": 0, "AVICOLI": 0, "UOMO": 0 }, "geometry": { "type": "Point", "coordinates": [ 10.846, 44.5799 ] } },
{ "type": "Feature", "properties": { "CodIstat": 37038.0, "AnnoBollettino": 2021, "Regione": "EMILIA ROMAGNA", "Prov": "BOLOGNA", "Comune": "MINERBIO", "INSETTI": 0, "UCCELLI": 1, "EQUIDI": 0, "AVICOLI": 0, "UOMO": 0 }, "geometry": { "type": "Point", "coordinates": [ 11.5025, 44.6166 ] } },
{ "type": "Feature", "properties": { "CodIstat": 23055.0, "AnnoBollettino": 2021, "Regione": "VENETO", "Prov": "VERONA", "Comune": "OPPEANO", "INSETTI": 5, "UCCELLI": 0, "EQUIDI": 0, "AVICOLI": 0, "UOMO": 0 }, "geometry": { "type": "Point", "coordinates": [ 11.1133, 45.3103 ] } },
{ "type": "Feature", "properties": { "CodIstat": 37045.0, "AnnoBollettino": 2021, "Regione": "EMILIA ROMAGNA", "Prov": "BOLOGNA", "Comune": "MORDANO", "INSETTI": 1, "UCCELLI": 0, "EQUIDI": 0, "AVICOLI": 0, "UOMO": 0 }, "geometry": { "type": "Point", "coordinates": [ 11.7962, 44.4095 ] } },
{ "type": "Feature", "properties": { "CodIstat": 37003.0, "AnnoBollettino": 2021, "Regione": "EMILIA ROMAGNA", "Prov": "BOLOGNA", "Comune": "BARICELLA", "INSETTI": 2, "UCCELLI": 0, "EQUIDI": 0, "AVICOLI": 0, "UOMO": 0 }, "geometry": { "type": "Point", "coordinates": [ 11.5712, 44.6685 ] } },
{ "type": "Feature", "properties": { "CodIstat": 38001.0, "AnnoBollettino": 2021, "Regione": "EMILIA ROMAGNA", "Prov": "FERRARA", "Comune": "ARGENTA", "INSETTI": 1, "UCCELLI": 0, "EQUIDI": 0, "AVICOLI": 0, "UOMO": 0 }, "geometry": { "type": "Point", "coordinates": [ 11.8887, 44.6222 ] } },
{ "type": "Feature", "properties": { "CodIstat": 42010.0, "AnnoBollettino": 2021, "Regione": "MARCHE", "Prov": "ANCONA", "Comune": "CASTELFIDARDO", "INSETTI": 4, "UCCELLI": 0, "EQUIDI": 0, "AVICOLI": 0, "UOMO": 0 }, "geometry": { "type": "Point", "coordinates": [ 13.5629, 43.4644 ] } },
{ "type": "Feature", "properties": { "CodIstat": 24068.0, "AnnoBollettino": 2021, "Regione": "VENETO", "Prov": "VICENZA", "Comune": "MONTORSO VICENTINO", "INSETTI": 2, "UCCELLI": 0, "EQUIDI": 0, "AVICOLI": 0, "UOMO": 0 }, "geometry": { "type": "Point", "coordinates": [ 11.3561, 45.4915 ] } },
{ "type": "Feature", "properties": { "CodIstat": 43042.0, "AnnoBollettino": 2021, "Regione": "MARCHE", "Prov": "MACERATA", "Comune": "PORTO RECANATI", "INSETTI": 1, "UCCELLI": 0, "EQUIDI": 0, "AVICOLI": 0, "UOMO": 0 }, "geometry": { "type": "Point", "coordinates": [ 13.6449, 43.4363 ] } },
{ "type": "Feature", "properties": { "CodIstat": 82032.0, "AnnoBollettino": 2021, "Regione": "SICILIA", "Prov": "PALERMO", "Comune": "COLLESANO", "INSETTI": 0, "UCCELLI": 1, "EQUIDI": 0, "AVICOLI": 0, "UOMO": 0 }, "geometry": { "type": "Point", "coordinates": [ 13.9054, 37.9327 ] } },
{ "type": "Feature", "properties": { "CodIstat": 43043.0, "AnnoBollettino": 2021, "Regione": "MARCHE", "Prov": "MACERATA", "Comune": "POTENZA PICENA", "INSETTI": 1, "UCCELLI": 0, "EQUIDI": 0, "AVICOLI": 0, "UOMO": 0 }, "geometry": { "type": "Point", "coordinates": [ 13.6442, 43.3707 ] } },
{ "type": "Feature", "properties": { "CodIstat": 23054.0, "AnnoBollettino": 2021, "Regione": "VENETO", "Prov": "VERONA", "Comune": "NOGAROLE ROCCA", "INSETTI": 1, "UCCELLI": 0, "EQUIDI": 0, "AVICOLI": 0, "UOMO": 0 }, "geometry": { "type": "Point", "coordinates": [ 10.8792, 45.2804 ] } },
{ "type": "Feature", "properties": { "CodIstat": 43030.0, "AnnoBollettino": 2021, "Regione": "MARCHE", "Prov": "MACERATA", "Comune": "MONTELUPONE", "INSETTI": 2, "UCCELLI": 0, "EQUIDI": 0, "AVICOLI": 0, "UOMO": 0 }, "geometry": { "type": "Point", "coordinates": [ 13.5524, 43.3444 ] } },
{ "type": "Feature", "properties": { "CodIstat": 23050.0, "AnnoBollettino": 2021, "Regione": "VENETO", "Prov": "VERONA", "Comune": "MONTEFORTE D'ALPONE", "INSETTI": 0, "UCCELLI": 1, "EQUIDI": 0, "AVICOLI": 0, "UOMO": 0 }, "geometry": { "type": "Point", "coordinates": [ 11.2866, 45.4361 ] } },
{ "type": "Feature", "properties": { "CodIstat": 27002.0, "AnnoBollettino": 2021, "Regione": "VENETO", "Prov": "VENEZIA", "Comune": "CAMPAGNA LUPIA", "INSETTI": 3, "UCCELLI": 0, "EQUIDI": 0, "AVICOLI": 0, "UOMO": 0 }, "geometry": { "type": "Point", "coordinates": [ 12.167, 45.34 ] } },
{ "type": "Feature", "properties": { "CodIstat": 28016.0, "AnnoBollettino": 2021, "Regione": "VENETO", "Prov": "PADOVA", "Comune": "CADONEGHE", "INSETTI": 0, "UCCELLI": 1, "EQUIDI": 0, "AVICOLI": 0, "UOMO": 0 }, "geometry": { "type": "Point", "coordinates": [ 11.9176, 45.4577 ] } },
{ "type": "Feature", "properties": { "CodIstat": 36005.0, "AnnoBollettino": 2021, "Regione": "EMILIA ROMAGNA", "Prov": "MODENA", "Comune": "CARPI", "INSETTI": 1, "UCCELLI": 0, "EQUIDI": 0, "AVICOLI": 0, "UOMO": 0 }, "geometry": { "type": "Point", "coordinates": [ 10.8927, 44.8019 ] } },
{ "type": "Feature", "properties": { "CodIstat": 36027.0, "AnnoBollettino": 2021, "Regione": "EMILIA ROMAGNA", "Prov": "MODENA", "Comune": "NONANTOLA", "INSETTI": 1, "UCCELLI": 0, "EQUIDI": 0, "AVICOLI": 0, "UOMO": 0 }, "geometry": { "type": "Point", "coordinates": [ 11.0558, 44.6853 ] } },
{ "type": "Feature", "properties": { "CodIstat": 44054.0, "AnnoBollettino": 2021, "Regione": "MARCHE", "Prov": "ASCOLI PICENO", "Comune": "OFFIDA", "INSETTI": 1, "UCCELLI": 0, "EQUIDI": 0, "AVICOLI": 0, "UOMO": 0 }, "geometry": { "type": "Point", "coordinates": [ 13.712, 42.938 ] } },
{ "type": "Feature", "properties": { "CodIstat": 36028.0, "AnnoBollettino": 2021, "Regione": "EMILIA ROMAGNA", "Prov": "MODENA", "Comune": "NOVI DI MODENA", "INSETTI": 1, "UCCELLI": 0, "EQUIDI": 0, "AVICOLI": 0, "UOMO": 0 }, "geometry": { "type": "Point", "coordinates": [ 10.9295, 44.8736 ] } },
{ "type": "Feature", "properties": { "CodIstat": 23036.0, "AnnoBollettino": 2021, "Regione": "VENETO", "Prov": "VERONA", "Comune": "GARDA", "INSETTI": 0, "UCCELLI": 1, "EQUIDI": 0, "AVICOLI": 0, "UOMO": 0 }, "geometry": { "type": "Point", "coordinates": [ 10.6874, 45.5766 ] } },
{ "type": "Feature", "properties": { "CodIstat": 35021.0, "AnnoBollettino": 2021, "Regione": "EMILIA ROMAGNA", "Prov": "REGGIO EMILIA", "Comune": "FABBRICO", "INSETTI": 1, "UCCELLI": 0, "EQUIDI": 0, "AVICOLI": 0, "UOMO": 0 }, "geometry": { "type": "Point", "coordinates": [ 10.8128, 44.8759 ] } },
{ "type": "Feature", "properties": { "CodIstat": 27008.0, "AnnoBollettino": 2021, "Regione": "VENETO", "Prov": "VENEZIA", "Comune": "CHIOGGIA", "INSETTI": 0, "UCCELLI": 1, "EQUIDI": 0, "AVICOLI": 0, "UOMO": 0 }, "geometry": { "type": "Point", "coordinates": [ 12.246, 45.2181 ] } },
{ "type": "Feature", "properties": { "CodIstat": 43031.0, "AnnoBollettino": 2021, "Regione": "MARCHE", "Prov": "MACERATA", "Comune": "MONTE SAN GIUSTO", "INSETTI": 1, "UCCELLI": 0, "EQUIDI": 0, "AVICOLI": 0, "UOMO": 0 }, "geometry": { "type": "Point", "coordinates": [ 13.5816, 43.2373 ] } },
{ "type": "Feature", "properties": { "CodIstat": 27024.0, "AnnoBollettino": 2021, "Regione": "VENETO", "Prov": "VENEZIA", "Comune": "MIRANO", "INSETTI": 3, "UCCELLI": 0, "EQUIDI": 0, "AVICOLI": 0, "UOMO": 0 }, "geometry": { "type": "Point", "coordinates": [ 12.0876, 45.4857 ] } },
{ "type": "Feature", "properties": { "CodIstat": 38003.0, "AnnoBollettino": 2021, "Regione": "EMILIA ROMAGNA", "Prov": "FERRARA", "Comune": "BONDENO", "INSETTI": 1, "UCCELLI": 0, "EQUIDI": 0, "AVICOLI": 0, "UOMO": 0 }, "geometry": { "type": "Point", "coordinates": [ 11.3735, 44.9031 ] } },
{ "type": "Feature", "properties": { "CodIstat": 28027.0, "AnnoBollettino": 2021, "Regione": "VENETO", "Prov": "PADOVA", "Comune": "CASALE DI SCODOSIA", "INSETTI": 1, "UCCELLI": 0, "EQUIDI": 0, "AVICOLI": 0, "UOMO": 0 }, "geometry": { "type": "Point", "coordinates": [ 11.485, 45.1835 ] } },
{ "type": "Feature", "properties": { "CodIstat": 38014.0, "AnnoBollettino": 2021, "Regione": "EMILIA ROMAGNA", "Prov": "FERRARA", "Comune": "MESOLA", "INSETTI": 1, "UCCELLI": 0, "EQUIDI": 0, "AVICOLI": 0, "UOMO": 0 }, "geometry": { "type": "Point", "coordinates": [ 12.2188, 44.8997 ] } },
{ "type": "Feature", "properties": { "CodIstat": 37006.0, "AnnoBollettino": 2021, "Regione": "EMILIA ROMAGNA", "Prov": "BOLOGNA", "Comune": "BOLOGNA", "INSETTI": 2, "UCCELLI": 30, "EQUIDI": 0, "AVICOLI": 0, "UOMO": 0 }, "geometry": { "type": "Point", "coordinates": [ 11.3331, 44.4981 ] } },
{ "type": "Feature", "properties": { "CodIstat": 68027.0, "AnnoBollettino": 2021, "Regione": "ABRUZZO", "Prov": "PESCARA", "Comune": "PENNE", "INSETTI": 1, "UCCELLI": 0, "EQUIDI": 0, "AVICOLI": 0, "UOMO": 0 }, "geometry": { "type": "Point", "coordinates": [ 13.9065, 42.4676 ] } },
{ "type": "Feature", "properties": { "CodIstat": 39014.0, "AnnoBollettino": 2021, "Regione": "EMILIA ROMAGNA", "Prov": "RAVENNA", "Comune": "RAVENNA", "INSETTI": 2, "UCCELLI": 0, "EQUIDI": 0, "AVICOLI": 0, "UOMO": 0 }, "geometry": { "type": "Point", "coordinates": [ 12.1937, 44.4138 ] } },
{ "type": "Feature", "properties": { "CodIstat": 90049.0, "AnnoBollettino": 2021, "Regione": "SARDEGNA", "Prov": "SASSARI", "Comune": "OSCHIRI", "INSETTI": 1, "UCCELLI": 0, "EQUIDI": 0, "AVICOLI": 0, "UOMO": 0 }, "geometry": { "type": "Point", "coordinates": [ 9.10170848832, 40.7271 ] } },
{ "type": "Feature", "properties": { "CodIstat": 42034.0, "AnnoBollettino": 2021, "Regione": "MARCHE", "Prov": "ANCONA", "Comune": "OSIMO", "INSETTI": 4, "UCCELLI": 0, "EQUIDI": 0, "AVICOLI": 0, "UOMO": 0 }, "geometry": { "type": "Point", "coordinates": [ 13.4618, 43.4843 ] } },
{ "type": "Feature", "properties": { "CodIstat": 29024.0, "AnnoBollettino": 2021, "Regione": "VENETO", "Prov": "ROVIGO", "Comune": "FRATTA POLESINE", "INSETTI": 0, "UCCELLI": 1, "EQUIDI": 0, "AVICOLI": 0, "UOMO": 0 }, "geometry": { "type": "Point", "coordinates": [ 11.6331, 45.0212 ] } },
{ "type": "Feature", "properties": { "CodIstat": 68012.0, "AnnoBollettino": 2021, "Regione": "ABRUZZO", "Prov": "PESCARA", "Comune": "CITTA' SANT'ANGELO", "INSETTI": 2, "UCCELLI": 0, "EQUIDI": 0, "AVICOLI": 0, "UOMO": 0 }, "geometry": { "type": "Point", "coordinates": [ 14.0621, 42.5122 ] } },
{ "type": "Feature", "properties": { "CodIstat": 38006.0, "AnnoBollettino": 2021, "Regione": "EMILIA ROMAGNA", "Prov": "FERRARA", "Comune": "COMACCHIO", "INSETTI": 2, "UCCELLI": 0, "EQUIDI": 0, "AVICOLI": 0, "UOMO": 0 }, "geometry": { "type": "Point", "coordinates": [ 12.162, 44.6834 ] } },
{ "type": "Feature", "properties": { "CodIstat": 33002.0, "AnnoBollettino": 2021, "Regione": "EMILIA ROMAGNA", "Prov": "PIACENZA", "Comune": "ALSENO", "INSETTI": 3, "UCCELLI": 0, "EQUIDI": 0, "AVICOLI": 0, "UOMO": 0 }, "geometry": { "type": "Point", "coordinates": [ 9.96248439383, 44.8874 ] } },
{ "type": "Feature", "properties": { "CodIstat": 33024.0, "AnnoBollettino": 2021, "Regione": "EMILIA ROMAGNA", "Prov": "PIACENZA", "Comune": "GRAGNANO TREBBIENSE", "INSETTI": 1, "UCCELLI": 0, "EQUIDI": 0, "AVICOLI": 0, "UOMO": 0 }, "geometry": { "type": "Point", "coordinates": [ 9.55838970063, 45.0099 ] } },
{ "type": "Feature", "properties": { "CodIstat": 41044.0, "AnnoBollettino": 2021, "Regione": "MARCHE", "Prov": "PESARO E URBINO", "Comune": "PESARO", "INSETTI": 0, "UCCELLI": 6, "EQUIDI": 0, "AVICOLI": 0, "UOMO": 0 }, "geometry": { "type": "Point", "coordinates": [ 12.8553, 43.873 ] } },
{ "type": "Feature", "properties": { "CodIstat": 37054.0, "AnnoBollettino": 2021, "Regione": "EMILIA ROMAGNA", "Prov": "BOLOGNA", "Comune": "SAN LAZZARO DI SAVENA", "INSETTI": 0, "UCCELLI": 1, "EQUIDI": 0, "AVICOLI": 0, "UOMO": 0 }, "geometry": { "type": "Point", "coordinates": [ 11.426, 44.451 ] } },
{ "type": "Feature", "properties": { "CodIstat": 37047.0, "AnnoBollettino": 2021, "Regione": "EMILIA ROMAGNA", "Prov": "BOLOGNA", "Comune": "PIANORO", "INSETTI": 0, "UCCELLI": 2, "EQUIDI": 0, "AVICOLI": 0, "UOMO": 0 }, "geometry": { "type": "Point", "coordinates": [ 11.3566, 44.3767 ] } },
{ "type": "Feature", "properties": { "CodIstat": 23085.0, "AnnoBollettino": 2021, "Regione": "VENETO", "Prov": "VERONA", "Comune": "TERRAZZO", "INSETTI": 0, "UCCELLI": 1, "EQUIDI": 0, "AVICOLI": 0, "UOMO": 0 }, "geometry": { "type": "Point", "coordinates": [ 11.3926, 45.164 ] } },
{ "type": "Feature", "properties": { "CodIstat": 37050.0, "AnnoBollettino": 2021, "Regione": "EMILIA ROMAGNA", "Prov": "BOLOGNA", "Comune": "SALA BOLOGNESE", "INSETTI": 2, "UCCELLI": 0, "EQUIDI": 0, "AVICOLI": 0, "UOMO": 0 }, "geometry": { "type": "Point", "coordinates": [ 11.268, 44.6269 ] } },
{ "type": "Feature", "properties": { "CodIstat": 29052.0, "AnnoBollettino": 2021, "Regione": "VENETO", "Prov": "ROVIGO", "Comune": "PORTO VIRO", "INSETTI": 1, "UCCELLI": 0, "EQUIDI": 0, "AVICOLI": 0, "UOMO": 0 }, "geometry": { "type": "Point", "coordinates": [ 12.3044, 45.0148 ] } },
{ "type": "Feature", "properties": { "CodIstat": 27031.0, "AnnoBollettino": 2021, "Regione": "VENETO", "Prov": "VENEZIA", "Comune": "QUARTO D'ALTINO", "INSETTI": 2, "UCCELLI": 0, "EQUIDI": 0, "AVICOLI": 0, "UOMO": 0 }, "geometry": { "type": "Point", "coordinates": [ 12.4091, 45.5606 ] } },
{ "type": "Feature", "properties": { "CodIstat": 40041.0, "AnnoBollettino": 2021, "Regione": "EMILIA ROMAGNA", "Prov": "FORLI-CESENA", "Comune": "SAN MAURO PASCOLI", "INSETTI": 0, "UCCELLI": 1, "EQUIDI": 0, "AVICOLI": 0, "UOMO": 0 }, "geometry": { "type": "Point", "coordinates": [ 12.4324, 44.1152 ] } },
{ "type": "Feature", "properties": { "CodIstat": 28099.0, "AnnoBollettino": 2021, "Regione": "VENETO", "Prov": "PADOVA", "Comune": "VIGODARZERE", "INSETTI": 0, "UCCELLI": 1, "EQUIDI": 0, "AVICOLI": 0, "UOMO": 0 }, "geometry": { "type": "Point", "coordinates": [ 11.8737, 45.4818 ] } },
{ "type": "Feature", "properties": { "CodIstat": 29050.0, "AnnoBollettino": 2021, "Regione": "VENETO", "Prov": "ROVIGO", "Comune": "VILLANOVA DEL GHEBBO", "INSETTI": 1, "UCCELLI": 0, "EQUIDI": 0, "AVICOLI": 0, "UOMO": 0 }, "geometry": { "type": "Point", "coordinates": [ 11.6586, 45.0671 ] } },
{ "type": "Feature", "properties": { "CodIstat": 26063.0, "AnnoBollettino": 2021, "Regione": "VENETO", "Prov": "TREVISO", "Comune": "PREGANZIOL", "INSETTI": 2, "UCCELLI": 0, "EQUIDI": 0, "AVICOLI": 0, "UOMO": 0 }, "geometry": { "type": "Point", "coordinates": [ 12.2269, 45.6076 ] } },
{ "type": "Feature", "properties": { "CodIstat": 26068.0, "AnnoBollettino": 2021, "Regione": "VENETO", "Prov": "TREVISO", "Comune": "RIESE PIO X", "INSETTI": 5, "UCCELLI": 0, "EQUIDI": 0, "AVICOLI": 0, "UOMO": 0 }, "geometry": { "type": "Point", "coordinates": [ 11.913, 45.7262 ] } },
{ "type": "Feature", "properties": { "CodIstat": 28100.0, "AnnoBollettino": 2021, "Regione": "VENETO", "Prov": "PADOVA", "Comune": "VIGONZA", "INSETTI": 0, "UCCELLI": 1, "EQUIDI": 0, "AVICOLI": 0, "UOMO": 0 }, "geometry": { "type": "Point", "coordinates": [ 11.9714, 45.4488 ] } },
{ "type": "Feature", "properties": { "CodIstat": 36036.0, "AnnoBollettino": 2021, "Regione": "EMILIA ROMAGNA", "Prov": "MODENA", "Comune": "SAN CESARIO SUL PANARO", "INSETTI": 2, "UCCELLI": 0, "EQUIDI": 0, "AVICOLI": 0, "UOMO": 0 }, "geometry": { "type": "Point", "coordinates": [ 11.0237, 44.5735 ] } },
{ "type": "Feature", "properties": { "CodIstat": 24105.0, "AnnoBollettino": 2021, "Regione": "VENETO", "Prov": "VICENZA", "Comune": "THIENE", "INSETTI": 0, "UCCELLI": 1, "EQUIDI": 0, "AVICOLI": 0, "UOMO": 0 }, "geometry": { "type": "Point", "coordinates": [ 11.4842, 45.6909 ] } },
{ "type": "Feature", "properties": { "CodIstat": 23069.0, "AnnoBollettino": 2021, "Regione": "VENETO", "Prov": "VERONA", "Comune": "SAN BONIFACIO", "INSETTI": 0, "UCCELLI": 1, "EQUIDI": 0, "AVICOLI": 0, "UOMO": 0 }, "geometry": { "type": "Point", "coordinates": [ 11.2864, 45.3969 ] } },
{ "type": "Feature", "properties": { "CodIstat": 27037.0, "AnnoBollettino": 2021, "Regione": "VENETO", "Prov": "VENEZIA", "Comune": "SCORZE'", "INSETTI": 0, "UCCELLI": 2, "EQUIDI": 0, "AVICOLI": 0, "UOMO": 0 }, "geometry": { "type": "Point", "coordinates": [ 12.141, 45.576 ] } },
{ "type": "Feature", "properties": { "CodIstat": 38022.0, "AnnoBollettino": 2021, "Regione": "EMILIA ROMAGNA", "Prov": "FERRARA", "Comune": "VIGARANO MAINARDA", "INSETTI": 0, "UCCELLI": 2, "EQUIDI": 0, "AVICOLI": 0, "UOMO": 0 }, "geometry": { "type": "Point", "coordinates": [ 11.4963, 44.8524 ] } },
{ "type": "Feature", "properties": { "CodIstat": 27042.0, "AnnoBollettino": 2021, "Regione": "VENETO", "Prov": "VENEZIA", "Comune": "VENEZIA", "INSETTI": 2, "UCCELLI": 4, "EQUIDI": 0, "AVICOLI": 0, "UOMO": 0 }, "geometry": { "type": "Point", "coordinates": [ 12.3455, 45.4677 ] } },
{ "type": "Feature", "properties": { "CodIstat": 53011.0, "AnnoBollettino": 2021, "Regione": "TOSCANA", "Prov": "GROSSETO", "Comune": "GROSSETO", "INSETTI": 0, "UCCELLI": 1, "EQUIDI": 0, "AVICOLI": 0, "UOMO": 0 }, "geometry": { "type": "Point", "coordinates": [ 11.09, 42.7672 ] } },
{ "type": "Feature", "properties": { "CodIstat": 42021.0, "AnnoBollettino": 2021, "Regione": "MARCHE", "Prov": "ANCONA", "Comune": "JESI", "INSETTI": 1, "UCCELLI": 0, "EQUIDI": 0, "AVICOLI": 0, "UOMO": 0 }, "geometry": { "type": "Point", "coordinates": [ 13.2614, 43.5166 ] } },
{ "type": "Feature", "properties": { "CodIstat": 28041.0, "AnnoBollettino": 2021, "Regione": "VENETO", "Prov": "PADOVA", "Comune": "GAZZO", "INSETTI": 2, "UCCELLI": 0, "EQUIDI": 0, "AVICOLI": 0, "UOMO": 0 }, "geometry": { "type": "Point", "coordinates": [ 11.6931, 45.5667 ] } },
{ "type": "Feature", "properties": { "CodIstat": 28060.0, "AnnoBollettino": 2021, "Regione": "VENETO", "Prov": "PADOVA", "Comune": "PADOVA", "INSETTI": 0, "UCCELLI": 1, "EQUIDI": 0, "AVICOLI": 0, "UOMO": 0 }, "geometry": { "type": "Point", "coordinates": [ 11.8831, 45.4034 ] } },
{ "type": "Feature", "properties": { "CodIstat": 33022.0, "AnnoBollettino": 2021, "Regione": "EMILIA ROMAGNA", "Prov": "PIACENZA", "Comune": "GAZZOLA", "INSETTI": 0, "UCCELLI": 1, "EQUIDI": 0, "AVICOLI": 0, "UOMO": 0 }, "geometry": { "type": "Point", "coordinates": [ 9.55361285349, 44.9393 ] } },
{ "type": "Feature", "properties": { "CodIstat": 37015.0, "AnnoBollettino": 2021, "Regione": "EMILIA ROMAGNA", "Prov": "BOLOGNA", "Comune": "CASTEL DI CASIO", "INSETTI": 0, "UCCELLI": 1, "EQUIDI": 0, "AVICOLI": 0, "UOMO": 0 }, "geometry": { "type": "Point", "coordinates": [ 11.0223, 44.1595 ] } },
{ "type": "Feature", "properties": { "CodIstat": 28015.0, "AnnoBollettino": 2021, "Regione": "VENETO", "Prov": "PADOVA", "Comune": "BRUGINE", "INSETTI": 1, "UCCELLI": 0, "EQUIDI": 0, "AVICOLI": 0, "UOMO": 0 }, "geometry": { "type": "Point", "coordinates": [ 11.9903, 45.2903 ] } },
{ "type": "Feature", "properties": { "CodIstat": 26019.0, "AnnoBollettino": 2021, "Regione": "VENETO", "Prov": "TREVISO", "Comune": "CODOGNE'", "INSETTI": 1, "UCCELLI": 0, "EQUIDI": 0, "AVICOLI": 0, "UOMO": 0 }, "geometry": { "type": "Point", "coordinates": [ 12.4285, 45.8692 ] } },
{ "type": "Feature", "properties": { "CodIstat": 67039.0, "AnnoBollettino": 2021, "Regione": "ABRUZZO", "Prov": "TERAMO", "Comune": "SANT'OMERO", "INSETTI": 2, "UCCELLI": 0, "EQUIDI": 0, "AVICOLI": 0, "UOMO": 0 }, "geometry": { "type": "Point", "coordinates": [ 13.8215, 42.7889 ] } },
{ "type": "Feature", "properties": { "CodIstat": 99018.0, "AnnoBollettino": 2021, "Regione": "EMILIA ROMAGNA", "Prov": "RIMINI", "Comune": "SANTARCANGELO DI ROMAGNA", "INSETTI": 0, "UCCELLI": 1, "EQUIDI": 0, "AVICOLI": 0, "UOMO": 0 }, "geometry": { "type": "Point", "coordinates": [ 12.4353, 44.0524 ] } },
{ "type": "Feature", "properties": { "CodIstat": 93038.0, "AnnoBollettino": 2021, "Regione": "FRIULI VENEZIA GIULIA", "Prov": "PORDENONE", "Comune": "SAN GIORGIO DELLA RICHINVELDA", "INSETTI": 1, "UCCELLI": 0, "EQUIDI": 0, "AVICOLI": 0, "UOMO": 0 }, "geometry": { "type": "Point", "coordinates": [ 12.8483, 46.0464 ] } },
{ "type": "Feature", "properties": { "CodIstat": 37052.0, "AnnoBollettino": 2021, "Regione": "EMILIA ROMAGNA", "Prov": "BOLOGNA", "Comune": "SAN GIORGIO DI PIANO", "INSETTI": 0, "UCCELLI": 1, "EQUIDI": 0, "AVICOLI": 0, "UOMO": 0 }, "geometry": { "type": "Point", "coordinates": [ 11.3748, 44.6577 ] } },
{ "type": "Feature", "properties": { "CodIstat": 99020.0, "AnnoBollettino": 2021, "Regione": "EMILIA ROMAGNA", "Prov": "RIMINI", "Comune": "VERUCCHIO", "INSETTI": 0, "UCCELLI": 2, "EQUIDI": 0, "AVICOLI": 0, "UOMO": 0 }, "geometry": { "type": "Point", "coordinates": [ 12.4283, 43.9832 ] } },
{ "type": "Feature", "properties": { "CodIstat": 36039.0, "AnnoBollettino": 2021, "Regione": "EMILIA ROMAGNA", "Prov": "MODENA", "Comune": "SAN PROSPERO", "INSETTI": 0, "UCCELLI": 1, "EQUIDI": 0, "AVICOLI": 0, "UOMO": 0 }, "geometry": { "type": "Point", "coordinates": [ 11.0324, 44.7895 ] } },
{ "type": "Feature", "properties": { "CodIstat": 27019.0, "AnnoBollettino": 2021, "Regione": "VENETO", "Prov": "VENEZIA", "Comune": "JESOLO", "INSETTI": 1, "UCCELLI": 3, "EQUIDI": 0, "AVICOLI": 0, "UOMO": 0 }, "geometry": { "type": "Point", "coordinates": [ 12.6333, 45.5348 ] } },
{ "type": "Feature", "properties": { "CodIstat": 26086.0, "AnnoBollettino": 2021, "Regione": "VENETO", "Prov": "TREVISO", "Comune": "TREVISO", "INSETTI": 1, "UCCELLI": 0, "EQUIDI": 0, "AVICOLI": 0, "UOMO": 0 }, "geometry": { "type": "Point", "coordinates": [ 12.2276, 45.6638 ] } },
{ "type": "Feature", "properties": { "CodIstat": 29041.0, "AnnoBollettino": 2021, "Regione": "VENETO", "Prov": "ROVIGO", "Comune": "ROVIGO", "INSETTI": 1, "UCCELLI": 1, "EQUIDI": 0, "AVICOLI": 0, "UOMO": 0 }, "geometry": { "type": "Point", "coordinates": [ 11.7949, 45.0696 ] } },
{ "type": "Feature", "properties": { "CodIstat": 37053.0, "AnnoBollettino": 2021, "Regione": "EMILIA ROMAGNA", "Prov": "BOLOGNA", "Comune": "SAN GIOVANNI IN PERSICETO", "INSETTI": 0, "UCCELLI": 2, "EQUIDI": 0, "AVICOLI": 0, "UOMO": 0 }, "geometry": { "type": "Point", "coordinates": [ 11.203, 44.6603 ] } },
{ "type": "Feature", "properties": { "CodIstat": 40046.0, "AnnoBollettino": 2021, "Regione": "EMILIA ROMAGNA", "Prov": "FORLI-CESENA", "Comune": "SOGLIANO AL RUBICONE", "INSETTI": 0, "UCCELLI": 2, "EQUIDI": 0, "AVICOLI": 0, "UOMO": 0 }, "geometry": { "type": "Point", "coordinates": [ 12.265, 43.9729 ] } },
{ "type": "Feature", "properties": { "CodIstat": 90064.0, "AnnoBollettino": 2021, "Regione": "SARDEGNA", "Prov": "SASSARI", "Comune": "SASSARI", "INSETTI": 0, "UCCELLI": 1, "EQUIDI": 0, "AVICOLI": 0, "UOMO": 0 }, "geometry": { "type": "Point", "coordinates": [ 8.364116185689999, 40.7446 ] } },
{ "type": "Feature", "properties": { "CodIstat": 28072.0, "AnnoBollettino": 2021, "Regione": "VENETO", "Prov": "PADOVA", "Comune": "RUBANO", "INSETTI": 0, "UCCELLI": 1, "EQUIDI": 0, "AVICOLI": 0, "UOMO": 0 }, "geometry": { "type": "Point", "coordinates": [ 11.8016, 45.4355 ] } },
{ "type": "Feature", "properties": { "CodIstat": 20059.0, "AnnoBollettino": 2021, "Regione": "LOMBARDIA", "Prov": "MANTOVA", "Comune": "SAN MARTINO DALL'ARGINE", "INSETTI": 1, "UCCELLI": 0, "EQUIDI": 0, "AVICOLI": 0, "UOMO": 0 }, "geometry": { "type": "Point", "coordinates": [ 10.5291, 45.0952 ] } },
{ "type": "Feature", "properties": { "CodIstat": 37055.0, "AnnoBollettino": 2021, "Regione": "EMILIA ROMAGNA", "Prov": "BOLOGNA", "Comune": "SAN PIETRO IN CASALE", "INSETTI": 1, "UCCELLI": 0, "EQUIDI": 0, "AVICOLI": 0, "UOMO": 0 }, "geometry": { "type": "Point", "coordinates": [ 11.4047, 44.7105 ] } },
{ "type": "Feature", "properties": { "CodIstat": 33035.0, "AnnoBollettino": 2021, "Regione": "EMILIA ROMAGNA", "Prov": "PIACENZA", "Comune": "PODENZANO", "INSETTI": 1, "UCCELLI": 2, "EQUIDI": 0, "AVICOLI": 0, "UOMO": 0 }, "geometry": { "type": "Point", "coordinates": [ 9.702118283080001, 44.9705 ] } },
{ "type": "Feature", "properties": { "CodIstat": 38019.0, "AnnoBollettino": 2021, "Regione": "EMILIA ROMAGNA", "Prov": "FERRARA", "Comune": "PORTOMAGGIORE", "INSETTI": 0, "UCCELLI": 1, "EQUIDI": 0, "AVICOLI": 0, "UOMO": 0 }, "geometry": { "type": "Point", "coordinates": [ 11.8388, 44.6982 ] } },
{ "type": "Feature", "properties": { "CodIstat": 23048.0, "AnnoBollettino": 2021, "Regione": "VENETO", "Prov": "VERONA", "Comune": "MINERBE", "INSETTI": 1, "UCCELLI": 0, "EQUIDI": 0, "AVICOLI": 0, "UOMO": 0 }, "geometry": { "type": "Point", "coordinates": [ 11.3528, 45.2491 ] } },
{ "type": "Feature", "properties": { "CodIstat": 41030.0, "AnnoBollettino": 2021, "Regione": "MARCHE", "Prov": "PESARO E URBINO", "Comune": "MONTECALVO IN FOGLIA", "INSETTI": 2, "UCCELLI": 0, "EQUIDI": 0, "AVICOLI": 0, "UOMO": 0 }, "geometry": { "type": "Point", "coordinates": [ 12.6415, 43.8088 ] } },
{ "type": "Feature", "properties": { "CodIstat": 109027.0, "AnnoBollettino": 2021, "Regione": "MARCHE", "Prov": "FERMO", "Comune": "MONTOTTONE", "INSETTI": 1, "UCCELLI": 0, "EQUIDI": 0, "AVICOLI": 0, "UOMO": 0 }, "geometry": { "type": "Point", "coordinates": [ 13.585, 43.0705 ] } },
{ "type": "Feature", "properties": { "CodIstat": 28063.0, "AnnoBollettino": 2021, "Regione": "VENETO", "Prov": "PADOVA", "Comune": "PIAZZOLA SUL BRENTA", "INSETTI": 0, "UCCELLI": 1, "EQUIDI": 0, "AVICOLI": 0, "UOMO": 0 }, "geometry": { "type": "Point", "coordinates": [ 11.777, 45.5418 ] } },
{ "type": "Feature", "properties": { "CodIstat": 36023.0, "AnnoBollettino": 2021, "Regione": "EMILIA ROMAGNA", "Prov": "MODENA", "Comune": "MODENA", "INSETTI": 4, "UCCELLI": 0, "EQUIDI": 0, "AVICOLI": 0, "UOMO": 0 }, "geometry": { "type": "Point", "coordinates": [ 10.9153, 44.6441 ] } },
{ "type": "Feature", "properties": { "CodIstat": 38017.0, "AnnoBollettino": 2021, "Regione": "EMILIA ROMAGNA", "Prov": "FERRARA", "Comune": "OSTELLATO", "INSETTI": 2, "UCCELLI": 1, "EQUIDI": 0, "AVICOLI": 0, "UOMO": 0 }, "geometry": { "type": "Point", "coordinates": [ 11.9778, 44.7237 ] } },
{ "type": "Feature", "properties": { "CodIstat": 38008.0, "AnnoBollettino": 2021, "Regione": "EMILIA ROMAGNA", "Prov": "FERRARA", "Comune": "FERRARA", "INSETTI": 0, "UCCELLI": 8, "EQUIDI": 0, "AVICOLI": 0, "UOMO": 0 }, "geometry": { "type": "Point", "coordinates": [ 11.6491, 44.8229 ] } },
{ "type": "Feature", "properties": { "CodIstat": 5069.0, "AnnoBollettino": 2021, "Regione": "PIEMONTE", "Prov": "ASTI", "Comune": "MONCALVO", "INSETTI": 1, "UCCELLI": 0, "EQUIDI": 0, "AVICOLI": 0, "UOMO": 0 }, "geometry": { "type": "Point", "coordinates": [ 8.27133557897, 45.0505 ] } },
{ "type": "Feature", "properties": { "CodIstat": 15188.0, "AnnoBollettino": 2021, "Regione": "LOMBARDIA", "Prov": "MILANO", "Comune": "ROSATE", "INSETTI": 1, "UCCELLI": 0, "EQUIDI": 0, "AVICOLI": 0, "UOMO": 0 }, "geometry": { "type": "Point", "coordinates": [ 9.01852438886, 45.3511 ] } },
{ "type": "Feature", "properties": { "CodIstat": 28047.0, "AnnoBollettino": 2021, "Regione": "VENETO", "Prov": "PADOVA", "Comune": "LOZZO ATESTINO", "INSETTI": 0, "UCCELLI": 1, "EQUIDI": 0, "AVICOLI": 0, "UOMO": 0 }, "geometry": { "type": "Point", "coordinates": [ 11.6098, 45.2889 ] } },
{ "type": "Feature", "properties": { "CodIstat": 33038.0, "AnnoBollettino": 2021, "Regione": "EMILIA ROMAGNA", "Prov": "PIACENZA", "Comune": "RIVERGARO", "INSETTI": 0, "UCCELLI": 2, "EQUIDI": 0, "AVICOLI": 0, "UOMO": 0 }, "geometry": { "type": "Point", "coordinates": [ 9.61170890526, 44.9165 ] } },
{ "type": "Feature", "properties": { "CodIstat": 36012.0, "AnnoBollettino": 2021, "Regione": "EMILIA ROMAGNA", "Prov": "MODENA", "Comune": "FINALE EMILIA", "INSETTI": 1, "UCCELLI": 0, "EQUIDI": 0, "AVICOLI": 0, "UOMO": 0 }, "geometry": { "type": "Point", "coordinates": [ 11.2665, 44.8491 ] } },
{ "type": "Feature", "properties": { "CodIstat": 40012.0, "AnnoBollettino": 2021, "Regione": "EMILIA ROMAGNA", "Prov": "FORLI-CESENA", "Comune": "FORLI'", "INSETTI": 1, "UCCELLI": 3, "EQUIDI": 0, "AVICOLI": 0, "UOMO": 0 }, "geometry": { "type": "Point", "coordinates": [ 12.0497, 44.2275 ] } },
{ "type": "Feature", "properties": { "CodIstat": 37039.0, "AnnoBollettino": 2021, "Regione": "EMILIA ROMAGNA", "Prov": "BOLOGNA", "Comune": "MOLINELLA", "INSETTI": 2, "UCCELLI": 1, "EQUIDI": 0, "AVICOLI": 0, "UOMO": 0 }, "geometry": { "type": "Point", "coordinates": [ 11.6856, 44.6083 ] } },
{ "type": "Feature", "properties": { "CodIstat": 35033.0, "AnnoBollettino": 2021, "Regione": "EMILIA ROMAGNA", "Prov": "REGGIO EMILIA", "Comune": "REGGIO NELL'EMILIA", "INSETTI": 3, "UCCELLI": 0, "EQUIDI": 0, "AVICOLI": 0, "UOMO": 0 }, "geometry": { "type": "Point", "coordinates": [ 10.6345, 44.6974 ] } },
{ "type": "Feature", "properties": { "CodIstat": 37001.0, "AnnoBollettino": 2021, "Regione": "EMILIA ROMAGNA", "Prov": "BOLOGNA", "Comune": "ANZOLA DELL'EMILIA", "INSETTI": 1, "UCCELLI": 0, "EQUIDI": 0, "AVICOLI": 0, "UOMO": 0 }, "geometry": { "type": "Point", "coordinates": [ 11.1936, 44.5652 ] } },
{ "type": "Feature", "properties": { "CodIstat": 40007.0, "AnnoBollettino": 2021, "Regione": "EMILIA ROMAGNA", "Prov": "FORLI-CESENA", "Comune": "CESENA", "INSETTI": 1, "UCCELLI": 1, "EQUIDI": 0, "AVICOLI": 0, "UOMO": 0 }, "geometry": { "type": "Point", "coordinates": [ 12.2347, 44.1304 ] } },
{ "type": "Feature", "properties": { "CodIstat": 40008.0, "AnnoBollettino": 2021, "Regione": "EMILIA ROMAGNA", "Prov": "FORLI-CESENA", "Comune": "CESENATICO", "INSETTI": 0, "UCCELLI": 1, "EQUIDI": 0, "AVICOLI": 0, "UOMO": 0 }, "geometry": { "type": "Point", "coordinates": [ 12.38, 44.1758 ] } },
{ "type": "Feature", "properties": { "CodIstat": 36010.0, "AnnoBollettino": 2021, "Regione": "EMILIA ROMAGNA", "Prov": "MODENA", "Comune": "CONCORDIA SULLA SECCHIA", "INSETTI": 1, "UCCELLI": 0, "EQUIDI": 0, "AVICOLI": 0, "UOMO": 0 }, "geometry": { "type": "Point", "coordinates": [ 11.0015, 44.9249 ] } },
{ "type": "Feature", "properties": { "CodIstat": 26085.0, "AnnoBollettino": 2021, "Regione": "VENETO", "Prov": "TREVISO", "Comune": "TREVIGNANO", "INSETTI": 1, "UCCELLI": 0, "EQUIDI": 0, "AVICOLI": 0, "UOMO": 0 }, "geometry": { "type": "Point", "coordinates": [ 12.0932, 45.7346 ] } },
{ "type": "Feature", "properties": { "CodIstat": 44071.0, "AnnoBollettino": 2021, "Regione": "MARCHE", "Prov": "ASCOLI PICENO", "Comune": "SPINETOLI", "INSETTI": 2, "UCCELLI": 0, "EQUIDI": 0, "AVICOLI": 0, "UOMO": 0 }, "geometry": { "type": "Point", "coordinates": [ 13.7766, 42.8783 ] } },
{ "type": "Feature", "properties": { "CodIstat": 38029.0, "AnnoBollettino": 2021, "Regione": "EMILIA ROMAGNA", "Prov": "FERRARA", "Comune": "RIVA DEL PO", "INSETTI": 1, "UCCELLI": 0, "EQUIDI": 0, "AVICOLI": 0, "UOMO": 0 }, "geometry": { "type": "Point", "coordinates": [ 11.9167, 44.954 ] } },
{ "type": "Feature", "properties": { "CodIstat": 27038.0, "AnnoBollettino": 2021, "Regione": "VENETO", "Prov": "VENEZIA", "Comune": "SPINEA", "INSETTI": 0, "UCCELLI": 1, "EQUIDI": 0, "AVICOLI": 0, "UOMO": 0 }, "geometry": { "type": "Point", "coordinates": [ 12.1551, 45.4908 ] } },
{ "type": "Feature", "properties": { "CodIstat": 42045.0, "AnnoBollettino": 2021, "Regione": "MARCHE", "Prov": "ANCONA", "Comune": "SENIGALLIA", "INSETTI": 1, "UCCELLI": 0, "EQUIDI": 0, "AVICOLI": 0, "UOMO": 0 }, "geometry": { "type": "Point", "coordinates": [ 13.201, 43.6817 ] } },
{ "type": "Feature", "properties": { "CodIstat": 28093.0, "AnnoBollettino": 2021, "Regione": "VENETO", "Prov": "PADOVA", "Comune": "TREBASELEGHE", "INSETTI": 0, "UCCELLI": 1, "EQUIDI": 0, "AVICOLI": 0, "UOMO": 0 }, "geometry": { "type": "Point", "coordinates": [ 12.0444, 45.5931 ] } },
{ "type": "Feature", "properties": { "CodIstat": 28086.0, "AnnoBollettino": 2021, "Regione": "VENETO", "Prov": "PADOVA", "Comune": "SELVAZZANO DENTRO", "INSETTI": 1, "UCCELLI": 0, "EQUIDI": 0, "AVICOLI": 0, "UOMO": 0 }, "geometry": { "type": "Point", "coordinates": [ 11.7896, 45.3995 ] } },
{ "type": "Feature", "properties": { "CodIstat": 34049.0, "AnnoBollettino": 2021, "Regione": "EMILIA ROMAGNA", "Prov": "PARMA", "Comune": "SISSA TRECASALI", "INSETTI": 1, "UCCELLI": 0, "EQUIDI": 0, "AVICOLI": 0, "UOMO": 0 }, "geometry": { "type": "Point", "coordinates": [ 10.2797, 44.9483 ] } },
{ "type": "Feature", "properties": { "CodIstat": 236.0, "AnnoBollettino": 2021, "Regione": "SAN MARINO", "Prov": "SAN MARINO", "Comune": "REPUBBLICA DI SAN MARINO", "INSETTI": 0, "UCCELLI": 1, "EQUIDI": 0, "AVICOLI": 0, "UOMO": 0 }, "geometry": { "type": "Point", "coordinates": [ 12.4633, 43.9384 ] } }
]
}
