{
"type": "FeatureCollection",
"crs": { "type": "name", "properties": { "name": "urn:ogc:def:crs:OGC:1.3:CRS84" } },
"features": [
{ "type": "Feature", "properties": { "CodIstat": 69001, "AnnoBollettino": 2022, "Regione": "ABRUZZO", "Prov": "CHIETI", "Comune": "ALTINO", "INSETTI": 1, "UCCELLI": 0, "EQUIDI": 0, "AVICOLI": 0, "UOMO": 0 }, "geometry": { "type": "Point", "coordinates": [ 14.3487, 42.1061 ] } },
{ "type": "Feature", "properties": { "CodIstat": 23002, "AnnoBollettino": 2022, "Regione": "VENETO", "Prov": "VERONA", "Comune": "ALBAREDO D'ADIGE", "INSETTI": 0, "UCCELLI": 1, "EQUIDI": 0, "AVICOLI": 0, "UOMO": 0 }, "geometry": { "type": "Point", "coordinates": [ 11.2916, 45.2981 ] } },
{ "type": "Feature", "properties": { "CodIstat": 67031, "AnnoBollettino": 2022, "Regione": "ABRUZZO", "Prov": "TERAMO", "Comune": "NERETO", "INSETTI": 2, "UCCELLI": 0, "EQUIDI": 0, "AVICOLI": 0, "UOMO": 0 }, "geometry": { "type": "Point", "coordinates": [ 13.8119, 42.8181 ] } },
{ "type": "Feature", "properties": { "CodIstat": 60006, "AnnoBollettino": 2022, "Regione": "LAZIO", "Prov": "FROSINONE", "Comune": "ANAGNI", "INSETTI": 1, "UCCELLI": 0, "EQUIDI": 0, "AVICOLI": 0, "UOMO": 0 }, "geometry": { "type": "Point", "coordinates": [ 13.1483, 41.7336 ] } },
{ "type": "Feature", "properties": { "CodIstat": 42002, "AnnoBollettino": 2022, "Regione": "MARCHE", "Prov": "ANCONA", "Comune": "ANCONA", "INSETTI": 1, "UCCELLI": 0, "EQUIDI": 0, "AVICOLI": 0, "UOMO": 0 }, "geometry": { "type": "Point", "coordinates": [ 13.4916, 43.5728 ] } },
{ "type": "Feature", "properties": { "CodIstat": 93029, "AnnoBollettino": 2022, "Regione": "FRIULI VENEZIA GIULIA", "Prov": "PORDENONE", "Comune": "PASIANO DI PORDENONE", "INSETTI": 2, "UCCELLI": 0, "EQUIDI": 0, "AVICOLI": 0, "UOMO": 0 }, "geometry": { "type": "Point", "coordinates": [ 12.6223, 45.8557 ] } },
{ "type": "Feature", "properties": { "CodIstat": 43023, "AnnoBollettino": 2022, "Regione": "MARCHE", "Prov": "MACERATA", "Comune": "MACERATA", "INSETTI": 1, "UCCELLI": 2, "EQUIDI": 0, "AVICOLI": 0, "UOMO": 0 }, "geometry": { "type": "Point", "coordinates": [ 13.4517, 43.3036 ] } },
{ "type": "Feature", "properties": { "CodIstat": 48019, "AnnoBollettino": 2022, "Regione": "TOSCANA", "Prov": "FIRENZE", "Comune": "FUCECCHIO", "INSETTI": 1, "UCCELLI": 0, "EQUIDI": 0, "AVICOLI": 0, "UOMO": 0 }, "geometry": { "type": "Point", "coordinates": [ 10.7776, 43.765 ] } },
{ "type": "Feature", "properties": { "CodIstat": 35022, "AnnoBollettino": 2022, "Regione": "EMILIA ROMAGNA", "Prov": "REGGIO EMILIA", "Comune": "GATTATICO", "INSETTI": 2, "UCCELLI": 0, "EQUIDI": 0, "AVICOLI": 0, "UOMO": 0 }, "geometry": { "type": "Point", "coordinates": [ 10.4714, 44.7999 ] } },
{ "type": "Feature", "properties": { "CodIstat": 59024, "AnnoBollettino": 2022, "Regione": "LAZIO", "Prov": "LATINA", "Comune": "SABAUDIA", "INSETTI": 1, "UCCELLI": 1, "EQUIDI": 0, "AVICOLI": 0, "UOMO": 0 }, "geometry": { "type": "Point", "coordinates": [ 13.0304, 41.3434 ] } },
{ "type": "Feature", "properties": { "CodIstat": 53003, "AnnoBollettino": 2022, "Regione": "TOSCANA", "Prov": "GROSSETO", "Comune": "CAPALBIO", "INSETTI": 1, "UCCELLI": 0, "EQUIDI": 0, "AVICOLI": 0, "UOMO": 0 }, "geometry": { "type": "Point", "coordinates": [ 11.423, 42.4542 ] } },
{ "type": "Feature", "properties": { "CodIstat": 54004, "AnnoBollettino": 2022, "Regione": "UMBRIA", "Prov": "PERUGIA", "Comune": "BEVAGNA", "INSETTI": 1, "UCCELLI": 0, "EQUIDI": 0, "AVICOLI": 0, "UOMO": 0 }, "geometry": { "type": "Point", "coordinates": [ 12.5792, 42.9449 ] } },
{ "type": "Feature", "properties": { "CodIstat": 35002, "AnnoBollettino": 2022, "Regione": "EMILIA ROMAGNA", "Prov": "REGGIO EMILIA", "Comune": "BAGNOLO IN PIANO", "INSETTI": 1, "UCCELLI": 0, "EQUIDI": 0, "AVICOLI": 0, "UOMO": 0 }, "geometry": { "type": "Point", "coordinates": [ 10.6788, 44.7841 ] } },
{ "type": "Feature", "properties": { "CodIstat": 99001, "AnnoBollettino": 2022, "Regione": "EMILIA ROMAGNA", "Prov": "RIMINI", "Comune": "BELLARIA-IGEA MARINA", "INSETTI": 0, "UCCELLI": 1, "EQUIDI": 0, "AVICOLI": 0, "UOMO": 0 }, "geometry": { "type": "Point", "coordinates": [ 12.4635, 44.1317 ] } },
{ "type": "Feature", "properties": { "CodIstat": 99014, "AnnoBollettino": 2022, "Regione": "EMILIA ROMAGNA", "Prov": "RIMINI", "Comune": "RIMINI", "INSETTI": 1, "UCCELLI": 38, "EQUIDI": 0, "AVICOLI": 0, "UOMO": 0 }, "geometry": { "type": "Point", "coordinates": [ 12.5298, 44.0387 ] } },
{ "type": "Feature", "properties": { "CodIstat": 58091, "AnnoBollettino": 2022, "Regione": "LAZIO", "Prov": "ROMA", "Comune": "ROMA", "INSETTI": 1, "UCCELLI": 0, "EQUIDI": 0, "AVICOLI": 0, "UOMO": 0 }, "geometry": { "type": "Point", "coordinates": [ 12.4608, 41.8858 ] } },
{ "type": "Feature", "properties": { "CodIstat": 23021, "AnnoBollettino": 2022, "Regione": "VENETO", "Prov": "VERONA", "Comune": "CASTEL D'AZZANO", "INSETTI": 0, "UCCELLI": 1, "EQUIDI": 0, "AVICOLI": 0, "UOMO": 0 }, "geometry": { "type": "Point", "coordinates": [ 10.9486, 45.3586 ] } },
{ "type": "Feature", "properties": { "CodIstat": 37008, "AnnoBollettino": 2022, "Regione": "EMILIA ROMAGNA", "Prov": "BOLOGNA", "Comune": "BUDRIO", "INSETTI": 1, "UCCELLI": 1, "EQUIDI": 0, "AVICOLI": 0, "UOMO": 0 }, "geometry": { "type": "Point", "coordinates": [ 11.546, 44.5626 ] } },
{ "type": "Feature", "properties": { "CodIstat": 33014, "AnnoBollettino": 2022, "Regione": "EMILIA ROMAGNA", "Prov": "PIACENZA", "Comune": "CASTELVETRO PIACENTINO", "INSETTI": 0, "UCCELLI": 1, "EQUIDI": 0, "AVICOLI": 0, "UOMO": 0 }, "geometry": { "type": "Point", "coordinates": [ 9.991470188, 45.0882 ] } },
{ "type": "Feature", "properties": { "CodIstat": 24021, "AnnoBollettino": 2022, "Regione": "VENETO", "Prov": "VICENZA", "Comune": "CAMISANO VICENTINO", "INSETTI": 0, "UCCELLI": 1, "EQUIDI": 0, "AVICOLI": 0, "UOMO": 0 }, "geometry": { "type": "Point", "coordinates": [ 11.7118, 45.5254 ] } },
{ "type": "Feature", "properties": { "CodIstat": 109006, "AnnoBollettino": 2022, "Regione": "MARCHE", "Prov": "FERMO", "Comune": "FERMO", "INSETTI": 0, "UCCELLI": 2, "EQUIDI": 0, "AVICOLI": 0, "UOMO": 0 }, "geometry": { "type": "Point", "coordinates": [ 13.717, 43.1608 ] } },
{ "type": "Feature", "properties": { "CodIstat": 41023, "AnnoBollettino": 2022, "Regione": "MARCHE", "Prov": "PESARO E URBINO", "Comune": "MACERATA FELTRIA", "INSETTI": 1, "UCCELLI": 0, "EQUIDI": 0, "AVICOLI": 0, "UOMO": 0 }, "geometry": { "type": "Point", "coordinates": [ 12.4488, 43.8107 ] } },
{ "type": "Feature", "properties": { "CodIstat": 16068, "AnnoBollettino": 2022, "Regione": "LOMBARDIA", "Prov": "BERGAMO", "Comune": "CENATE SOPRA", "INSETTI": 0, "UCCELLI": 1, "EQUIDI": 0, "AVICOLI": 0, "UOMO": 0 }, "geometry": { "type": "Point", "coordinates": [ 9.821774630869999, 45.7199 ] } },
{ "type": "Feature", "properties": { "CodIstat": 36015, "AnnoBollettino": 2022, "Regione": "EMILIA ROMAGNA", "Prov": "MODENA", "Comune": "FORMIGINE", "INSETTI": 2, "UCCELLI": 0, "EQUIDI": 0, "AVICOLI": 0, "UOMO": 0 }, "geometry": { "type": "Point", "coordinates": [ 10.846, 44.5799 ] } },
{ "type": "Feature", "properties": { "CodIstat": 37037, "AnnoBollettino": 2022, "Regione": "EMILIA ROMAGNA", "Prov": "BOLOGNA", "Comune": "MEDICINA", "INSETTI": 1, "UCCELLI": 0, "EQUIDI": 0, "AVICOLI": 0, "UOMO": 0 }, "geometry": { "type": "Point", "coordinates": [ 11.6689, 44.5142 ] } },
{ "type": "Feature", "properties": { "CodIstat": 23055, "AnnoBollettino": 2022, "Regione": "VENETO", "Prov": "VERONA", "Comune": "OPPEANO", "INSETTI": 3, "UCCELLI": 0, "EQUIDI": 0, "AVICOLI": 0, "UOMO": 0 }, "geometry": { "type": "Point", "coordinates": [ 11.1133, 45.3103 ] } },
{ "type": "Feature", "properties": { "CodIstat": 59001, "AnnoBollettino": 2022, "Regione": "LAZIO", "Prov": "LATINA", "Comune": "APRILIA", "INSETTI": 1, "UCCELLI": 0, "EQUIDI": 0, "AVICOLI": 0, "UOMO": 0 }, "geometry": { "type": "Point", "coordinates": [ 12.6561, 41.5786 ] } },
{ "type": "Feature", "properties": { "CodIstat": 46018, "AnnoBollettino": 2022, "Regione": "TOSCANA", "Prov": "LUCCA", "Comune": "MASSAROSA", "INSETTI": 0, "UCCELLI": 1, "EQUIDI": 0, "AVICOLI": 0, "UOMO": 0 }, "geometry": { "type": "Point", "coordinates": [ 10.3257, 43.8701 ] } },
{ "type": "Feature", "properties": { "CodIstat": 47016, "AnnoBollettino": 2022, "Regione": "TOSCANA", "Prov": "PISTOIA", "Comune": "PONTE BUGGIANESE", "INSETTI": 1, "UCCELLI": 0, "EQUIDI": 0, "AVICOLI": 0, "UOMO": 0 }, "geometry": { "type": "Point", "coordinates": [ 10.7656, 43.8277 ] } },
{ "type": "Feature", "properties": { "CodIstat": 51002, "AnnoBollettino": 2022, "Regione": "TOSCANA", "Prov": "AREZZO", "Comune": "AREZZO", "INSETTI": 0, "UCCELLI": 3, "EQUIDI": 0, "AVICOLI": 0, "UOMO": 0 }, "geometry": { "type": "Point", "coordinates": [ 11.9041, 43.4452 ] } },
{ "type": "Feature", "properties": { "CodIstat": 38001, "AnnoBollettino": 2022, "Regione": "EMILIA ROMAGNA", "Prov": "FERRARA", "Comune": "ARGENTA", "INSETTI": 2, "UCCELLI": 0, "EQUIDI": 0, "AVICOLI": 0, "UOMO": 0 }, "geometry": { "type": "Point", "coordinates": [ 11.8887, 44.6222 ] } },
{ "type": "Feature", "properties": { "CodIstat": 35026, "AnnoBollettino": 2022, "Regione": "EMILIA ROMAGNA", "Prov": "REGGIO EMILIA", "Comune": "LUZZARA", "INSETTI": 2, "UCCELLI": 0, "EQUIDI": 0, "AVICOLI": 0, "UOMO": 0 }, "geometry": { "type": "Point", "coordinates": [ 10.7111, 44.9539 ] } },
{ "type": "Feature", "properties": { "CodIstat": 108033, "AnnoBollettino": 2022, "Regione": "LOMBARDIA", "Prov": "MONZA E DELLA BRIANZA", "Comune": "MONZA", "INSETTI": 1, "UCCELLI": 0, "EQUIDI": 0, "AVICOLI": 0, "UOMO": 0 }, "geometry": { "type": "Point", "coordinates": [ 9.275801378680001, 45.5851 ] } },
{ "type": "Feature", "properties": { "CodIstat": 43043, "AnnoBollettino": 2022, "Regione": "MARCHE", "Prov": "MACERATA", "Comune": "POTENZA PICENA", "INSETTI": 0, "UCCELLI": 1, "EQUIDI": 0, "AVICOLI": 0, "UOMO": 0 }, "geometry": { "type": "Point", "coordinates": [ 13.6442, 43.3707 ] } },
{ "type": "Feature", "properties": { "CodIstat": 34027, "AnnoBollettino": 2022, "Regione": "EMILIA ROMAGNA", "Prov": "PARMA", "Comune": "PARMA", "INSETTI": 1, "UCCELLI": 1, "EQUIDI": 0, "AVICOLI": 0, "UOMO": 0 }, "geometry": { "type": "Point", "coordinates": [ 10.3275, 44.7937 ] } },
{ "type": "Feature", "properties": { "CodIstat": 4010, "AnnoBollettino": 2022, "Regione": "PIEMONTE", "Prov": "CUNEO", "Comune": "BALDISSERO D'ALBA", "INSETTI": 1, "UCCELLI": 0, "EQUIDI": 0, "AVICOLI": 0, "UOMO": 0 }, "geometry": { "type": "Point", "coordinates": [ 7.88937332477, 44.7652 ] } },
{ "type": "Feature", "properties": { "CodIstat": 6003, "AnnoBollettino": 2022, "Regione": "PIEMONTE", "Prov": "ALESSANDRIA", "Comune": "ALESSANDRIA", "INSETTI": 1, "UCCELLI": 0, "EQUIDI": 0, "AVICOLI": 0, "UOMO": 0 }, "geometry": { "type": "Point", "coordinates": [ 8.64439705305, 44.9092 ] } },
{ "type": "Feature", "properties": { "CodIstat": 39001, "AnnoBollettino": 2022, "Regione": "EMILIA ROMAGNA", "Prov": "RAVENNA", "Comune": "ALFONSINE", "INSETTI": 2, "UCCELLI": 0, "EQUIDI": 0, "AVICOLI": 0, "UOMO": 0 }, "geometry": { "type": "Point", "coordinates": [ 12.0033, 44.5448 ] } },
{ "type": "Feature", "properties": { "CodIstat": 91031, "AnnoBollettino": 2022, "Regione": "SARDEGNA", "Prov": "NUORO", "Comune": "GIRASOLE", "INSETTI": 1, "UCCELLI": 0, "EQUIDI": 0, "AVICOLI": 0, "UOMO": 0 }, "geometry": { "type": "Point", "coordinates": [ 9.64425257794, 39.9535 ] } },
{ "type": "Feature", "properties": { "CodIstat": 43030, "AnnoBollettino": 2022, "Regione": "MARCHE", "Prov": "MACERATA", "Comune": "MONTELUPONE", "INSETTI": 2, "UCCELLI": 0, "EQUIDI": 0, "AVICOLI": 0, "UOMO": 0 }, "geometry": { "type": "Point", "coordinates": [ 13.5524, 43.3444 ] } },
{ "type": "Feature", "properties": { "CodIstat": 54024, "AnnoBollettino": 2022, "Regione": "UMBRIA", "Prov": "PERUGIA", "Comune": "GUBBIO", "INSETTI": 2, "UCCELLI": 2, "EQUIDI": 0, "AVICOLI": 0, "UOMO": 0 }, "geometry": { "type": "Point", "coordinates": [ 12.5465, 43.3311 ] } },
{ "type": "Feature", "properties": { "CodIstat": 67030, "AnnoBollettino": 2022, "Regione": "ABRUZZO", "Prov": "TERAMO", "Comune": "MOSCIANO SANT'ANGELO", "INSETTI": 1, "UCCELLI": 0, "EQUIDI": 0, "AVICOLI": 0, "UOMO": 0 }, "geometry": { "type": "Point", "coordinates": [ 13.8876, 42.742 ] } },
{ "type": "Feature", "properties": { "CodIstat": 37024, "AnnoBollettino": 2022, "Regione": "EMILIA ROMAGNA", "Prov": "BOLOGNA", "Comune": "CREVALCORE", "INSETTI": 1, "UCCELLI": 2, "EQUIDI": 0, "AVICOLI": 0, "UOMO": 0 }, "geometry": { "type": "Point", "coordinates": [ 11.1856, 44.7525 ] } },
{ "type": "Feature", "properties": { "CodIstat": 36027, "AnnoBollettino": 2022, "Regione": "EMILIA ROMAGNA", "Prov": "MODENA", "Comune": "NONANTOLA", "INSETTI": 2, "UCCELLI": 0, "EQUIDI": 0, "AVICOLI": 0, "UOMO": 0 }, "geometry": { "type": "Point", "coordinates": [ 11.0558, 44.6853 ] } },
{ "type": "Feature", "properties": { "CodIstat": 36028, "AnnoBollettino": 2022, "Regione": "EMILIA ROMAGNA", "Prov": "MODENA", "Comune": "NOVI DI MODENA", "INSETTI": 2, "UCCELLI": 0, "EQUIDI": 0, "AVICOLI": 0, "UOMO": 0 }, "geometry": { "type": "Point", "coordinates": [ 10.9295, 44.8736 ] } },
{ "type": "Feature", "properties": { "CodIstat": 35021, "AnnoBollettino": 2022, "Regione": "EMILIA ROMAGNA", "Prov": "REGGIO EMILIA", "Comune": "FABBRICO", "INSETTI": 9, "UCCELLI": 0, "EQUIDI": 0, "AVICOLI": 0, "UOMO": 0 }, "geometry": { "type": "Point", "coordinates": [ 10.8128, 44.8759 ] } },
{ "type": "Feature", "properties": { "CodIstat": 37036, "AnnoBollettino": 2022, "Regione": "EMILIA ROMAGNA", "Prov": "BOLOGNA", "Comune": "MARZABOTTO", "INSETTI": 1, "UCCELLI": 0, "EQUIDI": 0, "AVICOLI": 0, "UOMO": 0 }, "geometry": { "type": "Point", "coordinates": [ 11.2019, 44.3387 ] } },
{ "type": "Feature", "properties": { "CodIstat": 6047, "AnnoBollettino": 2022, "Regione": "PIEMONTE", "Prov": "ALESSANDRIA", "Comune": "CASTELLAZZO BORMIDA", "INSETTI": 1, "UCCELLI": 0, "EQUIDI": 0, "AVICOLI": 0, "UOMO": 0 }, "geometry": { "type": "Point", "coordinates": [ 8.58301015843, 44.8369 ] } },
{ "type": "Feature", "properties": { "CodIstat": 27008, "AnnoBollettino": 2022, "Regione": "VENETO", "Prov": "VENEZIA", "Comune": "CHIOGGIA", "INSETTI": 1, "UCCELLI": 0, "EQUIDI": 0, "AVICOLI": 0, "UOMO": 0 }, "geometry": { "type": "Point", "coordinates": [ 12.246, 45.2181 ] } },
{ "type": "Feature", "properties": { "CodIstat": 23023, "AnnoBollettino": 2022, "Regione": "VENETO", "Prov": "VERONA", "Comune": "CAVAION VERONESE", "INSETTI": 0, "UCCELLI": 1, "EQUIDI": 0, "AVICOLI": 0, "UOMO": 0 }, "geometry": { "type": "Point", "coordinates": [ 10.778, 45.5311 ] } },
{ "type": "Feature", "properties": { "CodIstat": 43031, "AnnoBollettino": 2022, "Regione": "MARCHE", "Prov": "MACERATA", "Comune": "MONTE SAN GIUSTO", "INSETTI": 1, "UCCELLI": 1, "EQUIDI": 0, "AVICOLI": 0, "UOMO": 0 }, "geometry": { "type": "Point", "coordinates": [ 13.5816, 43.2373 ] } },
{ "type": "Feature", "properties": { "CodIstat": 28027, "AnnoBollettino": 2022, "Regione": "VENETO", "Prov": "PADOVA", "Comune": "CASALE DI SCODOSIA", "INSETTI": 1, "UCCELLI": 0, "EQUIDI": 0, "AVICOLI": 0, "UOMO": 0 }, "geometry": { "type": "Point", "coordinates": [ 11.485, 45.1835 ] } },
{ "type": "Feature", "properties": { "CodIstat": 3077, "AnnoBollettino": 2022, "Regione": "PIEMONTE", "Prov": "NOVARA", "Comune": "GRANOZZO CON MONTICELLO", "INSETTI": 1, "UCCELLI": 0, "EQUIDI": 0, "AVICOLI": 0, "UOMO": 0 }, "geometry": { "type": "Point", "coordinates": [ 8.58808766159, 45.3693 ] } },
{ "type": "Feature", "properties": { "CodIstat": 35027, "AnnoBollettino": 2022, "Regione": "EMILIA ROMAGNA", "Prov": "REGGIO EMILIA", "Comune": "MONTECCHIO EMILIA", "INSETTI": 1, "UCCELLI": 0, "EQUIDI": 0, "AVICOLI": 0, "UOMO": 0 }, "geometry": { "type": "Point", "coordinates": [ 10.4595, 44.7078 ] } },
{ "type": "Feature", "properties": { "CodIstat": 37006, "AnnoBollettino": 2022, "Regione": "EMILIA ROMAGNA", "Prov": "BOLOGNA", "Comune": "BOLOGNA", "INSETTI": 13, "UCCELLI": 35, "EQUIDI": 0, "AVICOLI": 0, "UOMO": 0 }, "geometry": { "type": "Point", "coordinates": [ 11.3331, 44.4981 ] } },
{ "type": "Feature", "properties": { "CodIstat": 93009, "AnnoBollettino": 2022, "Regione": "FRIULI VENEZIA GIULIA", "Prov": "PORDENONE", "Comune": "CANEVA", "INSETTI": 1, "UCCELLI": 0, "EQUIDI": 0, "AVICOLI": 0, "UOMO": 0 }, "geometry": { "type": "Point", "coordinates": [ 12.4475, 45.9944 ] } },
{ "type": "Feature", "properties": { "CodIstat": 23015, "AnnoBollettino": 2022, "Regione": "VENETO", "Prov": "VERONA", "Comune": "BUSSOLENGO", "INSETTI": 0, "UCCELLI": 1, "EQUIDI": 0, "AVICOLI": 0, "UOMO": 0 }, "geometry": { "type": "Point", "coordinates": [ 10.8458, 45.4663 ] } },
{ "type": "Feature", "properties": { "CodIstat": 59005, "AnnoBollettino": 2022, "Regione": "LAZIO", "Prov": "LATINA", "Comune": "CISTERNA DI LATINA", "INSETTI": 5, "UCCELLI": 0, "EQUIDI": 0, "AVICOLI": 0, "UOMO": 0 }, "geometry": { "type": "Point", "coordinates": [ 12.8373, 41.5734 ] } },
{ "type": "Feature", "properties": { "CodIstat": 35006, "AnnoBollettino": 2022, "Regione": "EMILIA ROMAGNA", "Prov": "REGGIO EMILIA", "Comune": "BRESCELLO", "INSETTI": 1, "UCCELLI": 0, "EQUIDI": 0, "AVICOLI": 0, "UOMO": 0 }, "geometry": { "type": "Point", "coordinates": [ 10.4908, 44.8835 ] } },
{ "type": "Feature", "properties": { "CodIstat": 23006, "AnnoBollettino": 2022, "Regione": "VENETO", "Prov": "VERONA", "Comune": "BARDOLINO", "INSETTI": 0, "UCCELLI": 2, "EQUIDI": 0, "AVICOLI": 0, "UOMO": 0 }, "geometry": { "type": "Point", "coordinates": [ 10.6959, 45.539 ] } },
{ "type": "Feature", "properties": { "CodIstat": 68027, "AnnoBollettino": 2022, "Regione": "ABRUZZO", "Prov": "PESCARA", "Comune": "PENNE", "INSETTI": 1, "UCCELLI": 0, "EQUIDI": 0, "AVICOLI": 0, "UOMO": 0 }, "geometry": { "type": "Point", "coordinates": [ 13.9065, 42.4676 ] } },
{ "type": "Feature", "properties": { "CodIstat": 39014, "AnnoBollettino": 2022, "Regione": "EMILIA ROMAGNA", "Prov": "RAVENNA", "Comune": "RAVENNA", "INSETTI": 2, "UCCELLI": 1, "EQUIDI": 0, "AVICOLI": 0, "UOMO": 0 }, "geometry": { "type": "Point", "coordinates": [ 12.1937, 44.4138 ] } },
{ "type": "Feature", "properties": { "CodIstat": 42034, "AnnoBollettino": 2022, "Regione": "MARCHE", "Prov": "ANCONA", "Comune": "OSIMO", "INSETTI": 1, "UCCELLI": 0, "EQUIDI": 0, "AVICOLI": 0, "UOMO": 0 }, "geometry": { "type": "Point", "coordinates": [ 13.4618, 43.4843 ] } },
{ "type": "Feature", "properties": { "CodIstat": 68012, "AnnoBollettino": 2022, "Regione": "ABRUZZO", "Prov": "PESCARA", "Comune": "CITTA' SANT'ANGELO", "INSETTI": 1, "UCCELLI": 0, "EQUIDI": 0, "AVICOLI": 0, "UOMO": 0 }, "geometry": { "type": "Point", "coordinates": [ 14.0621, 42.5122 ] } },
{ "type": "Feature", "properties": { "CodIstat": 17052, "AnnoBollettino": 2022, "Regione": "LOMBARDIA", "Prov": "BRESCIA", "Comune": "CHIARI", "INSETTI": 2, "UCCELLI": 0, "EQUIDI": 0, "AVICOLI": 0, "UOMO": 0 }, "geometry": { "type": "Point", "coordinates": [ 9.917971003790001, 45.5332 ] } },
{ "type": "Feature", "properties": { "CodIstat": 4012, "AnnoBollettino": 2022, "Regione": "PIEMONTE", "Prov": "CUNEO", "Comune": "BARGE", "INSETTI": 1, "UCCELLI": 0, "EQUIDI": 0, "AVICOLI": 0, "UOMO": 0 }, "geometry": { "type": "Point", "coordinates": [ 7.34876170156, 44.7288 ] } },
{ "type": "Feature", "properties": { "CodIstat": 43022, "AnnoBollettino": 2022, "Regione": "MARCHE", "Prov": "MACERATA", "Comune": "LORO PICENO", "INSETTI": 0, "UCCELLI": 1, "EQUIDI": 0, "AVICOLI": 0, "UOMO": 0 }, "geometry": { "type": "Point", "coordinates": [ 13.4188, 43.165 ] } },
{ "type": "Feature", "properties": { "CodIstat": 97054, "AnnoBollettino": 2022, "Regione": "LOMBARDIA", "Prov": "LECCO", "Comune": "MONTICELLO BRIANZA", "INSETTI": 1, "UCCELLI": 0, "EQUIDI": 0, "AVICOLI": 0, "UOMO": 0 }, "geometry": { "type": "Point", "coordinates": [ 9.309043302279999, 45.713 ] } },
{ "type": "Feature", "properties": { "CodIstat": 1197, "AnnoBollettino": 2022, "Regione": "PIEMONTE", "Prov": "TORINO", "Comune": "POIRINO", "INSETTI": 1, "UCCELLI": 0, "EQUIDI": 0, "AVICOLI": 0, "UOMO": 0 }, "geometry": { "type": "Point", "coordinates": [ 7.84263854677, 44.9027 ] } },
{ "type": "Feature", "properties": { "CodIstat": 33002, "AnnoBollettino": 2022, "Regione": "EMILIA ROMAGNA", "Prov": "PIACENZA", "Comune": "ALSENO", "INSETTI": 2, "UCCELLI": 0, "EQUIDI": 0, "AVICOLI": 0, "UOMO": 0 }, "geometry": { "type": "Point", "coordinates": [ 9.96248439383, 44.8874 ] } },
{ "type": "Feature", "properties": { "CodIstat": 33024, "AnnoBollettino": 2022, "Regione": "EMILIA ROMAGNA", "Prov": "PIACENZA", "Comune": "GRAGNANO TREBBIENSE", "INSETTI": 1, "UCCELLI": 0, "EQUIDI": 0, "AVICOLI": 0, "UOMO": 0 }, "geometry": { "type": "Point", "coordinates": [ 9.55838970063, 45.0099 ] } },
{ "type": "Feature", "properties": { "CodIstat": 41044, "AnnoBollettino": 2022, "Regione": "MARCHE", "Prov": "PESARO E URBINO", "Comune": "PESARO", "INSETTI": 2, "UCCELLI": 0, "EQUIDI": 0, "AVICOLI": 0, "UOMO": 0 }, "geometry": { "type": "Point", "coordinates": [ 12.8553, 43.873 ] } },
{ "type": "Feature", "properties": { "CodIstat": 34009, "AnnoBollettino": 2022, "Regione": "EMILIA ROMAGNA", "Prov": "PARMA", "Comune": "COLLECCHIO", "INSETTI": 1, "UCCELLI": 0, "EQUIDI": 0, "AVICOLI": 0, "UOMO": 0 }, "geometry": { "type": "Point", "coordinates": [ 10.2074, 44.7511 ] } },
{ "type": "Feature", "properties": { "CodIstat": 90072, "AnnoBollettino": 2022, "Regione": "SARDEGNA", "Prov": "SASSARI", "Comune": "TISSI", "INSETTI": 0, "UCCELLI": 1, "EQUIDI": 0, "AVICOLI": 0, "UOMO": 0 }, "geometry": { "type": "Point", "coordinates": [ 8.565888163669999, 40.6675 ] } },
{ "type": "Feature", "properties": { "CodIstat": 16062, "AnnoBollettino": 2022, "Regione": "LOMBARDIA", "Prov": "BERGAMO", "Comune": "CASTELLI CALEPIO", "INSETTI": 0, "UCCELLI": 1, "EQUIDI": 0, "AVICOLI": 0, "UOMO": 0 }, "geometry": { "type": "Point", "coordinates": [ 9.89830862716, 45.6344 ] } },
{ "type": "Feature", "properties": { "CodIstat": 44066, "AnnoBollettino": 2022, "Regione": "MARCHE", "Prov": "ASCOLI PICENO", "Comune": "SAN BENEDETTO DEL TRONTO", "INSETTI": 1, "UCCELLI": 0, "EQUIDI": 0, "AVICOLI": 0, "UOMO": 0 }, "geometry": { "type": "Point", "coordinates": [ 13.8777, 42.929 ] } },
{ "type": "Feature", "properties": { "CodIstat": 5097, "AnnoBollettino": 2022, "Regione": "PIEMONTE", "Prov": "ASTI", "Comune": "SAN DAMIANO D'ASTI", "INSETTI": 0, "UCCELLI": 1, "EQUIDI": 0, "AVICOLI": 0, "UOMO": 0 }, "geometry": { "type": "Point", "coordinates": [ 8.05177936568, 44.8454 ] } },
{ "type": "Feature", "properties": { "CodIstat": 27031, "AnnoBollettino": 2022, "Regione": "VENETO", "Prov": "VENEZIA", "Comune": "QUARTO D'ALTINO", "INSETTI": 0, "UCCELLI": 1, "EQUIDI": 0, "AVICOLI": 0, "UOMO": 0 }, "geometry": { "type": "Point", "coordinates": [ 12.4091, 45.5606 ] } },
{ "type": "Feature", "properties": { "CodIstat": 28099, "AnnoBollettino": 2022, "Regione": "VENETO", "Prov": "PADOVA", "Comune": "VIGODARZERE", "INSETTI": 0, "UCCELLI": 1, "EQUIDI": 0, "AVICOLI": 0, "UOMO": 0 }, "geometry": { "type": "Point", "coordinates": [ 11.8737, 45.4818 ] } },
{ "type": "Feature", "properties": { "CodIstat": 29050, "AnnoBollettino": 2022, "Regione": "VENETO", "Prov": "ROVIGO", "Comune": "VILLANOVA DEL GHEBBO", "INSETTI": 1, "UCCELLI": 0, "EQUIDI": 0, "AVICOLI": 0, "UOMO": 0 }, "geometry": { "type": "Point", "coordinates": [ 11.6586, 45.0671 ] } },
{ "type": "Feature", "properties": { "CodIstat": 26068, "AnnoBollettino": 2022, "Regione": "VENETO", "Prov": "TREVISO", "Comune": "RIESE PIO X", "INSETTI": 1, "UCCELLI": 0, "EQUIDI": 0, "AVICOLI": 0, "UOMO": 0 }, "geometry": { "type": "Point", "coordinates": [ 11.913, 45.7262 ] } },
{ "type": "Feature", "properties": { "CodIstat": 35037, "AnnoBollettino": 2022, "Regione": "EMILIA ROMAGNA", "Prov": "REGGIO EMILIA", "Comune": "SAN MARTINO IN RIO", "INSETTI": 1, "UCCELLI": 0, "EQUIDI": 0, "AVICOLI": 0, "UOMO": 0 }, "geometry": { "type": "Point", "coordinates": [ 10.7833, 44.7154 ] } },
{ "type": "Feature", "properties": { "CodIstat": 36036, "AnnoBollettino": 2022, "Regione": "EMILIA ROMAGNA", "Prov": "MODENA", "Comune": "SAN CESARIO SUL PANARO", "INSETTI": 1, "UCCELLI": 0, "EQUIDI": 0, "AVICOLI": 0, "UOMO": 0 }, "geometry": { "type": "Point", "coordinates": [ 11.0237, 44.5735 ] } },
{ "type": "Feature", "properties": { "CodIstat": 90052, "AnnoBollettino": 2022, "Regione": "SARDEGNA", "Prov": "SASSARI", "Comune": "OZIERI", "INSETTI": 0, "UCCELLI": 1, "EQUIDI": 0, "AVICOLI": 0, "UOMO": 0 }, "geometry": { "type": "Point", "coordinates": [ 8.953196151629999, 40.6327 ] } },
{ "type": "Feature", "properties": { "CodIstat": 41013, "AnnoBollettino": 2022, "Regione": "MARCHE", "Prov": "PESARO E URBINO", "Comune": "FANO", "INSETTI": 1, "UCCELLI": 0, "EQUIDI": 0, "AVICOLI": 0, "UOMO": 0 }, "geometry": { "type": "Point", "coordinates": [ 12.9947, 43.8123 ] } },
{ "type": "Feature", "properties": { "CodIstat": 95059, "AnnoBollettino": 2022, "Regione": "SARDEGNA", "Prov": "ORISTANO", "Comune": "SIMAXIS", "INSETTI": 0, "UCCELLI": 1, "EQUIDI": 0, "AVICOLI": 0, "UOMO": 0 }, "geometry": { "type": "Point", "coordinates": [ 8.7008235552, 39.9235 ] } },
{ "type": "Feature", "properties": { "CodIstat": 23091, "AnnoBollettino": 2022, "Regione": "VENETO", "Prov": "VERONA", "Comune": "VERONA", "INSETTI": 0, "UCCELLI": 2, "EQUIDI": 0, "AVICOLI": 0, "UOMO": 0 }, "geometry": { "type": "Point", "coordinates": [ 11.0021, 45.4487 ] } },
{ "type": "Feature", "properties": { "CodIstat": 27042, "AnnoBollettino": 2022, "Regione": "VENETO", "Prov": "VENEZIA", "Comune": "VENEZIA", "INSETTI": 0, "UCCELLI": 0, "EQUIDI": 0, "AVICOLI": 0, "UOMO": 0 }, "geometry": { "type": "Point", "coordinates": [ 12.3455, 45.4677 ] } },
{ "type": "Feature", "properties": { "CodIstat": 23096, "AnnoBollettino": 2022, "Regione": "VENETO", "Prov": "VERONA", "Comune": "VILLAFRANCA DI VERONA", "INSETTI": 0, "UCCELLI": 1, "EQUIDI": 0, "AVICOLI": 0, "UOMO": 0 }, "geometry": { "type": "Point", "coordinates": [ 10.8499, 45.36 ] } },
{ "type": "Feature", "properties": { "CodIstat": 42021, "AnnoBollettino": 2022, "Regione": "MARCHE", "Prov": "ANCONA", "Comune": "JESI", "INSETTI": 1, "UCCELLI": 0, "EQUIDI": 0, "AVICOLI": 0, "UOMO": 0 }, "geometry": { "type": "Point", "coordinates": [ 13.2614, 43.5166 ] } },
{ "type": "Feature", "properties": { "CodIstat": 28060, "AnnoBollettino": 2022, "Regione": "VENETO", "Prov": "PADOVA", "Comune": "PADOVA", "INSETTI": 0, "UCCELLI": 1, "EQUIDI": 0, "AVICOLI": 0, "UOMO": 0 }, "geometry": { "type": "Point", "coordinates": [ 11.8831, 45.4034 ] } },
{ "type": "Feature", "properties": { "CodIstat": 55022, "AnnoBollettino": 2022, "Regione": "UMBRIA", "Prov": "TERNI", "Comune": "NARNI", "INSETTI": 1, "UCCELLI": 0, "EQUIDI": 0, "AVICOLI": 0, "UOMO": 0 }, "geometry": { "type": "Point", "coordinates": [ 12.5139, 42.5041 ] } },
{ "type": "Feature", "properties": { "CodIstat": 28083, "AnnoBollettino": 2022, "Regione": "VENETO", "Prov": "PADOVA", "Comune": "SANT'ELENA", "INSETTI": 0, "UCCELLI": 1, "EQUIDI": 0, "AVICOLI": 0, "UOMO": 0 }, "geometry": { "type": "Point", "coordinates": [ 11.7061, 45.1856 ] } },
{ "type": "Feature", "properties": { "CodIstat": 28080, "AnnoBollettino": 2022, "Regione": "VENETO", "Prov": "PADOVA", "Comune": "SANTA GIUSTINA IN COLLE", "INSETTI": 2, "UCCELLI": 0, "EQUIDI": 0, "AVICOLI": 0, "UOMO": 0 }, "geometry": { "type": "Point", "coordinates": [ 11.8954, 45.5777 ] } },
{ "type": "Feature", "properties": { "CodIstat": 51004, "AnnoBollettino": 2022, "Regione": "TOSCANA", "Prov": "AREZZO", "Comune": "BIBBIENA", "INSETTI": 0, "UCCELLI": 1, "EQUIDI": 0, "AVICOLI": 0, "UOMO": 0 }, "geometry": { "type": "Point", "coordinates": [ 11.8486, 43.7308 ] } },
{ "type": "Feature", "properties": { "CodIstat": 95074, "AnnoBollettino": 2022, "Regione": "SARDEGNA", "Prov": "ORISTANO", "Comune": "ZEDDIANI", "INSETTI": 2, "UCCELLI": 0, "EQUIDI": 0, "AVICOLI": 0, "UOMO": 0 }, "geometry": { "type": "Point", "coordinates": [ 8.60127247518, 39.9825 ] } },
{ "type": "Feature", "properties": { "CodIstat": 37015, "AnnoBollettino": 2022, "Regione": "EMILIA ROMAGNA", "Prov": "BOLOGNA", "Comune": "CASTEL DI CASIO", "INSETTI": 1, "UCCELLI": 0, "EQUIDI": 0, "AVICOLI": 0, "UOMO": 0 }, "geometry": { "type": "Point", "coordinates": [ 11.0223, 44.1595 ] } },
{ "type": "Feature", "properties": { "CodIstat": 1050, "AnnoBollettino": 2022, "Regione": "PIEMONTE", "Prov": "TORINO", "Comune": "CANDIA CANAVESE", "INSETTI": 1, "UCCELLI": 0, "EQUIDI": 0, "AVICOLI": 0, "UOMO": 0 }, "geometry": { "type": "Point", "coordinates": [ 7.89743883638, 45.3305 ] } },
{ "type": "Feature", "properties": { "CodIstat": 54009, "AnnoBollettino": 2022, "Regione": "UMBRIA", "Prov": "PERUGIA", "Comune": "CASTIGLIONE DEL LAGO", "INSETTI": 0, "UCCELLI": 1, "EQUIDI": 0, "AVICOLI": 0, "UOMO": 0 }, "geometry": { "type": "Point", "coordinates": [ 12.017, 43.1049 ] } },
{ "type": "Feature", "properties": { "CodIstat": 28030, "AnnoBollettino": 2022, "Regione": "VENETO", "Prov": "PADOVA", "Comune": "CERVARESE SANTA CROCE", "INSETTI": 0, "UCCELLI": 1, "EQUIDI": 0, "AVICOLI": 0, "UOMO": 0 }, "geometry": { "type": "Point", "coordinates": [ 11.6932, 45.4021 ] } },
{ "type": "Feature", "properties": { "CodIstat": 26019, "AnnoBollettino": 2022, "Regione": "VENETO", "Prov": "TREVISO", "Comune": "CODOGNE'", "INSETTI": 1, "UCCELLI": 0, "EQUIDI": 0, "AVICOLI": 0, "UOMO": 0 }, "geometry": { "type": "Point", "coordinates": [ 12.4285, 45.8692 ] } },
{ "type": "Feature", "properties": { "CodIstat": 27028, "AnnoBollettino": 2022, "Regione": "VENETO", "Prov": "VENEZIA", "Comune": "PIANIGA", "INSETTI": 1, "UCCELLI": 1, "EQUIDI": 0, "AVICOLI": 0, "UOMO": 0 }, "geometry": { "type": "Point", "coordinates": [ 12.0299, 45.4548 ] } },
{ "type": "Feature", "properties": { "CodIstat": 67039, "AnnoBollettino": 2022, "Regione": "ABRUZZO", "Prov": "TERAMO", "Comune": "SANT'OMERO", "INSETTI": 2, "UCCELLI": 0, "EQUIDI": 0, "AVICOLI": 0, "UOMO": 0 }, "geometry": { "type": "Point", "coordinates": [ 13.8215, 42.7889 ] } },
{ "type": "Feature", "properties": { "CodIstat": 92068, "AnnoBollettino": 2022, "Regione": "SARDEGNA", "Prov": "CAGLIARI", "Comune": "SELARGIUS", "INSETTI": 0, "UCCELLI": 2, "EQUIDI": 0, "AVICOLI": 0, "UOMO": 0 }, "geometry": { "type": "Point", "coordinates": [ 9.14037795574, 39.2798 ] } },
{ "type": "Feature", "properties": { "CodIstat": 23094, "AnnoBollettino": 2022, "Regione": "VENETO", "Prov": "VERONA", "Comune": "VIGASIO", "INSETTI": 0, "UCCELLI": 1, "EQUIDI": 0, "AVICOLI": 0, "UOMO": 0 }, "geometry": { "type": "Point", "coordinates": [ 10.939, 45.3238 ] } },
{ "type": "Feature", "properties": { "CodIstat": 36039, "AnnoBollettino": 2022, "Regione": "EMILIA ROMAGNA", "Prov": "MODENA", "Comune": "SAN PROSPERO", "INSETTI": 1, "UCCELLI": 0, "EQUIDI": 0, "AVICOLI": 0, "UOMO": 0 }, "geometry": { "type": "Point", "coordinates": [ 11.0324, 44.7895 ] } },
{ "type": "Feature", "properties": { "CodIstat": 29041, "AnnoBollettino": 2022, "Regione": "VENETO", "Prov": "ROVIGO", "Comune": "ROVIGO", "INSETTI": 0, "UCCELLI": 1, "EQUIDI": 0, "AVICOLI": 0, "UOMO": 0 }, "geometry": { "type": "Point", "coordinates": [ 11.7949, 45.0696 ] } },
{ "type": "Feature", "properties": { "CodIstat": 37053, "AnnoBollettino": 2022, "Regione": "EMILIA ROMAGNA", "Prov": "BOLOGNA", "Comune": "SAN GIOVANNI IN PERSICETO", "INSETTI": 1, "UCCELLI": 0, "EQUIDI": 0, "AVICOLI": 0, "UOMO": 0 }, "geometry": { "type": "Point", "coordinates": [ 11.203, 44.6603 ] } },
{ "type": "Feature", "properties": { "CodIstat": 23089, "AnnoBollettino": 2022, "Regione": "VENETO", "Prov": "VERONA", "Comune": "VALEGGIO SUL MINCIO", "INSETTI": 0, "UCCELLI": 1, "EQUIDI": 0, "AVICOLI": 0, "UOMO": 0 }, "geometry": { "type": "Point", "coordinates": [ 10.7417, 45.3538 ] } },
{ "type": "Feature", "properties": { "CodIstat": 6177, "AnnoBollettino": 2022, "Regione": "PIEMONTE", "Prov": "ALESSANDRIA", "Comune": "VALENZA", "INSETTI": 2, "UCCELLI": 0, "EQUIDI": 0, "AVICOLI": 0, "UOMO": 0 }, "geometry": { "type": "Point", "coordinates": [ 8.629390216, 45.0191 ] } },
{ "type": "Feature", "properties": { "CodIstat": 54039, "AnnoBollettino": 2022, "Regione": "UMBRIA", "Prov": "PERUGIA", "Comune": "PERUGIA", "INSETTI": 1, "UCCELLI": 3, "EQUIDI": 0, "AVICOLI": 0, "UOMO": 0 }, "geometry": { "type": "Point", "coordinates": [ 12.3947, 43.1364 ] } },
{ "type": "Feature", "properties": { "CodIstat": 15175, "AnnoBollettino": 2022, "Regione": "LOMBARDIA", "Prov": "MILANO", "Comune": "PIOLTELLO", "INSETTI": 1, "UCCELLI": 0, "EQUIDI": 0, "AVICOLI": 0, "UOMO": 0 }, "geometry": { "type": "Point", "coordinates": [ 9.32355463169, 45.4911 ] } },
{ "type": "Feature", "properties": { "CodIstat": 93041, "AnnoBollettino": 2022, "Regione": "FRIULI VENEZIA GIULIA", "Prov": "PORDENONE", "Comune": "SAN VITO AL TAGLIAMENTO", "INSETTI": 1, "UCCELLI": 0, "EQUIDI": 0, "AVICOLI": 0, "UOMO": 0 }, "geometry": { "type": "Point", "coordinates": [ 12.8615, 45.9145 ] } },
{ "type": "Feature", "properties": { "CodIstat": 23048, "AnnoBollettino": 2022, "Regione": "VENETO", "Prov": "VERONA", "Comune": "MINERBE", "INSETTI": 1, "UCCELLI": 0, "EQUIDI": 0, "AVICOLI": 0, "UOMO": 0 }, "geometry": { "type": "Point", "coordinates": [ 11.3528, 45.2491 ] } },
{ "type": "Feature", "properties": { "CodIstat": 90047, "AnnoBollettino": 2022, "Regione": "SARDEGNA", "Prov": "SASSARI", "Comune": "OLBIA", "INSETTI": 0, "UCCELLI": 7, "EQUIDI": 0, "AVICOLI": 0, "UOMO": 0 }, "geometry": { "type": "Point", "coordinates": [ 9.479398524420001, 40.923 ] } },
{ "type": "Feature", "properties": { "CodIstat": 30121, "AnnoBollettino": 2022, "Regione": "FRIULI VENEZIA GIULIA", "Prov": "UDINE", "Comune": "TOLMEZZO", "INSETTI": 0, "UCCELLI": 1, "EQUIDI": 0, "AVICOLI": 0, "UOMO": 0 }, "geometry": { "type": "Point", "coordinates": [ 13.0363, 46.4251 ] } },
{ "type": "Feature", "properties": { "CodIstat": 41030, "AnnoBollettino": 2022, "Regione": "MARCHE", "Prov": "PESARO E URBINO", "Comune": "MONTECALVO IN FOGLIA", "INSETTI": 2, "UCCELLI": 0, "EQUIDI": 0, "AVICOLI": 0, "UOMO": 0 }, "geometry": { "type": "Point", "coordinates": [ 12.6415, 43.8088 ] } },
{ "type": "Feature", "properties": { "CodIstat": 99009, "AnnoBollettino": 2022, "Regione": "EMILIA ROMAGNA", "Prov": "RIMINI", "Comune": "MONTEGRIDOLFO", "INSETTI": 0, "UCCELLI": 2, "EQUIDI": 0, "AVICOLI": 0, "UOMO": 0 }, "geometry": { "type": "Point", "coordinates": [ 12.7082, 43.8667 ] } },
{ "type": "Feature", "properties": { "CodIstat": 28057, "AnnoBollettino": 2022, "Regione": "VENETO", "Prov": "PADOVA", "Comune": "MONTEGROTTO TERME", "INSETTI": 0, "UCCELLI": 1, "EQUIDI": 0, "AVICOLI": 0, "UOMO": 0 }, "geometry": { "type": "Point", "coordinates": [ 11.7847, 45.3256 ] } },
{ "type": "Feature", "properties": { "CodIstat": 33032, "AnnoBollettino": 2022, "Regione": "EMILIA ROMAGNA", "Prov": "PIACENZA", "Comune": "PIACENZA", "INSETTI": 0, "UCCELLI": 2, "EQUIDI": 0, "AVICOLI": 0, "UOMO": 0 }, "geometry": { "type": "Point", "coordinates": [ 9.717737473190001, 45.0414 ] } },
{ "type": "Feature", "properties": { "CodIstat": 10025, "AnnoBollettino": 2022, "Regione": "LIGURIA", "Prov": "GENOVA", "Comune": "GENOVA", "INSETTI": 1, "UCCELLI": 0, "EQUIDI": 0, "AVICOLI": 0, "UOMO": 0 }, "geometry": { "type": "Point", "coordinates": [ 8.893308536779999, 44.4419 ] } },
{ "type": "Feature", "properties": { "CodIstat": 36023, "AnnoBollettino": 2022, "Regione": "EMILIA ROMAGNA", "Prov": "MODENA", "Comune": "MODENA", "INSETTI": 5, "UCCELLI": 0, "EQUIDI": 0, "AVICOLI": 0, "UOMO": 0 }, "geometry": { "type": "Point", "coordinates": [ 10.9153, 44.6441 ] } },
{ "type": "Feature", "properties": { "CodIstat": 28069, "AnnoBollettino": 2022, "Regione": "VENETO", "Prov": "PADOVA", "Comune": "PONTE SAN NICOLO'", "INSETTI": 0, "UCCELLI": 1, "EQUIDI": 0, "AVICOLI": 0, "UOMO": 0 }, "geometry": { "type": "Point", "coordinates": [ 11.9264, 45.3565 ] } },
{ "type": "Feature", "properties": { "CodIstat": 91017, "AnnoBollettino": 2022, "Regione": "SARDEGNA", "Prov": "NUORO", "Comune": "DORGALI", "INSETTI": 1, "UCCELLI": 0, "EQUIDI": 0, "AVICOLI": 0, "UOMO": 0 }, "geometry": { "type": "Point", "coordinates": [ 9.55667826458, 40.296 ] } },
{ "type": "Feature", "properties": { "CodIstat": 36022, "AnnoBollettino": 2022, "Regione": "EMILIA ROMAGNA", "Prov": "MODENA", "Comune": "MIRANDOLA", "INSETTI": 1, "UCCELLI": 0, "EQUIDI": 0, "AVICOLI": 0, "UOMO": 0 }, "geometry": { "type": "Point", "coordinates": [ 11.1242, 44.9075 ] } },
{ "type": "Feature", "properties": { "CodIstat": 99005, "AnnoBollettino": 2022, "Regione": "EMILIA ROMAGNA", "Prov": "RIMINI", "Comune": "MISANO ADRIATICO", "INSETTI": 1, "UCCELLI": 0, "EQUIDI": 0, "AVICOLI": 0, "UOMO": 0 }, "geometry": { "type": "Point", "coordinates": [ 12.6716, 43.9627 ] } },
{ "type": "Feature", "properties": { "CodIstat": 111035, "AnnoBollettino": 2022, "Regione": "SARDEGNA", "Prov": "SUD SARDEGNA", "Comune": "IGLESIAS", "INSETTI": 0, "UCCELLI": 2, "EQUIDI": 0, "AVICOLI": 0, "UOMO": 0 }, "geometry": { "type": "Point", "coordinates": [ 8.53366215985, 39.3209 ] } },
{ "type": "Feature", "properties": { "CodIstat": 24057, "AnnoBollettino": 2022, "Regione": "VENETO", "Prov": "VICENZA", "Comune": "MAROSTICA", "INSETTI": 1, "UCCELLI": 1, "EQUIDI": 0, "AVICOLI": 0, "UOMO": 0 }, "geometry": { "type": "Point", "coordinates": [ 11.6475, 45.758 ] } },
{ "type": "Feature", "properties": { "CodIstat": 33038, "AnnoBollettino": 2022, "Regione": "EMILIA ROMAGNA", "Prov": "PIACENZA", "Comune": "RIVERGARO", "INSETTI": 0, "UCCELLI": 1, "EQUIDI": 0, "AVICOLI": 0, "UOMO": 0 }, "geometry": { "type": "Point", "coordinates": [ 9.61170890526, 44.9165 ] } },
{ "type": "Feature", "properties": { "CodIstat": 36012, "AnnoBollettino": 2022, "Regione": "EMILIA ROMAGNA", "Prov": "MODENA", "Comune": "FINALE EMILIA", "INSETTI": 1, "UCCELLI": 0, "EQUIDI": 0, "AVICOLI": 0, "UOMO": 0 }, "geometry": { "type": "Point", "coordinates": [ 11.2665, 44.8491 ] } },
{ "type": "Feature", "properties": { "CodIstat": 40012, "AnnoBollettino": 2022, "Regione": "EMILIA ROMAGNA", "Prov": "FORLI-CESENA", "Comune": "FORLI'", "INSETTI": 0, "UCCELLI": 7, "EQUIDI": 0, "AVICOLI": 0, "UOMO": 0 }, "geometry": { "type": "Point", "coordinates": [ 12.0497, 44.2275 ] } },
{ "type": "Feature", "properties": { "CodIstat": 40014, "AnnoBollettino": 2022, "Regione": "EMILIA ROMAGNA", "Prov": "FORLI-CESENA", "Comune": "GALEATA", "INSETTI": 0, "UCCELLI": 1, "EQUIDI": 0, "AVICOLI": 0, "UOMO": 0 }, "geometry": { "type": "Point", "coordinates": [ 11.9134, 43.9913 ] } },
{ "type": "Feature", "properties": { "CodIstat": 35033, "AnnoBollettino": 2022, "Regione": "EMILIA ROMAGNA", "Prov": "REGGIO EMILIA", "Comune": "REGGIO NELL'EMILIA", "INSETTI": 2, "UCCELLI": 1, "EQUIDI": 0, "AVICOLI": 0, "UOMO": 0 }, "geometry": { "type": "Point", "coordinates": [ 10.6345, 44.6974 ] } },
{ "type": "Feature", "properties": { "CodIstat": 34010, "AnnoBollettino": 2022, "Regione": "EMILIA ROMAGNA", "Prov": "PARMA", "Comune": "COLORNO", "INSETTI": 2, "UCCELLI": 0, "EQUIDI": 0, "AVICOLI": 0, "UOMO": 0 }, "geometry": { "type": "Point", "coordinates": [ 10.3805, 44.9414 ] } },
{ "type": "Feature", "properties": { "CodIstat": 58117, "AnnoBollettino": 2022, "Regione": "LAZIO", "Prov": "ROMA", "Comune": "ARDEA", "INSETTI": 1, "UCCELLI": 0, "EQUIDI": 0, "AVICOLI": 0, "UOMO": 0 }, "geometry": { "type": "Point", "coordinates": [ 12.5529, 41.6116 ] } },
{ "type": "Feature", "properties": { "CodIstat": 37001, "AnnoBollettino": 2022, "Regione": "EMILIA ROMAGNA", "Prov": "BOLOGNA", "Comune": "ANZOLA DELL'EMILIA", "INSETTI": 1, "UCCELLI": 0, "EQUIDI": 0, "AVICOLI": 0, "UOMO": 0 }, "geometry": { "type": "Point", "coordinates": [ 11.1936, 44.5652 ] } },
{ "type": "Feature", "properties": { "CodIstat": 40007, "AnnoBollettino": 2022, "Regione": "EMILIA ROMAGNA", "Prov": "FORLI-CESENA", "Comune": "CESENA", "INSETTI": 1, "UCCELLI": 0, "EQUIDI": 0, "AVICOLI": 0, "UOMO": 0 }, "geometry": { "type": "Point", "coordinates": [ 12.2347, 44.1304 ] } },
{ "type": "Feature", "properties": { "CodIstat": 15222, "AnnoBollettino": 2022, "Regione": "LOMBARDIA", "Prov": "MILANO", "Comune": "TRIBIANO", "INSETTI": 0, "UCCELLI": 1, "EQUIDI": 0, "AVICOLI": 0, "UOMO": 0 }, "geometry": { "type": "Point", "coordinates": [ 9.37367012338, 45.4038 ] } },
{ "type": "Feature", "properties": { "CodIstat": 58111, "AnnoBollettino": 2022, "Regione": "LAZIO", "Prov": "ROMA", "Comune": "VELLETRI", "INSETTI": 1, "UCCELLI": 0, "EQUIDI": 0, "AVICOLI": 0, "UOMO": 0 }, "geometry": { "type": "Point", "coordinates": [ 12.768, 41.6629 ] } },
{ "type": "Feature", "properties": { "CodIstat": 34051, "AnnoBollettino": 2022, "Regione": "EMILIA ROMAGNA", "Prov": "PARMA", "Comune": "SORBOLO MEZZANI", "INSETTI": 1, "UCCELLI": 0, "EQUIDI": 0, "AVICOLI": 0, "UOMO": 0 }, "geometry": { "type": "Point", "coordinates": [ 10.4388, 44.8872 ] } },
{ "type": "Feature", "properties": { "CodIstat": 30129, "AnnoBollettino": 2022, "Regione": "FRIULI VENEZIA GIULIA", "Prov": "UDINE", "Comune": "UDINE", "INSETTI": 0, "UCCELLI": 4, "EQUIDI": 0, "AVICOLI": 0, "UOMO": 0 }, "geometry": { "type": "Point", "coordinates": [ 13.2454, 46.0641 ] } },
{ "type": "Feature", "properties": { "CodIstat": 41070, "AnnoBollettino": 2022, "Regione": "MARCHE", "Prov": "PESARO E URBINO", "Comune": "TERRE ROVERESCHE", "INSETTI": 1, "UCCELLI": 0, "EQUIDI": 0, "AVICOLI": 0, "UOMO": 0 }, "geometry": { "type": "Point", "coordinates": [ 12.9591, 43.7054 ] } },
{ "type": "Feature", "properties": { "CodIstat": 34050, "AnnoBollettino": 2022, "Regione": "EMILIA ROMAGNA", "Prov": "PARMA", "Comune": "POLESINE ZIBELLO", "INSETTI": 1, "UCCELLI": 0, "EQUIDI": 0, "AVICOLI": 0, "UOMO": 0 }, "geometry": { "type": "Point", "coordinates": [ 10.1178, 45.0128 ] } },
{ "type": "Feature", "properties": { "CodIstat": 34049, "AnnoBollettino": 2022, "Regione": "EMILIA ROMAGNA", "Prov": "PARMA", "Comune": "SISSA TRECASALI", "INSETTI": 1, "UCCELLI": 0, "EQUIDI": 0, "AVICOLI": 0, "UOMO": 0 }, "geometry": { "type": "Point", "coordinates": [ 10.2797, 44.9483 ] } },
{ "type": "Feature", "properties": { "CodIstat": 24124, "AnnoBollettino": 2022, "Regione": "VENETO", "Prov": "VICENZA", "Comune": "BARBARANO MOSSANO", "INSETTI": 2, "UCCELLI": 0, "EQUIDI": 0, "AVICOLI": 0, "UOMO": 0 }, "geometry": { "type": "Point", "coordinates": [ 11.5646, 45.4088 ] } }
]
}
