{
"type": "FeatureCollection",
"crs": { "type": "name", "properties": { "name": "urn:ogc:def:crs:OGC:1.3:CRS84" } },
"features": [
{ "type": "Feature", "properties": { "CodIstat": 37005, "DataSospetto": "2022-09-13T00:00:00", "Categoria": "INSETTI", "Regione": "EMILIA ROMAGNA", "Prov": "BO", "Comune": "BENTIVOGLIO", "NumCapiMalati": 1, "NumFocolai": 1 }, "geometry": { "type": "Point", "coordinates": [ 11.4228, 44.6329 ] } },
{ "type": "Feature", "properties": { "CodIstat": 4146, "DataSospetto": "2022-07-27T00:00:00", "Categoria": "INSETTI", "Regione": "PIEMONTE", "Prov": "CN", "Comune": "MURELLO", "NumCapiMalati": 1, "NumFocolai": 1 }, "geometry": { "type": "Point", "coordinates": [ 7.60479758639, 44.7554 ] } },
{ "type": "Feature", "properties": { "CodIstat": 4146, "DataSospetto": "2022-08-06T00:00:00", "Categoria": "UCCELLI SELVATICI", "Regione": "PIEMONTE", "Prov": "CN", "Comune": "MURELLO", "NumCapiMalati": 1, "NumFocolai": 1 }, "geometry": { "type": "Point", "coordinates": [ 7.60479758639, 44.7554 ] } },
{ "type": "Feature", "properties": { "CodIstat": 28004, "DataSospetto": "2022-07-11T00:00:00", "Categoria": "UCCELLI SELVATICI", "Regione": "VENETO", "Prov": "PD", "Comune": "ANGUILLARA VENETA", "NumCapiMalati": 1, "NumFocolai": 1 }, "geometry": { "type": "Point", "coordinates": [ 11.8922, 45.1456 ] } },
{ "type": "Feature", "properties": { "CodIstat": 81001, "DataSospetto": "2022-09-30T00:00:00", "Categoria": "EQUIDI", "Regione": "SICILIA", "Prov": "TP", "Comune": "ALCAMO", "NumCapiMalati": 1, "NumFocolai": 1 }, "geometry": { "type": "Point", "coordinates": [ 12.9739, 37.964 ] } },
{ "type": "Feature", "properties": { "CodIstat": 23004, "DataSospetto": "2022-07-21T00:00:00", "Categoria": "UCCELLI SELVATICI", "Regione": "VENETO", "Prov": "VR", "Comune": "ARCOLE", "NumCapiMalati": 1, "NumFocolai": 1 }, "geometry": { "type": "Point", "coordinates": [ 11.2986, 45.3659 ] } },
{ "type": "Feature", "properties": { "CodIstat": 29004, "DataSospetto": "2022-07-14T00:00:00", "Categoria": "INSETTI", "Regione": "VENETO", "Prov": "RO", "Comune": "BADIA POLESINE", "NumCapiMalati": 3, "NumFocolai": 1 }, "geometry": { "type": "Point", "coordinates": [ 11.4972, 45.0929 ] } },
{ "type": "Feature", "properties": { "CodIstat": 29004, "DataSospetto": "2022-07-15T00:00:00", "Categoria": "INSETTI", "Regione": "VENETO", "Prov": "RO", "Comune": "BADIA POLESINE", "NumCapiMalati": 1, "NumFocolai": 1 }, "geometry": { "type": "Point", "coordinates": [ 11.4972, 45.0929 ] } },
{ "type": "Feature", "properties": { "CodIstat": 29004, "DataSospetto": "2022-08-23T00:00:00", "Categoria": "INSETTI", "Regione": "VENETO", "Prov": "RO", "Comune": "BADIA POLESINE", "NumCapiMalati": 1, "NumFocolai": 1 }, "geometry": { "type": "Point", "coordinates": [ 11.4972, 45.0929 ] } },
{ "type": "Feature", "properties": { "CodIstat": 29028, "DataSospetto": "2022-07-12T00:00:00", "Categoria": "UCCELLI SELVATICI", "Regione": "VENETO", "Prov": "RO", "Comune": "GUARDA VENETA", "NumCapiMalati": 1, "NumFocolai": 1 }, "geometry": { "type": "Point", "coordinates": [ 11.8019, 44.9847 ] } },
{ "type": "Feature", "properties": { "CodIstat": 29028, "DataSospetto": "2022-07-19T00:00:00", "Categoria": "INSETTI", "Regione": "VENETO", "Prov": "RO", "Comune": "GUARDA VENETA", "NumCapiMalati": 1, "NumFocolai": 1 }, "geometry": { "type": "Point", "coordinates": [ 11.8019, 44.9847 ] } },
{ "type": "Feature", "properties": { "CodIstat": 23044, "DataSospetto": "2022-07-24T00:00:00", "Categoria": "UCCELLI BERSAGLIO", "Regione": "VENETO", "Prov": "VR", "Comune": "LEGNAGO", "NumCapiMalati": 3, "NumFocolai": 2 }, "geometry": { "type": "Point", "coordinates": [ 11.3012, 45.1648 ] } },
{ "type": "Feature", "properties": { "CodIstat": 23044, "DataSospetto": "2022-08-25T00:00:00", "Categoria": "UCCELLI BERSAGLIO", "Regione": "VENETO", "Prov": "VR", "Comune": "LEGNAGO", "NumCapiMalati": 1, "NumFocolai": 1 }, "geometry": { "type": "Point", "coordinates": [ 11.3012, 45.1648 ] } },
{ "type": "Feature", "properties": { "CodIstat": 12090, "DataSospetto": "2022-07-12T00:00:00", "Categoria": "UCCELLI SELVATICI", "Regione": "LOMBARDIA", "Prov": "VA", "Comune": "LONATE POZZOLO", "NumCapiMalati": 1, "NumFocolai": 1 }, "geometry": { "type": "Point", "coordinates": [ 8.73458947568, 45.5901 ] } },
{ "type": "Feature", "properties": { "CodIstat": 91042, "DataSospetto": "2022-07-01T00:00:00", "Categoria": "UCCELLI SELVATICI", "Regione": "SARDEGNA", "Prov": "NU", "Comune": "LOTZORAI", "NumCapiMalati": 1, "NumFocolai": 1 }, "geometry": { "type": "Point", "coordinates": [ 9.65317981049, 39.9756 ] } },
{ "type": "Feature", "properties": { "CodIstat": 93029, "DataSospetto": "2022-07-21T00:00:00", "Categoria": "INSETTI", "Regione": "FRIULI VENEZIA GIULIA", "Prov": "PN", "Comune": "PASIANO DI PORDENONE", "NumCapiMalati": 1, "NumFocolai": 1 }, "geometry": { "type": "Point", "coordinates": [ 12.6223, 45.8557 ] } },
{ "type": "Feature", "properties": { "CodIstat": 93029, "DataSospetto": "2022-08-04T00:00:00", "Categoria": "INSETTI", "Regione": "FRIULI VENEZIA GIULIA", "Prov": "PN", "Comune": "PASIANO DI PORDENONE", "NumCapiMalati": 1, "NumFocolai": 1 }, "geometry": { "type": "Point", "coordinates": [ 12.6223, 45.8557 ] } },
{ "type": "Feature", "properties": { "CodIstat": 27029, "DataSospetto": "2022-07-23T00:00:00", "Categoria": "UCCELLI SELVATICI", "Regione": "VENETO", "Prov": "VE", "Comune": "PORTOGRUARO", "NumCapiMalati": 1, "NumFocolai": 1 }, "geometry": { "type": "Point", "coordinates": [ 12.8515, 45.7568 ] } },
{ "type": "Feature", "properties": { "CodIstat": 17113, "DataSospetto": "2022-08-27T00:00:00", "Categoria": "EQUIDI", "Regione": "LOMBARDIA", "Prov": "BS", "Comune": "MONTICHIARI", "NumCapiMalati": 1, "NumFocolai": 1 }, "geometry": { "type": "Point", "coordinates": [ 10.3818, 45.4112 ] } },
{ "type": "Feature", "properties": { "CodIstat": 30082, "DataSospetto": "2022-10-06T00:00:00", "Categoria": "UCCELLI BERSAGLIO", "Regione": "FRIULI VENEZIA GIULIA", "Prov": "UD", "Comune": "PRECENICCO", "NumCapiMalati": 1, "NumFocolai": 1 }, "geometry": { "type": "Point", "coordinates": [ 13.0606, 45.7618 ] } },
{ "type": "Feature", "properties": { "CodIstat": 26049, "DataSospetto": "2022-08-11T00:00:00", "Categoria": "INSETTI", "Regione": "VENETO", "Prov": "TV", "Comune": "MOTTA DI LIVENZA", "NumCapiMalati": 1, "NumFocolai": 1 }, "geometry": { "type": "Point", "coordinates": [ 12.623, 45.7663 ] } },
{ "type": "Feature", "properties": { "CodIstat": 28019, "DataSospetto": "2022-07-15T00:00:00", "Categoria": "UCCELLI SELVATICI", "Regione": "VENETO", "Prov": "PD", "Comune": "CAMPOSAMPIERO", "NumCapiMalati": 1, "NumFocolai": 1 }, "geometry": { "type": "Point", "coordinates": [ 11.9476, 45.5696 ] } },
{ "type": "Feature", "properties": { "CodIstat": 35022, "DataSospetto": "2022-07-15T00:00:00", "Categoria": "INSETTI", "Regione": "EMILIA ROMAGNA", "Prov": "RE", "Comune": "GATTATICO", "NumCapiMalati": 1, "NumFocolai": 1 }, "geometry": { "type": "Point", "coordinates": [ 10.4714, 44.7999 ] } },
{ "type": "Feature", "properties": { "CodIstat": 95035, "DataSospetto": "2022-09-08T00:00:00", "Categoria": "INSETTI", "Regione": "SARDEGNA", "Prov": "OR", "Comune": "NURACHI", "NumCapiMalati": 1, "NumFocolai": 1 }, "geometry": { "type": "Point", "coordinates": [ 8.5422638143, 39.9666 ] } },
{ "type": "Feature", "properties": { "CodIstat": 23058, "DataSospetto": "2022-09-03T00:00:00", "Categoria": "UCCELLI BERSAGLIO", "Regione": "VENETO", "Prov": "VR", "Comune": "PESCANTINA", "NumCapiMalati": 1, "NumFocolai": 1 }, "geometry": { "type": "Point", "coordinates": [ 10.8611, 45.4906 ] } },
{ "type": "Feature", "properties": { "CodIstat": 1203, "DataSospetto": "2022-09-14T00:00:00", "Categoria": "EQUIDI", "Regione": "PIEMONTE", "Prov": "TO", "Comune": "PRALORMO", "NumCapiMalati": 1, "NumFocolai": 1 }, "geometry": { "type": "Point", "coordinates": [ 7.89736828777, 44.8529 ] } },
{ "type": "Feature", "properties": { "CodIstat": 3032, "DataSospetto": "2022-08-17T00:00:00", "Categoria": "EQUIDI", "Regione": "PIEMONTE", "Prov": "NO", "Comune": "CAMERI", "NumCapiMalati": 1, "NumFocolai": 1 }, "geometry": { "type": "Point", "coordinates": [ 8.66503525283, 45.5145 ] } },
{ "type": "Feature", "properties": { "CodIstat": 3032, "DataSospetto": "2022-09-05T00:00:00", "Categoria": "UCCELLI BERSAGLIO", "Regione": "PIEMONTE", "Prov": "NO", "Comune": "CAMERI", "NumCapiMalati": 1, "NumFocolai": 1 }, "geometry": { "type": "Point", "coordinates": [ 8.66503525283, 45.5145 ] } },
{ "type": "Feature", "properties": { "CodIstat": 39002, "DataSospetto": "2022-07-21T00:00:00", "Categoria": "UCCELLI BERSAGLIO", "Regione": "EMILIA ROMAGNA", "Prov": "RA", "Comune": "BAGNACAVALLO", "NumCapiMalati": 3, "NumFocolai": 2 }, "geometry": { "type": "Point", "coordinates": [ 12.0055, 44.4392 ] } },
{ "type": "Feature", "properties": { "CodIstat": 27005, "DataSospetto": "2022-07-12T00:00:00", "Categoria": "INSETTI", "Regione": "VENETO", "Prov": "VE", "Comune": "CAORLE", "NumCapiMalati": 3, "NumFocolai": 1 }, "geometry": { "type": "Point", "coordinates": [ 12.8699, 45.6397 ] } },
{ "type": "Feature", "properties": { "CodIstat": 27005, "DataSospetto": "2022-08-24T00:00:00", "Categoria": "UCCELLI SELVATICI", "Regione": "VENETO", "Prov": "VE", "Comune": "CAORLE", "NumCapiMalati": 1, "NumFocolai": 1 }, "geometry": { "type": "Point", "coordinates": [ 12.8699, 45.6397 ] } },
{ "type": "Feature", "properties": { "CodIstat": 29007, "DataSospetto": "2022-07-19T00:00:00", "Categoria": "UCCELLI SELVATICI", "Regione": "VENETO", "Prov": "RO", "Comune": "BOSARO", "NumCapiMalati": 1, "NumFocolai": 1 }, "geometry": { "type": "Point", "coordinates": [ 11.7735, 45.0031 ] } },
{ "type": "Feature", "properties": { "CodIstat": 28001, "DataSospetto": "2022-07-08T00:00:00", "Categoria": "UCCELLI SELVATICI", "Regione": "VENETO", "Prov": "PD", "Comune": "ABANO TERME", "NumCapiMalati": 1, "NumFocolai": 1 }, "geometry": { "type": "Point", "coordinates": [ 11.7931, 45.3587 ] } },
{ "type": "Feature", "properties": { "CodIstat": 35002, "DataSospetto": "2022-06-30T00:00:00", "Categoria": "INSETTI", "Regione": "EMILIA ROMAGNA", "Prov": "RE", "Comune": "BAGNOLO IN PIANO", "NumCapiMalati": 4, "NumFocolai": 1 }, "geometry": { "type": "Point", "coordinates": [ 10.6788, 44.7841 ] } },
{ "type": "Feature", "properties": { "CodIstat": 5089, "DataSospetto": "2022-08-10T00:00:00", "Categoria": "INSETTI", "Regione": "PIEMONTE", "Prov": "AT", "Comune": "REFRANCORE", "NumCapiMalati": 1, "NumFocolai": 1 }, "geometry": { "type": "Point", "coordinates": [ 8.345161385800001, 44.9294 ] } },
{ "type": "Feature", "properties": { "CodIstat": 99014, "DataSospetto": "2022-08-10T00:00:00", "Categoria": "UCCELLI BERSAGLIO", "Regione": "EMILIA ROMAGNA", "Prov": "RN", "Comune": "RIMINI", "NumCapiMalati": 1, "NumFocolai": 1 }, "geometry": { "type": "Point", "coordinates": [ 12.5298, 44.0387 ] } },
{ "type": "Feature", "properties": { "CodIstat": 98011, "DataSospetto": "2022-06-29T00:00:00", "Categoria": "INSETTI", "Regione": "LOMBARDIA", "Prov": "LO", "Comune": "CASELLE LANDI", "NumCapiMalati": 1, "NumFocolai": 1 }, "geometry": { "type": "Point", "coordinates": [ 9.807957309660001, 45.0983 ] } },
{ "type": "Feature", "properties": { "CodIstat": 24010, "DataSospetto": "2022-07-22T00:00:00", "Categoria": "EQUIDI", "Regione": "VENETO", "Prov": "VI", "Comune": "ASIGLIANO VENETO", "NumCapiMalati": 2, "NumFocolai": 2 }, "geometry": { "type": "Point", "coordinates": [ 11.4583, 45.3113 ] } },
{ "type": "Feature", "properties": { "CodIstat": 12017, "DataSospetto": "2022-08-23T00:00:00", "Categoria": "EQUIDI", "Regione": "LOMBARDIA", "Prov": "VA", "Comune": "BREBBIA", "NumCapiMalati": 1, "NumFocolai": 1 }, "geometry": { "type": "Point", "coordinates": [ 8.640261536640001, 45.8311 ] } },
{ "type": "Feature", "properties": { "CodIstat": 30008, "DataSospetto": "2022-08-04T00:00:00", "Categoria": "INSETTI", "Regione": "FRIULI VENEZIA GIULIA", "Prov": "UD", "Comune": "BAGNARIA ARSA", "NumCapiMalati": 1, "NumFocolai": 1 }, "geometry": { "type": "Point", "coordinates": [ 13.2999, 45.8661 ] } },
{ "type": "Feature", "properties": { "CodIstat": 23019, "DataSospetto": "2022-08-01T00:00:00", "Categoria": "INSETTI", "Regione": "VENETO", "Prov": "VR", "Comune": "CASALEONE", "NumCapiMalati": 1, "NumFocolai": 1 }, "geometry": { "type": "Point", "coordinates": [ 11.1986, 45.145 ] } },
{ "type": "Feature", "properties": { "CodIstat": 33008, "DataSospetto": "2022-07-26T00:00:00", "Categoria": "INSETTI", "Regione": "EMILIA ROMAGNA", "Prov": "PC", "Comune": "CALENDASCO", "NumCapiMalati": 2, "NumFocolai": 1 }, "geometry": { "type": "Point", "coordinates": [ 9.608141599030001, 45.0913 ] } },
{ "type": "Feature", "properties": { "CodIstat": 28008, "DataSospetto": "2022-07-16T00:00:00", "Categoria": "UCCELLI BERSAGLIO", "Regione": "VENETO", "Prov": "PD", "Comune": "BAGNOLI DI SOPRA", "NumCapiMalati": 1, "NumFocolai": 1 }, "geometry": { "type": "Point", "coordinates": [ 11.8982, 45.1814 ] } },
{ "type": "Feature", "properties": { "CodIstat": 24021, "DataSospetto": "2022-08-07T00:00:00", "Categoria": "UCCELLI BERSAGLIO", "Regione": "VENETO", "Prov": "VI", "Comune": "CAMISANO VICENTINO", "NumCapiMalati": 1, "NumFocolai": 1 }, "geometry": { "type": "Point", "coordinates": [ 11.7118, 45.5254 ] } },
{ "type": "Feature", "properties": { "CodIstat": 61012, "DataSospetto": "2022-11-11T00:00:00", "Categoria": "EQUIDI", "Regione": "CAMPANIA", "Prov": "CE", "Comune": "CANCELLO ED ARNONE", "NumCapiMalati": 1, "NumFocolai": 1 }, "geometry": { "type": "Point", "coordinates": [ 14.0276, 41.0618 ] } },
{ "type": "Feature", "properties": { "CodIstat": 93005, "DataSospetto": "2022-08-09T00:00:00", "Categoria": "EQUIDI", "Regione": "FRIULI VENEZIA GIULIA", "Prov": "PN", "Comune": "AZZANO DECIMO", "NumCapiMalati": 1, "NumFocolai": 1 }, "geometry": { "type": "Point", "coordinates": [ 12.6912, 45.8824 ] } },
{ "type": "Feature", "properties": { "CodIstat": 28028, "DataSospetto": "2022-07-09T00:00:00", "Categoria": "UCCELLI SELVATICI", "Regione": "VENETO", "Prov": "PD", "Comune": "CASALSERUGO", "NumCapiMalati": 1, "NumFocolai": 1 }, "geometry": { "type": "Point", "coordinates": [ 11.9153, 45.3061 ] } },
{ "type": "Feature", "properties": { "CodIstat": 33018, "DataSospetto": "2022-07-26T00:00:00", "Categoria": "INSETTI", "Regione": "EMILIA ROMAGNA", "Prov": "PC", "Comune": "CORTEMAGGIORE", "NumCapiMalati": 2, "NumFocolai": 1 }, "geometry": { "type": "Point", "coordinates": [ 9.92053256012, 45.0004 ] } },
{ "type": "Feature", "properties": { "CodIstat": 29021, "DataSospetto": "2022-06-30T00:00:00", "Categoria": "INSETTI", "Regione": "VENETO", "Prov": "RO", "Comune": "FICAROLO", "NumCapiMalati": 7, "NumFocolai": 1 }, "geometry": { "type": "Point", "coordinates": [ 11.4459, 44.9577 ] } },
{ "type": "Feature", "properties": { "CodIstat": 29021, "DataSospetto": "2022-07-14T00:00:00", "Categoria": "INSETTI", "Regione": "VENETO", "Prov": "RO", "Comune": "FICAROLO", "NumCapiMalati": 1, "NumFocolai": 1 }, "geometry": { "type": "Point", "coordinates": [ 11.4459, 44.9577 ] } },
{ "type": "Feature", "properties": { "CodIstat": 28064, "DataSospetto": "2022-08-10T00:00:00", "Categoria": "EQUIDI", "Regione": "VENETO", "Prov": "PD", "Comune": "PIOMBINO DESE", "NumCapiMalati": 2, "NumFocolai": 1 }, "geometry": { "type": "Point", "coordinates": [ 12.0212, 45.6191 ] } },
{ "type": "Feature", "properties": { "CodIstat": 28064, "DataSospetto": "2022-08-28T00:00:00", "Categoria": "UCCELLI SELVATICI", "Regione": "VENETO", "Prov": "PD", "Comune": "PIOMBINO DESE", "NumCapiMalati": 1, "NumFocolai": 1 }, "geometry": { "type": "Point", "coordinates": [ 12.0212, 45.6191 ] } },
{ "type": "Feature", "properties": { "CodIstat": 38018, "DataSospetto": "2022-07-14T00:00:00", "Categoria": "INSETTI", "Regione": "EMILIA ROMAGNA", "Prov": "FE", "Comune": "POGGIO RENATICO", "NumCapiMalati": 1, "NumFocolai": 1 }, "geometry": { "type": "Point", "coordinates": [ 11.4969, 44.7704 ] } },
{ "type": "Feature", "properties": { "CodIstat": 38007, "DataSospetto": "2022-07-12T00:00:00", "Categoria": "INSETTI", "Regione": "EMILIA ROMAGNA", "Prov": "FE", "Comune": "COPPARO", "NumCapiMalati": 2, "NumFocolai": 1 }, "geometry": { "type": "Point", "coordinates": [ 11.8607, 44.9024 ] } },
{ "type": "Feature", "properties": { "CodIstat": 38007, "DataSospetto": "2022-07-30T00:00:00", "Categoria": "EQUIDI", "Regione": "EMILIA ROMAGNA", "Prov": "FE", "Comune": "COPPARO", "NumCapiMalati": 2, "NumFocolai": 1 }, "geometry": { "type": "Point", "coordinates": [ 11.8607, 44.9024 ] } },
{ "type": "Feature", "properties": { "CodIstat": 38007, "DataSospetto": "2022-08-22T00:00:00", "Categoria": "UCCELLI SELVATICI", "Regione": "EMILIA ROMAGNA", "Prov": "FE", "Comune": "COPPARO", "NumCapiMalati": 1, "NumFocolai": 1 }, "geometry": { "type": "Point", "coordinates": [ 11.8607, 44.9024 ] } },
{ "type": "Feature", "properties": { "CodIstat": 2049, "DataSospetto": "2022-09-03T00:00:00", "Categoria": "INSETTI", "Regione": "PIEMONTE", "Prov": "VC", "Comune": "CRESCENTINO", "NumCapiMalati": 1, "NumFocolai": 1 }, "geometry": { "type": "Point", "coordinates": [ 8.113880826160001, 45.2035 ] } },
{ "type": "Feature", "properties": { "CodIstat": 1058, "DataSospetto": "2022-09-19T00:00:00", "Categoria": "UCCELLI SELVATICI", "Regione": "PIEMONTE", "Prov": "TO", "Comune": "CARIGNANO", "NumCapiMalati": 1, "NumFocolai": 1 }, "geometry": { "type": "Point", "coordinates": [ 7.66130220044, 44.8971 ] } },
{ "type": "Feature", "properties": { "CodIstat": 18061, "DataSospetto": "2022-09-26T00:00:00", "Categoria": "UCCELLI BERSAGLIO", "Regione": "LOMBARDIA", "Prov": "PV", "Comune": "DORNO", "NumCapiMalati": 1, "NumFocolai": 1 }, "geometry": { "type": "Point", "coordinates": [ 8.952499834419999, 45.1487 ] } },
{ "type": "Feature", "properties": { "CodIstat": 27023, "DataSospetto": "2022-08-28T00:00:00", "Categoria": "UCCELLI SELVATICI", "Regione": "VENETO", "Prov": "VE", "Comune": "MIRA", "NumCapiMalati": 1, "NumFocolai": 1 }, "geometry": { "type": "Point", "coordinates": [ 12.1855, 45.413 ] } },
{ "type": "Feature", "properties": { "CodIstat": 23025, "DataSospetto": "2022-08-08T00:00:00", "Categoria": "UCCELLI BERSAGLIO", "Regione": "VENETO", "Prov": "VR", "Comune": "CEREA", "NumCapiMalati": 2, "NumFocolai": 1 }, "geometry": { "type": "Point", "coordinates": [ 11.218, 45.1737 ] } },
{ "type": "Feature", "properties": { "CodIstat": 23025, "DataSospetto": "2022-08-08T00:00:00", "Categoria": "UCCELLI SELVATICI", "Regione": "VENETO", "Prov": "VR", "Comune": "CEREA", "NumCapiMalati": 1, "NumFocolai": 1 }, "geometry": { "type": "Point", "coordinates": [ 11.218, 45.1737 ] } },
{ "type": "Feature", "properties": { "CodIstat": 29015, "DataSospetto": "2022-07-21T00:00:00", "Categoria": "UCCELLI SELVATICI", "Regione": "VENETO", "Prov": "RO", "Comune": "CEREGNANO", "NumCapiMalati": 1, "NumFocolai": 1 }, "geometry": { "type": "Point", "coordinates": [ 11.9094, 45.047 ] } },
{ "type": "Feature", "properties": { "CodIstat": 37037, "DataSospetto": "2022-08-02T00:00:00", "Categoria": "INSETTI", "Regione": "EMILIA ROMAGNA", "Prov": "BO", "Comune": "MEDICINA", "NumCapiMalati": 1, "NumFocolai": 1 }, "geometry": { "type": "Point", "coordinates": [ 11.6689, 44.5142 ] } },
{ "type": "Feature", "properties": { "CodIstat": 111052, "DataSospetto": "2022-08-24T00:00:00", "Categoria": "UCCELLI BERSAGLIO", "Regione": "SARDEGNA", "Prov": "SU", "Comune": "PABILLONIS", "NumCapiMalati": 1, "NumFocolai": 1 }, "geometry": { "type": "Point", "coordinates": [ 8.711603698179999, 39.6078 ] } },
{ "type": "Feature", "properties": { "CodIstat": 111052, "DataSospetto": "2022-09-06T00:00:00", "Categoria": "UCCELLI BERSAGLIO", "Regione": "SARDEGNA", "Prov": "SU", "Comune": "PABILLONIS", "NumCapiMalati": 1, "NumFocolai": 1 }, "geometry": { "type": "Point", "coordinates": [ 8.711603698179999, 39.6078 ] } },
{ "type": "Feature", "properties": { "CodIstat": 29003, "DataSospetto": "2022-07-11T00:00:00", "Categoria": "UCCELLI SELVATICI", "Regione": "VENETO", "Prov": "RO", "Comune": "ARQUA' POLESINE", "NumCapiMalati": 1, "NumFocolai": 1 }, "geometry": { "type": "Point", "coordinates": [ 11.7379, 45.0162 ] } },
{ "type": "Feature", "properties": { "CodIstat": 99011, "DataSospetto": "2022-07-16T00:00:00", "Categoria": "UCCELLI BERSAGLIO", "Regione": "EMILIA ROMAGNA", "Prov": "RN", "Comune": "MORCIANO DI ROMAGNA", "NumCapiMalati": 2, "NumFocolai": 1 }, "geometry": { "type": "Point", "coordinates": [ 12.6532, 43.9134 ] } },
{ "type": "Feature", "properties": { "CodIstat": 37045, "DataSospetto": "2022-09-13T00:00:00", "Categoria": "EQUIDI", "Regione": "EMILIA ROMAGNA", "Prov": "BO", "Comune": "MORDANO", "NumCapiMalati": 4, "NumFocolai": 1 }, "geometry": { "type": "Point", "coordinates": [ 11.7962, 44.4095 ] } },
{ "type": "Feature", "properties": { "CodIstat": 37003, "DataSospetto": "2022-07-19T00:00:00", "Categoria": "INSETTI", "Regione": "EMILIA ROMAGNA", "Prov": "BO", "Comune": "BARICELLA", "NumCapiMalati": 1, "NumFocolai": 1 }, "geometry": { "type": "Point", "coordinates": [ 11.5712, 44.6685 ] } },
{ "type": "Feature", "properties": { "CodIstat": 23040, "DataSospetto": "2022-09-17T00:00:00", "Categoria": "UCCELLI SELVATICI", "Regione": "VENETO", "Prov": "VR", "Comune": "ISOLA DELLA SCALA", "NumCapiMalati": 1, "NumFocolai": 1 }, "geometry": { "type": "Point", "coordinates": [ 11.0204, 45.2775 ] } },
{ "type": "Feature", "properties": { "CodIstat": 38001, "DataSospetto": "2022-07-14T00:00:00", "Categoria": "INSETTI", "Regione": "EMILIA ROMAGNA", "Prov": "FE", "Comune": "ARGENTA", "NumCapiMalati": 2, "NumFocolai": 1 }, "geometry": { "type": "Point", "coordinates": [ 11.8887, 44.6222 ] } },
{ "type": "Feature", "properties": { "CodIstat": 38001, "DataSospetto": "2022-08-22T00:00:00", "Categoria": "UCCELLI SELVATICI", "Regione": "EMILIA ROMAGNA", "Prov": "FE", "Comune": "ARGENTA", "NumCapiMalati": 2, "NumFocolai": 2 }, "geometry": { "type": "Point", "coordinates": [ 11.8887, 44.6222 ] } },
{ "type": "Feature", "properties": { "CodIstat": 20030, "DataSospetto": "2022-07-19T00:00:00", "Categoria": "INSETTI", "Regione": "LOMBARDIA", "Prov": "MN", "Comune": "MANTOVA", "NumCapiMalati": 2, "NumFocolai": 1 }, "geometry": { "type": "Point", "coordinates": [ 10.8072, 45.1492 ] } },
{ "type": "Feature", "properties": { "CodIstat": 39012, "DataSospetto": "2022-08-25T00:00:00", "Categoria": "INSETTI", "Regione": "EMILIA ROMAGNA", "Prov": "RA", "Comune": "LUGO", "NumCapiMalati": 1, "NumFocolai": 1 }, "geometry": { "type": "Point", "coordinates": [ 11.9065, 44.4774 ] } },
{ "type": "Feature", "properties": { "CodIstat": 108033, "DataSospetto": "2022-10-10T00:00:00", "Categoria": "UCCELLI SELVATICI", "Regione": "LOMBARDIA", "Prov": "MB", "Comune": "MONZA", "NumCapiMalati": 1, "NumFocolai": 1 }, "geometry": { "type": "Point", "coordinates": [ 9.275801378680001, 45.5851 ] } },
{ "type": "Feature", "properties": { "CodIstat": 20036, "DataSospetto": "2022-07-19T00:00:00", "Categoria": "INSETTI", "Regione": "LOMBARDIA", "Prov": "MN", "Comune": "MONZAMBANO", "NumCapiMalati": 1, "NumFocolai": 1 }, "geometry": { "type": "Point", "coordinates": [ 10.668, 45.3799 ] } },
{ "type": "Feature", "properties": { "CodIstat": 95037, "DataSospetto": "2022-08-31T00:00:00", "Categoria": "UCCELLI SELVATICI", "Regione": "SARDEGNA", "Prov": "OR", "Comune": "OLLASTRA", "NumCapiMalati": 1, "NumFocolai": 1 }, "geometry": { "type": "Point", "coordinates": [ 8.75705429624, 39.9591 ] } },
{ "type": "Feature", "properties": { "CodIstat": 82054, "DataSospetto": "2022-10-24T00:00:00", "Categoria": "EQUIDI", "Regione": "SICILIA", "Prov": "PA", "Comune": "PARTINICO", "NumCapiMalati": 2, "NumFocolai": 1 }, "geometry": { "type": "Point", "coordinates": [ 13.0634, 38.0255 ] } },
{ "type": "Feature", "properties": { "CodIstat": 27011, "DataSospetto": "2022-07-12T00:00:00", "Categoria": "INSETTI", "Regione": "VENETO", "Prov": "VE", "Comune": "CONCORDIA SAGITTARIA", "NumCapiMalati": 4, "NumFocolai": 1 }, "geometry": { "type": "Point", "coordinates": [ 12.8321, 45.7205 ] } },
{ "type": "Feature", "properties": { "CodIstat": 4179, "DataSospetto": "2022-07-27T00:00:00", "Categoria": "INSETTI", "Regione": "PIEMONTE", "Prov": "CN", "Comune": "RACCONIGI", "NumCapiMalati": 1, "NumFocolai": 1 }, "geometry": { "type": "Point", "coordinates": [ 7.67271954737, 44.7765 ] } },
{ "type": "Feature", "properties": { "CodIstat": 30070, "DataSospetto": "2022-08-02T00:00:00", "Categoria": "EQUIDI", "Regione": "FRIULI VENEZIA GIULIA", "Prov": "UD", "Comune": "PALMANOVA", "NumCapiMalati": 3, "NumFocolai": 1 }, "geometry": { "type": "Point", "coordinates": [ 13.3247, 45.9075 ] } },
{ "type": "Feature", "properties": { "CodIstat": 23053, "DataSospetto": "2022-08-08T00:00:00", "Categoria": "UCCELLI SELVATICI", "Regione": "VENETO", "Prov": "VR", "Comune": "NOGARA", "NumCapiMalati": 1, "NumFocolai": 1 }, "geometry": { "type": "Point", "coordinates": [ 11.0644, 45.1877 ] } },
{ "type": "Feature", "properties": { "CodIstat": 34027, "DataSospetto": "2022-07-21T00:00:00", "Categoria": "UCCELLI BERSAGLIO", "Regione": "EMILIA ROMAGNA", "Prov": "PR", "Comune": "PARMA", "NumCapiMalati": 2, "NumFocolai": 2 }, "geometry": { "type": "Point", "coordinates": [ 10.3275, 44.7937 ] } },
{ "type": "Feature", "properties": { "CodIstat": 34027, "DataSospetto": "2022-07-21T00:00:00", "Categoria": "UCCELLI SELVATICI", "Regione": "EMILIA ROMAGNA", "Prov": "PR", "Comune": "PARMA", "NumCapiMalati": 2, "NumFocolai": 2 }, "geometry": { "type": "Point", "coordinates": [ 10.3275, 44.7937 ] } },
{ "type": "Feature", "properties": { "CodIstat": 29001, "DataSospetto": "2022-07-05T00:00:00", "Categoria": "UCCELLI SELVATICI", "Regione": "VENETO", "Prov": "RO", "Comune": "ADRIA", "NumCapiMalati": 3, "NumFocolai": 2 }, "geometry": { "type": "Point", "coordinates": [ 12.0451, 45.0569 ] } },
{ "type": "Feature", "properties": { "CodIstat": 29001, "DataSospetto": "2022-07-19T00:00:00", "Categoria": "INSETTI", "Regione": "VENETO", "Prov": "RO", "Comune": "ADRIA", "NumCapiMalati": 2, "NumFocolai": 2 }, "geometry": { "type": "Point", "coordinates": [ 12.0451, 45.0569 ] } },
{ "type": "Feature", "properties": { "CodIstat": 17002, "DataSospetto": "2022-09-29T00:00:00", "Categoria": "UCCELLI BERSAGLIO", "Regione": "LOMBARDIA", "Prov": "BS", "Comune": "ADRO", "NumCapiMalati": 1, "NumFocolai": 1 }, "geometry": { "type": "Point", "coordinates": [ 9.96618714825, 45.6197 ] } },
{ "type": "Feature", "properties": { "CodIstat": 2007, "DataSospetto": "2022-08-19T00:00:00", "Categoria": "INSETTI", "Regione": "PIEMONTE", "Prov": "VC", "Comune": "ASIGLIANO VERCELLESE", "NumCapiMalati": 5, "NumFocolai": 1 }, "geometry": { "type": "Point", "coordinates": [ 8.41115069768, 45.2646 ] } },
{ "type": "Feature", "properties": { "CodIstat": 2007, "DataSospetto": "2022-08-24T00:00:00", "Categoria": "INSETTI", "Regione": "PIEMONTE", "Prov": "VC", "Comune": "ASIGLIANO VERCELLESE", "NumCapiMalati": 2, "NumFocolai": 1 }, "geometry": { "type": "Point", "coordinates": [ 8.41115069768, 45.2646 ] } },
{ "type": "Feature", "properties": { "CodIstat": 4010, "DataSospetto": "2022-08-24T00:00:00", "Categoria": "INSETTI", "Regione": "PIEMONTE", "Prov": "CN", "Comune": "BALDISSERO D'ALBA", "NumCapiMalati": 1, "NumFocolai": 1 }, "geometry": { "type": "Point", "coordinates": [ 7.88937332477, 44.7652 ] } },
{ "type": "Feature", "properties": { "CodIstat": 1078, "DataSospetto": "2022-09-16T00:00:00", "Categoria": "EQUIDI", "Regione": "PIEMONTE", "Prov": "TO", "Comune": "CHIERI", "NumCapiMalati": 1, "NumFocolai": 1 }, "geometry": { "type": "Point", "coordinates": [ 7.82779248267, 45.0036 ] } },
{ "type": "Feature", "properties": { "CodIstat": 23054, "DataSospetto": "2022-07-14T00:00:00", "Categoria": "INSETTI", "Regione": "VENETO", "Prov": "VR", "Comune": "NOGAROLE ROCCA", "NumCapiMalati": 1, "NumFocolai": 1 }, "geometry": { "type": "Point", "coordinates": [ 10.8792, 45.2804 ] } },
{ "type": "Feature", "properties": { "CodIstat": 1171, "DataSospetto": "2022-08-03T00:00:00", "Categoria": "INSETTI", "Regione": "PIEMONTE", "Prov": "TO", "Comune": "ORBASSANO", "NumCapiMalati": 1, "NumFocolai": 1 }, "geometry": { "type": "Point", "coordinates": [ 7.5557442342, 45.0057 ] } },
{ "type": "Feature", "properties": { "CodIstat": 6003, "DataSospetto": "2022-08-16T00:00:00", "Categoria": "UCCELLI BERSAGLIO", "Regione": "PIEMONTE", "Prov": "AL", "Comune": "ALESSANDRIA", "NumCapiMalati": 1, "NumFocolai": 1 }, "geometry": { "type": "Point", "coordinates": [ 8.64439705305, 44.9092 ] } },
{ "type": "Feature", "properties": { "CodIstat": 39001, "DataSospetto": "2022-07-28T00:00:00", "Categoria": "INSETTI", "Regione": "EMILIA ROMAGNA", "Prov": "RA", "Comune": "ALFONSINE", "NumCapiMalati": 2, "NumFocolai": 1 }, "geometry": { "type": "Point", "coordinates": [ 12.0033, 44.5448 ] } },
{ "type": "Feature", "properties": { "CodIstat": 39001, "DataSospetto": "2022-08-02T00:00:00", "Categoria": "INSETTI", "Regione": "EMILIA ROMAGNA", "Prov": "RA", "Comune": "ALFONSINE", "NumCapiMalati": 1, "NumFocolai": 1 }, "geometry": { "type": "Point", "coordinates": [ 12.0033, 44.5448 ] } },
{ "type": "Feature", "properties": { "CodIstat": 39001, "DataSospetto": "2022-08-02T00:00:00", "Categoria": "UCCELLI BERSAGLIO", "Regione": "EMILIA ROMAGNA", "Prov": "RA", "Comune": "ALFONSINE", "NumCapiMalati": 2, "NumFocolai": 1 }, "geometry": { "type": "Point", "coordinates": [ 12.0033, 44.5448 ] } },
{ "type": "Feature", "properties": { "CodIstat": 29026, "DataSospetto": "2022-08-05T00:00:00", "Categoria": "UCCELLI SELVATICI", "Regione": "VENETO", "Prov": "RO", "Comune": "GAVELLO", "NumCapiMalati": 1, "NumFocolai": 1 }, "geometry": { "type": "Point", "coordinates": [ 11.9516, 45.0257 ] } },
{ "type": "Feature", "properties": { "CodIstat": 29002, "DataSospetto": "2022-08-10T00:00:00", "Categoria": "UCCELLI SELVATICI", "Regione": "VENETO", "Prov": "RO", "Comune": "ARIANO NEL POLESINE", "NumCapiMalati": 1, "NumFocolai": 1 }, "geometry": { "type": "Point", "coordinates": [ 12.2023, 44.9394 ] } },
{ "type": "Feature", "properties": { "CodIstat": 28003, "DataSospetto": "2022-07-07T00:00:00", "Categoria": "INSETTI", "Regione": "VENETO", "Prov": "PD", "Comune": "ALBIGNASEGO", "NumCapiMalati": 1, "NumFocolai": 1 }, "geometry": { "type": "Point", "coordinates": [ 11.8677, 45.3468 ] } },
{ "type": "Feature", "properties": { "CodIstat": 28003, "DataSospetto": "2022-07-19T00:00:00", "Categoria": "INSETTI", "Regione": "VENETO", "Prov": "PD", "Comune": "ALBIGNASEGO", "NumCapiMalati": 2, "NumFocolai": 1 }, "geometry": { "type": "Point", "coordinates": [ 11.8677, 45.3468 ] } },
{ "type": "Feature", "properties": { "CodIstat": 28003, "DataSospetto": "2022-08-18T00:00:00", "Categoria": "UCCELLI SELVATICI", "Regione": "VENETO", "Prov": "PD", "Comune": "ALBIGNASEGO", "NumCapiMalati": 2, "NumFocolai": 2 }, "geometry": { "type": "Point", "coordinates": [ 11.8677, 45.3468 ] } },
{ "type": "Feature", "properties": { "CodIstat": 91031, "DataSospetto": "2022-09-19T00:00:00", "Categoria": "INSETTI", "Regione": "SARDEGNA", "Prov": "NU", "Comune": "GIRASOLE", "NumCapiMalati": 1, "NumFocolai": 1 }, "geometry": { "type": "Point", "coordinates": [ 9.64425257794, 39.9535 ] } },
{ "type": "Feature", "properties": { "CodIstat": 91031, "DataSospetto": "2022-09-28T00:00:00", "Categoria": "INSETTI", "Regione": "SARDEGNA", "Prov": "NU", "Comune": "GIRASOLE", "NumCapiMalati": 1, "NumFocolai": 1 }, "geometry": { "type": "Point", "coordinates": [ 9.64425257794, 39.9535 ] } },
{ "type": "Feature", "properties": { "CodIstat": 28053, "DataSospetto": "2022-07-01T00:00:00", "Categoria": "UCCELLI SELVATICI", "Regione": "VENETO", "Prov": "PD", "Comune": "MERLARA", "NumCapiMalati": 1, "NumFocolai": 1 }, "geometry": { "type": "Point", "coordinates": [ 11.458, 45.16 ] } },
{ "type": "Feature", "properties": { "CodIstat": 38025, "DataSospetto": "2022-07-12T00:00:00", "Categoria": "INSETTI", "Regione": "EMILIA ROMAGNA", "Prov": "FE", "Comune": "GORO", "NumCapiMalati": 1, "NumFocolai": 1 }, "geometry": { "type": "Point", "coordinates": [ 12.317, 44.8317 ] } },
{ "type": "Feature", "properties": { "CodIstat": 24046, "DataSospetto": "2022-07-12T00:00:00", "Categoria": "INSETTI", "Regione": "VENETO", "Prov": "VI", "Comune": "GRISIGNANO DI ZOCCO", "NumCapiMalati": 1, "NumFocolai": 1 }, "geometry": { "type": "Point", "coordinates": [ 11.7031, 45.4819 ] } },
{ "type": "Feature", "properties": { "CodIstat": 24046, "DataSospetto": "2022-07-26T00:00:00", "Categoria": "INSETTI", "Regione": "VENETO", "Prov": "VI", "Comune": "GRISIGNANO DI ZOCCO", "NumCapiMalati": 1, "NumFocolai": 1 }, "geometry": { "type": "Point", "coordinates": [ 11.7031, 45.4819 ] } },
{ "type": "Feature", "properties": { "CodIstat": 90020, "DataSospetto": "2022-09-13T00:00:00", "Categoria": "UCCELLI BERSAGLIO", "Regione": "SARDEGNA", "Prov": "SS", "Comune": "BURGOS", "NumCapiMalati": 1, "NumFocolai": 1 }, "geometry": { "type": "Point", "coordinates": [ 8.981032192180001, 40.4001 ] } },
{ "type": "Feature", "properties": { "CodIstat": 27002, "DataSospetto": "2022-07-21T00:00:00", "Categoria": "INSETTI", "Regione": "VENETO", "Prov": "VE", "Comune": "CAMPAGNA LUPIA", "NumCapiMalati": 1, "NumFocolai": 1 }, "geometry": { "type": "Point", "coordinates": [ 12.167, 45.34 ] } },
{ "type": "Feature", "properties": { "CodIstat": 27002, "DataSospetto": "2022-08-16T00:00:00", "Categoria": "INSETTI", "Regione": "VENETO", "Prov": "VE", "Comune": "CAMPAGNA LUPIA", "NumCapiMalati": 2, "NumFocolai": 1 }, "geometry": { "type": "Point", "coordinates": [ 12.167, 45.34 ] } },
{ "type": "Feature", "properties": { "CodIstat": 27004, "DataSospetto": "2022-08-11T00:00:00", "Categoria": "UCCELLI SELVATICI", "Regione": "VENETO", "Prov": "VE", "Comune": "CAMPONOGARA", "NumCapiMalati": 1, "NumFocolai": 1 }, "geometry": { "type": "Point", "coordinates": [ 12.0874, 45.3792 ] } },
{ "type": "Feature", "properties": { "CodIstat": 28016, "DataSospetto": "2022-07-14T00:00:00", "Categoria": "UCCELLI SELVATICI", "Regione": "VENETO", "Prov": "PD", "Comune": "CADONEGHE", "NumCapiMalati": 1, "NumFocolai": 1 }, "geometry": { "type": "Point", "coordinates": [ 11.9176, 45.4577 ] } },
{ "type": "Feature", "properties": { "CodIstat": 28016, "DataSospetto": "2022-07-27T00:00:00", "Categoria": "INSETTI", "Regione": "VENETO", "Prov": "PD", "Comune": "CADONEGHE", "NumCapiMalati": 1, "NumFocolai": 1 }, "geometry": { "type": "Point", "coordinates": [ 11.9176, 45.4577 ] } },
{ "type": "Feature", "properties": { "CodIstat": 28016, "DataSospetto": "2022-08-25T00:00:00", "Categoria": "INSETTI", "Regione": "VENETO", "Prov": "PD", "Comune": "CADONEGHE", "NumCapiMalati": 1, "NumFocolai": 1 }, "geometry": { "type": "Point", "coordinates": [ 11.9176, 45.4577 ] } },
{ "type": "Feature", "properties": { "CodIstat": 81004, "DataSospetto": "2022-10-17T00:00:00", "Categoria": "EQUIDI", "Regione": "SICILIA", "Prov": "TP", "Comune": "CAMPOBELLO DI MAZARA", "NumCapiMalati": 1, "NumFocolai": 1 }, "geometry": { "type": "Point", "coordinates": [ 12.7159, 37.6054 ] } },
{ "type": "Feature", "properties": { "CodIstat": 12050, "DataSospetto": "2022-10-25T00:00:00", "Categoria": "UCCELLI BERSAGLIO", "Regione": "LOMBARDIA", "Prov": "VA", "Comune": "CISLAGO", "NumCapiMalati": 1, "NumFocolai": 1 }, "geometry": { "type": "Point", "coordinates": [ 8.963605171359999, 45.6532 ] } },
{ "type": "Feature", "properties": { "CodIstat": 37024, "DataSospetto": "2022-08-23T00:00:00", "Categoria": "INSETTI", "Regione": "EMILIA ROMAGNA", "Prov": "BO", "Comune": "CREVALCORE", "NumCapiMalati": 1, "NumFocolai": 1 }, "geometry": { "type": "Point", "coordinates": [ 11.1856, 44.7525 ] } },
{ "type": "Feature", "properties": { "CodIstat": 93017, "DataSospetto": "2022-08-24T00:00:00", "Categoria": "UCCELLI SELVATICI", "Regione": "FRIULI VENEZIA GIULIA", "Prov": "PN", "Comune": "CORDENONS", "NumCapiMalati": 1, "NumFocolai": 1 }, "geometry": { "type": "Point", "coordinates": [ 12.7284, 46.0048 ] } },
{ "type": "Feature", "properties": { "CodIstat": 47022, "DataSospetto": "2022-10-07T00:00:00", "Categoria": "INSETTI", "Regione": "TOSCANA", "Prov": "PT", "Comune": "CHIESINA UZZANESE", "NumCapiMalati": 1, "NumFocolai": 1 }, "geometry": { "type": "Point", "coordinates": [ 10.721, 43.8409 ] } },
{ "type": "Feature", "properties": { "CodIstat": 29014, "DataSospetto": "2022-08-10T00:00:00", "Categoria": "INSETTI", "Regione": "VENETO", "Prov": "RO", "Comune": "CENESELLI", "NumCapiMalati": 1, "NumFocolai": 1 }, "geometry": { "type": "Point", "coordinates": [ 11.3807, 45.0266 ] } },
{ "type": "Feature", "properties": { "CodIstat": 6109, "DataSospetto": "2022-09-08T00:00:00", "Categoria": "INSETTI", "Regione": "PIEMONTE", "Prov": "AL", "Comune": "MORANO SUL PO", "NumCapiMalati": 1, "NumFocolai": 1 }, "geometry": { "type": "Point", "coordinates": [ 8.35347362287, 45.1724 ] } },
{ "type": "Feature", "properties": { "CodIstat": 36027, "DataSospetto": "2022-09-15T00:00:00", "Categoria": "INSETTI", "Regione": "EMILIA ROMAGNA", "Prov": "MO", "Comune": "NONANTOLA", "NumCapiMalati": 1, "NumFocolai": 1 }, "geometry": { "type": "Point", "coordinates": [ 11.0558, 44.6853 ] } },
{ "type": "Feature", "properties": { "CodIstat": 27027, "DataSospetto": "2022-07-09T00:00:00", "Categoria": "UCCELLI SELVATICI", "Regione": "VENETO", "Prov": "VE", "Comune": "NOVENTA DI PIAVE", "NumCapiMalati": 1, "NumFocolai": 1 }, "geometry": { "type": "Point", "coordinates": [ 12.5428, 45.6713 ] } },
{ "type": "Feature", "properties": { "CodIstat": 36028, "DataSospetto": "2022-07-06T00:00:00", "Categoria": "INSETTI", "Regione": "EMILIA ROMAGNA", "Prov": "MO", "Comune": "NOVI DI MODENA", "NumCapiMalati": 4, "NumFocolai": 1 }, "geometry": { "type": "Point", "coordinates": [ 10.9295, 44.8736 ] } },
{ "type": "Feature", "properties": { "CodIstat": 29023, "DataSospetto": "2022-07-20T00:00:00", "Categoria": "UCCELLI BERSAGLIO", "Regione": "VENETO", "Prov": "RO", "Comune": "FRASSINELLE POLESINE", "NumCapiMalati": 1, "NumFocolai": 1 }, "geometry": { "type": "Point", "coordinates": [ 11.6923, 44.9782 ] } },
{ "type": "Feature", "properties": { "CodIstat": 20021, "DataSospetto": "2022-09-19T00:00:00", "Categoria": "UCCELLI BERSAGLIO", "Regione": "LOMBARDIA", "Prov": "MN", "Comune": "CURTATONE", "NumCapiMalati": 1, "NumFocolai": 1 }, "geometry": { "type": "Point", "coordinates": [ 10.7151, 45.1076 ] } },
{ "type": "Feature", "properties": { "CodIstat": 35021, "DataSospetto": "2022-07-14T00:00:00", "Categoria": "INSETTI", "Regione": "EMILIA ROMAGNA", "Prov": "RE", "Comune": "FABBRICO", "NumCapiMalati": 2, "NumFocolai": 1 }, "geometry": { "type": "Point", "coordinates": [ 10.8128, 44.8759 ] } },
{ "type": "Feature", "properties": { "CodIstat": 24026, "DataSospetto": "2022-08-26T00:00:00", "Categoria": "UCCELLI BERSAGLIO", "Regione": "VENETO", "Prov": "VI", "Comune": "CASSOLA", "NumCapiMalati": 1, "NumFocolai": 1 }, "geometry": { "type": "Point", "coordinates": [ 11.7811, 45.7441 ] } },
{ "type": "Feature", "properties": { "CodIstat": 3106, "DataSospetto": "2022-09-28T00:00:00", "Categoria": "INSETTI", "Regione": "PIEMONTE", "Prov": "NO", "Comune": "NOVARA", "NumCapiMalati": 1, "NumFocolai": 1 }, "geometry": { "type": "Point", "coordinates": [ 8.61545584165, 45.4397 ] } },
{ "type": "Feature", "properties": { "CodIstat": 27006, "DataSospetto": "2022-06-21T00:00:00", "Categoria": "INSETTI", "Regione": "VENETO", "Prov": "VE", "Comune": "CAVARZERE", "NumCapiMalati": 2, "NumFocolai": 1 }, "geometry": { "type": "Point", "coordinates": [ 12.1198, 45.124 ] } },
{ "type": "Feature", "properties": { "CodIstat": 27006, "DataSospetto": "2022-07-01T00:00:00", "Categoria": "UCCELLI SELVATICI", "Regione": "VENETO", "Prov": "VE", "Comune": "CAVARZERE", "NumCapiMalati": 1, "NumFocolai": 1 }, "geometry": { "type": "Point", "coordinates": [ 12.1198, 45.124 ] } },
{ "type": "Feature", "properties": { "CodIstat": 27006, "DataSospetto": "2022-07-05T00:00:00", "Categoria": "INSETTI", "Regione": "VENETO", "Prov": "VE", "Comune": "CAVARZERE", "NumCapiMalati": 2, "NumFocolai": 2 }, "geometry": { "type": "Point", "coordinates": [ 12.1198, 45.124 ] } },
{ "type": "Feature", "properties": { "CodIstat": 28018, "DataSospetto": "2022-07-06T00:00:00", "Categoria": "UCCELLI SELVATICI", "Regione": "VENETO", "Prov": "PD", "Comune": "CAMPODORO", "NumCapiMalati": 1, "NumFocolai": 1 }, "geometry": { "type": "Point", "coordinates": [ 11.7525, 45.4998 ] } },
{ "type": "Feature", "properties": { "CodIstat": 35020, "DataSospetto": "2022-07-15T00:00:00", "Categoria": "INSETTI", "Regione": "EMILIA ROMAGNA", "Prov": "RE", "Comune": "CORREGGIO", "NumCapiMalati": 4, "NumFocolai": 1 }, "geometry": { "type": "Point", "coordinates": [ 10.7655, 44.7633 ] } },
{ "type": "Feature", "properties": { "CodIstat": 28035, "DataSospetto": "2022-07-12T00:00:00", "Categoria": "EQUIDI", "Regione": "VENETO", "Prov": "PD", "Comune": "CORREZZOLA", "NumCapiMalati": 1, "NumFocolai": 1 }, "geometry": { "type": "Point", "coordinates": [ 12.079, 45.2174 ] } },
{ "type": "Feature", "properties": { "CodIstat": 23032, "DataSospetto": "2022-07-26T00:00:00", "Categoria": "INSETTI", "Regione": "VENETO", "Prov": "VR", "Comune": "ERBE'", "NumCapiMalati": 1, "NumFocolai": 1 }, "geometry": { "type": "Point", "coordinates": [ 10.9733, 45.2416 ] } },
{ "type": "Feature", "properties": { "CodIstat": 27008, "DataSospetto": "2022-07-11T00:00:00", "Categoria": "UCCELLI BERSAGLIO", "Regione": "VENETO", "Prov": "VE", "Comune": "CHIOGGIA", "NumCapiMalati": 1, "NumFocolai": 1 }, "geometry": { "type": "Point", "coordinates": [ 12.246, 45.2181 ] } },
{ "type": "Feature", "properties": { "CodIstat": 27008, "DataSospetto": "2022-07-11T00:00:00", "Categoria": "UCCELLI SELVATICI", "Regione": "VENETO", "Prov": "VE", "Comune": "CHIOGGIA", "NumCapiMalati": 5, "NumFocolai": 5 }, "geometry": { "type": "Point", "coordinates": [ 12.246, 45.2181 ] } },
{ "type": "Feature", "properties": { "CodIstat": 27008, "DataSospetto": "2022-07-19T00:00:00", "Categoria": "INSETTI", "Regione": "VENETO", "Prov": "VE", "Comune": "CHIOGGIA", "NumCapiMalati": 1, "NumFocolai": 1 }, "geometry": { "type": "Point", "coordinates": [ 12.246, 45.2181 ] } },
{ "type": "Feature", "properties": { "CodIstat": 103044, "DataSospetto": "2022-09-04T00:00:00", "Categoria": "UCCELLI SELVATICI", "Regione": "PIEMONTE", "Prov": "VB", "Comune": "MERGOZZO", "NumCapiMalati": 1, "NumFocolai": 1 }, "geometry": { "type": "Point", "coordinates": [ 8.43434478597, 45.9745 ] } },
{ "type": "Feature", "properties": { "CodIstat": 27024, "DataSospetto": "2022-07-12T00:00:00", "Categoria": "UCCELLI SELVATICI", "Regione": "VENETO", "Prov": "VE", "Comune": "MIRANO", "NumCapiMalati": 2, "NumFocolai": 2 }, "geometry": { "type": "Point", "coordinates": [ 12.0876, 45.4857 ] } },
{ "type": "Feature", "properties": { "CodIstat": 27024, "DataSospetto": "2022-07-21T00:00:00", "Categoria": "UCCELLI BERSAGLIO", "Regione": "VENETO", "Prov": "VE", "Comune": "MIRANO", "NumCapiMalati": 1, "NumFocolai": 1 }, "geometry": { "type": "Point", "coordinates": [ 12.0876, 45.4857 ] } },
{ "type": "Feature", "properties": { "CodIstat": 27024, "DataSospetto": "2022-07-21T00:00:00", "Categoria": "UCCELLI SELVATICI", "Regione": "VENETO", "Prov": "VE", "Comune": "MIRANO", "NumCapiMalati": 1, "NumFocolai": 1 }, "geometry": { "type": "Point", "coordinates": [ 12.0876, 45.4857 ] } },
{ "type": "Feature", "properties": { "CodIstat": 27024, "DataSospetto": "2022-08-08T00:00:00", "Categoria": "INSETTI", "Regione": "VENETO", "Prov": "VE", "Comune": "MIRANO", "NumCapiMalati": 1, "NumFocolai": 1 }, "geometry": { "type": "Point", "coordinates": [ 12.0876, 45.4857 ] } },
{ "type": "Feature", "properties": { "CodIstat": 27024, "DataSospetto": "2022-10-04T00:00:00", "Categoria": "INSETTI", "Regione": "VENETO", "Prov": "VE", "Comune": "MIRANO", "NumCapiMalati": 1, "NumFocolai": 1 }, "geometry": { "type": "Point", "coordinates": [ 12.0876, 45.4857 ] } },
{ "type": "Feature", "properties": { "CodIstat": 38003, "DataSospetto": "2022-08-22T00:00:00", "Categoria": "UCCELLI SELVATICI", "Regione": "EMILIA ROMAGNA", "Prov": "FE", "Comune": "BONDENO", "NumCapiMalati": 1, "NumFocolai": 1 }, "geometry": { "type": "Point", "coordinates": [ 11.3735, 44.9031 ] } },
{ "type": "Feature", "properties": { "CodIstat": 28027, "DataSospetto": "2022-08-01T00:00:00", "Categoria": "INSETTI", "Regione": "VENETO", "Prov": "PD", "Comune": "CASALE DI SCODOSIA", "NumCapiMalati": 1, "NumFocolai": 1 }, "geometry": { "type": "Point", "coordinates": [ 11.485, 45.1835 ] } },
{ "type": "Feature", "properties": { "CodIstat": 3077, "DataSospetto": "2022-08-10T00:00:00", "Categoria": "INSETTI", "Regione": "PIEMONTE", "Prov": "NO", "Comune": "GRANOZZO CON MONTICELLO", "NumCapiMalati": 1, "NumFocolai": 1 }, "geometry": { "type": "Point", "coordinates": [ 8.58808766159, 45.3693 ] } },
{ "type": "Feature", "properties": { "CodIstat": 27025, "DataSospetto": "2022-07-20T00:00:00", "Categoria": "EQUIDI", "Regione": "VENETO", "Prov": "VE", "Comune": "MUSILE DI PIAVE", "NumCapiMalati": 1, "NumFocolai": 1 }, "geometry": { "type": "Point", "coordinates": [ 12.5238, 45.5997 ] } },
{ "type": "Feature", "properties": { "CodIstat": 18102, "DataSospetto": "2022-08-23T00:00:00", "Categoria": "UCCELLI BERSAGLIO", "Regione": "LOMBARDIA", "Prov": "PV", "Comune": "MORTARA", "NumCapiMalati": 1, "NumFocolai": 1 }, "geometry": { "type": "Point", "coordinates": [ 8.74799477919, 45.2502 ] } },
{ "type": "Feature", "properties": { "CodIstat": 38014, "DataSospetto": "2022-07-14T00:00:00", "Categoria": "INSETTI", "Regione": "EMILIA ROMAGNA", "Prov": "FE", "Comune": "MESOLA", "NumCapiMalati": 1, "NumFocolai": 1 }, "geometry": { "type": "Point", "coordinates": [ 12.2188, 44.8997 ] } },
{ "type": "Feature", "properties": { "CodIstat": 1193, "DataSospetto": "2022-08-10T00:00:00", "Categoria": "INSETTI", "Regione": "PIEMONTE", "Prov": "TO", "Comune": "PIOBESI TORINESE", "NumCapiMalati": 2, "NumFocolai": 1 }, "geometry": { "type": "Point", "coordinates": [ 7.60324195344, 44.9206 ] } },
{ "type": "Feature", "properties": { "CodIstat": 37006, "DataSospetto": "2022-07-12T00:00:00", "Categoria": "INSETTI", "Regione": "EMILIA ROMAGNA", "Prov": "BO", "Comune": "BOLOGNA", "NumCapiMalati": 4, "NumFocolai": 1 }, "geometry": { "type": "Point", "coordinates": [ 11.3331, 44.4981 ] } },
{ "type": "Feature", "properties": { "CodIstat": 37006, "DataSospetto": "2022-07-25T00:00:00", "Categoria": "UCCELLI BERSAGLIO", "Regione": "EMILIA ROMAGNA", "Prov": "BO", "Comune": "BOLOGNA", "NumCapiMalati": 5, "NumFocolai": 2 }, "geometry": { "type": "Point", "coordinates": [ 11.3331, 44.4981 ] } },
{ "type": "Feature", "properties": { "CodIstat": 37006, "DataSospetto": "2022-07-25T00:00:00", "Categoria": "UCCELLI SELVATICI", "Regione": "EMILIA ROMAGNA", "Prov": "BO", "Comune": "BOLOGNA", "NumCapiMalati": 18, "NumFocolai": 6 }, "geometry": { "type": "Point", "coordinates": [ 11.3331, 44.4981 ] } },
{ "type": "Feature", "properties": { "CodIstat": 93009, "DataSospetto": "2022-08-25T00:00:00", "Categoria": "INSETTI", "Regione": "FRIULI VENEZIA GIULIA", "Prov": "PN", "Comune": "CANEVA", "NumCapiMalati": 1, "NumFocolai": 1 }, "geometry": { "type": "Point", "coordinates": [ 12.4475, 45.9944 ] } },
{ "type": "Feature", "properties": { "CodIstat": 4041, "DataSospetto": "2022-09-27T00:00:00", "Categoria": "UCCELLI SELVATICI", "Regione": "PIEMONTE", "Prov": "CN", "Comune": "CARAMAGNA PIEMONTE", "NumCapiMalati": 1, "NumFocolai": 1 }, "geometry": { "type": "Point", "coordinates": [ 7.73029399838, 44.7855 ] } },
{ "type": "Feature", "properties": { "CodIstat": 17048, "DataSospetto": "2022-09-05T00:00:00", "Categoria": "EQUIDI", "Regione": "LOMBARDIA", "Prov": "BS", "Comune": "CELLATICA", "NumCapiMalati": 1, "NumFocolai": 1 }, "geometry": { "type": "Point", "coordinates": [ 10.1782, 45.5784 ] } },
{ "type": "Feature", "properties": { "CodIstat": 39014, "DataSospetto": "2022-07-21T00:00:00", "Categoria": "INSETTI", "Regione": "EMILIA ROMAGNA", "Prov": "RA", "Comune": "RAVENNA", "NumCapiMalati": 2, "NumFocolai": 1 }, "geometry": { "type": "Point", "coordinates": [ 12.1937, 44.4138 ] } },
{ "type": "Feature", "properties": { "CodIstat": 39014, "DataSospetto": "2022-07-21T00:00:00", "Categoria": "UCCELLI BERSAGLIO", "Regione": "EMILIA ROMAGNA", "Prov": "RA", "Comune": "RAVENNA", "NumCapiMalati": 1, "NumFocolai": 1 }, "geometry": { "type": "Point", "coordinates": [ 12.1937, 44.4138 ] } },
{ "type": "Feature", "properties": { "CodIstat": 28067, "DataSospetto": "2022-08-08T00:00:00", "Categoria": "EQUIDI", "Regione": "VENETO", "Prov": "PD", "Comune": "PONSO", "NumCapiMalati": 1, "NumFocolai": 1 }, "geometry": { "type": "Point", "coordinates": [ 11.5843, 45.1907 ] } },
{ "type": "Feature", "properties": { "CodIstat": 26058, "DataSospetto": "2022-07-28T00:00:00", "Categoria": "INSETTI", "Regione": "VENETO", "Prov": "TV", "Comune": "PONTE DI PIAVE", "NumCapiMalati": 3, "NumFocolai": 1 }, "geometry": { "type": "Point", "coordinates": [ 12.4672, 45.7319 ] } },
{ "type": "Feature", "properties": { "CodIstat": 30077, "DataSospetto": "2022-08-14T00:00:00", "Categoria": "UCCELLI BERSAGLIO", "Regione": "FRIULI VENEZIA GIULIA", "Prov": "UD", "Comune": "PORPETTO", "NumCapiMalati": 1, "NumFocolai": 1 }, "geometry": { "type": "Point", "coordinates": [ 13.2108, 45.8586 ] } },
{ "type": "Feature", "properties": { "CodIstat": 28031, "DataSospetto": "2022-07-22T00:00:00", "Categoria": "UCCELLI SELVATICI", "Regione": "VENETO", "Prov": "PD", "Comune": "CINTO EUGANEO", "NumCapiMalati": 1, "NumFocolai": 1 }, "geometry": { "type": "Point", "coordinates": [ 11.6681, 45.29 ] } },
{ "type": "Feature", "properties": { "CodIstat": 19026, "DataSospetto": "2022-09-06T00:00:00", "Categoria": "UCCELLI BERSAGLIO", "Regione": "LOMBARDIA", "Prov": "CR", "Comune": "CASTELVERDE", "NumCapiMalati": 1, "NumFocolai": 1 }, "geometry": { "type": "Point", "coordinates": [ 9.98948638992, 45.1998 ] } },
{ "type": "Feature", "properties": { "CodIstat": 17052, "DataSospetto": "2022-08-08T00:00:00", "Categoria": "INSETTI", "Regione": "LOMBARDIA", "Prov": "BS", "Comune": "CHIARI", "NumCapiMalati": 1, "NumFocolai": 1 }, "geometry": { "type": "Point", "coordinates": [ 9.917971003790001, 45.5332 ] } },
{ "type": "Feature", "properties": { "CodIstat": 30049, "DataSospetto": "2022-08-09T00:00:00", "Categoria": "UCCELLI BERSAGLIO", "Regione": "FRIULI VENEZIA GIULIA", "Prov": "UD", "Comune": "LIGNANO SABBIADORO", "NumCapiMalati": 3, "NumFocolai": 1 }, "geometry": { "type": "Point", "coordinates": [ 13.1024, 45.6721 ] } },
{ "type": "Feature", "properties": { "CodIstat": 87033, "DataSospetto": "2022-10-12T00:00:00", "Categoria": "EQUIDI", "Regione": "SICILIA", "Prov": "CT", "Comune": "PATERNO'", "NumCapiMalati": 21, "NumFocolai": 2 }, "geometry": { "type": "Point", "coordinates": [ 14.8558, 37.5328 ] } },
{ "type": "Feature", "properties": { "CodIstat": 28040, "DataSospetto": "2022-07-13T00:00:00", "Categoria": "UCCELLI SELVATICI", "Regione": "VENETO", "Prov": "PD", "Comune": "GALZIGNANO TERME", "NumCapiMalati": 1, "NumFocolai": 1 }, "geometry": { "type": "Point", "coordinates": [ 11.7326, 45.301 ] } },
{ "type": "Feature", "properties": { "CodIstat": 33013, "DataSospetto": "2022-08-23T00:00:00", "Categoria": "UCCELLI SELVATICI", "Regione": "EMILIA ROMAGNA", "Prov": "PC", "Comune": "CASTEL SAN GIOVANNI", "NumCapiMalati": 1, "NumFocolai": 1 }, "geometry": { "type": "Point", "coordinates": [ 9.42755790266, 45.058 ] } },
{ "type": "Feature", "properties": { "CodIstat": 33007, "DataSospetto": "2022-07-26T00:00:00", "Categoria": "INSETTI", "Regione": "EMILIA ROMAGNA", "Prov": "PC", "Comune": "CADEO", "NumCapiMalati": 2, "NumFocolai": 1 }, "geometry": { "type": "Point", "coordinates": [ 9.85056322288, 44.9756 ] } },
{ "type": "Feature", "properties": { "CodIstat": 28033, "DataSospetto": "2022-07-08T00:00:00", "Categoria": "UCCELLI SELVATICI", "Regione": "VENETO", "Prov": "PD", "Comune": "CODEVIGO", "NumCapiMalati": 1, "NumFocolai": 1 }, "geometry": { "type": "Point", "coordinates": [ 12.1414, 45.2652 ] } },
{ "type": "Feature", "properties": { "CodIstat": 30075, "DataSospetto": "2022-07-08T00:00:00", "Categoria": "UCCELLI BERSAGLIO", "Regione": "FRIULI VENEZIA GIULIA", "Prov": "UD", "Comune": "POCENIA", "NumCapiMalati": 1, "NumFocolai": 1 }, "geometry": { "type": "Point", "coordinates": [ 13.1178, 45.8525 ] } },
{ "type": "Feature", "properties": { "CodIstat": 30075, "DataSospetto": "2022-08-06T00:00:00", "Categoria": "UCCELLI BERSAGLIO", "Regione": "FRIULI VENEZIA GIULIA", "Prov": "UD", "Comune": "POCENIA", "NumCapiMalati": 2, "NumFocolai": 2 }, "geometry": { "type": "Point", "coordinates": [ 13.1178, 45.8525 ] } },
{ "type": "Feature", "properties": { "CodIstat": 1197, "DataSospetto": "2022-08-31T00:00:00", "Categoria": "INSETTI", "Regione": "PIEMONTE", "Prov": "TO", "Comune": "POIRINO", "NumCapiMalati": 1, "NumFocolai": 1 }, "geometry": { "type": "Point", "coordinates": [ 7.84263854677, 44.9027 ] } },
{ "type": "Feature", "properties": { "CodIstat": 1197, "DataSospetto": "2022-09-14T00:00:00", "Categoria": "INSETTI", "Regione": "PIEMONTE", "Prov": "TO", "Comune": "POIRINO", "NumCapiMalati": 1, "NumFocolai": 1 }, "geometry": { "type": "Point", "coordinates": [ 7.84263854677, 44.9027 ] } },
{ "type": "Feature", "properties": { "CodIstat": 1197, "DataSospetto": "2022-11-24T00:00:00", "Categoria": "UCCELLI BERSAGLIO", "Regione": "PIEMONTE", "Prov": "TO", "Comune": "POIRINO", "NumCapiMalati": 1, "NumFocolai": 1 }, "geometry": { "type": "Point", "coordinates": [ 7.84263854677, 44.9027 ] } },
{ "type": "Feature", "properties": { "CodIstat": 1197, "DataSospetto": "2022-11-28T00:00:00", "Categoria": "UCCELLI BERSAGLIO", "Regione": "PIEMONTE", "Prov": "TO", "Comune": "POIRINO", "NumCapiMalati": 1, "NumFocolai": 1 }, "geometry": { "type": "Point", "coordinates": [ 7.84263854677, 44.9027 ] } },
{ "type": "Feature", "properties": { "CodIstat": 33002, "DataSospetto": "2022-06-27T00:00:00", "Categoria": "INSETTI", "Regione": "EMILIA ROMAGNA", "Prov": "PC", "Comune": "ALSENO", "NumCapiMalati": 6, "NumFocolai": 1 }, "geometry": { "type": "Point", "coordinates": [ 9.96248439383, 44.8874 ] } },
{ "type": "Feature", "properties": { "CodIstat": 2003, "DataSospetto": "2022-08-03T00:00:00", "Categoria": "INSETTI", "Regione": "PIEMONTE", "Prov": "VC", "Comune": "ALBANO VERCELLESE", "NumCapiMalati": 3, "NumFocolai": 1 }, "geometry": { "type": "Point", "coordinates": [ 8.38079400809, 45.4256 ] } },
{ "type": "Feature", "properties": { "CodIstat": 2003, "DataSospetto": "2022-08-19T00:00:00", "Categoria": "INSETTI", "Regione": "PIEMONTE", "Prov": "VC", "Comune": "ALBANO VERCELLESE", "NumCapiMalati": 3, "NumFocolai": 1 }, "geometry": { "type": "Point", "coordinates": [ 8.38079400809, 45.4256 ] } },
{ "type": "Feature", "properties": { "CodIstat": 90054, "DataSospetto": "2022-08-31T00:00:00", "Categoria": "UCCELLI SELVATICI", "Regione": "SARDEGNA", "Prov": "SS", "Comune": "PALAU", "NumCapiMalati": 1, "NumFocolai": 1 }, "geometry": { "type": "Point", "coordinates": [ 9.355988642910001, 41.1679 ] } },
{ "type": "Feature", "properties": { "CodIstat": 26066, "DataSospetto": "2022-08-22T00:00:00", "Categoria": "EQUIDI", "Regione": "VENETO", "Prov": "TV", "Comune": "RESANA", "NumCapiMalati": 1, "NumFocolai": 1 }, "geometry": { "type": "Point", "coordinates": [ 11.9678, 45.6354 ] } },
{ "type": "Feature", "properties": { "CodIstat": 17072, "DataSospetto": "2022-07-08T00:00:00", "Categoria": "INSETTI", "Regione": "LOMBARDIA", "Prov": "BS", "Comune": "FLERO", "NumCapiMalati": 1, "NumFocolai": 1 }, "geometry": { "type": "Point", "coordinates": [ 10.1721, 45.4808 ] } },
{ "type": "Feature", "properties": { "CodIstat": 34009, "DataSospetto": "2022-08-12T00:00:00", "Categoria": "UCCELLI BERSAGLIO", "Regione": "EMILIA ROMAGNA", "Prov": "PR", "Comune": "COLLECCHIO", "NumCapiMalati": 2, "NumFocolai": 2 }, "geometry": { "type": "Point", "coordinates": [ 10.2074, 44.7511 ] } },
{ "type": "Feature", "properties": { "CodIstat": 34009, "DataSospetto": "2022-08-17T00:00:00", "Categoria": "INSETTI", "Regione": "EMILIA ROMAGNA", "Prov": "PR", "Comune": "COLLECCHIO", "NumCapiMalati": 1, "NumFocolai": 1 }, "geometry": { "type": "Point", "coordinates": [ 10.2074, 44.7511 ] } },
{ "type": "Feature", "properties": { "CodIstat": 4203, "DataSospetto": "2022-08-24T00:00:00", "Categoria": "INSETTI", "Regione": "PIEMONTE", "Prov": "CN", "Comune": "SALUZZO", "NumCapiMalati": 1, "NumFocolai": 1 }, "geometry": { "type": "Point", "coordinates": [ 7.4899486624, 44.6701 ] } },
{ "type": "Feature", "properties": { "CodIstat": 19098, "DataSospetto": "2022-09-02T00:00:00", "Categoria": "UCCELLI BERSAGLIO", "Regione": "LOMBARDIA", "Prov": "CR", "Comune": "SORESINA", "NumCapiMalati": 1, "NumFocolai": 1 }, "geometry": { "type": "Point", "coordinates": [ 9.85081880441, 45.2908 ] } },
{ "type": "Feature", "properties": { "CodIstat": 20061, "DataSospetto": "2022-09-26T00:00:00", "Categoria": "UCCELLI BERSAGLIO", "Regione": "LOMBARDIA", "Prov": "MN", "Comune": "SERMIDE E FELONICA", "NumCapiMalati": 1, "NumFocolai": 1 }, "geometry": { "type": "Point", "coordinates": [ 11.2955, 44.9784 ] } },
{ "type": "Feature", "properties": { "CodIstat": 34030, "DataSospetto": "2022-08-02T00:00:00", "Categoria": "INSETTI", "Regione": "EMILIA ROMAGNA", "Prov": "PR", "Comune": "ROCCABIANCA", "NumCapiMalati": 2, "NumFocolai": 1 }, "geometry": { "type": "Point", "coordinates": [ 10.2113, 44.998 ] } },
{ "type": "Feature", "properties": { "CodIstat": 23071, "DataSospetto": "2022-07-19T00:00:00", "Categoria": "UCCELLI BERSAGLIO", "Regione": "VENETO", "Prov": "VR", "Comune": "SAN GIOVANNI LUPATOTO", "NumCapiMalati": 1, "NumFocolai": 1 }, "geometry": { "type": "Point", "coordinates": [ 11.0375, 45.369 ] } },
{ "type": "Feature", "properties": { "CodIstat": 5097, "DataSospetto": "2022-09-15T00:00:00", "Categoria": "UCCELLI BERSAGLIO", "Regione": "PIEMONTE", "Prov": "AT", "Comune": "SAN DAMIANO D'ASTI", "NumCapiMalati": 3, "NumFocolai": 2 }, "geometry": { "type": "Point", "coordinates": [ 8.05177936568, 44.8454 ] } },
{ "type": "Feature", "properties": { "CodIstat": 111073, "DataSospetto": "2022-10-14T00:00:00", "Categoria": "UCCELLI BERSAGLIO", "Regione": "SARDEGNA", "Prov": "SU", "Comune": "SEGARIU", "NumCapiMalati": 2, "NumFocolai": 1 }, "geometry": { "type": "Point", "coordinates": [ 8.98411663521, 39.5698 ] } },
{ "type": "Feature", "properties": { "CodIstat": 28094, "DataSospetto": "2022-07-07T00:00:00", "Categoria": "INSETTI", "Regione": "VENETO", "Prov": "PD", "Comune": "TRIBANO", "NumCapiMalati": 1, "NumFocolai": 1 }, "geometry": { "type": "Point", "coordinates": [ 11.8383, 45.1969 ] } },
{ "type": "Feature", "properties": { "CodIstat": 28094, "DataSospetto": "2022-07-19T00:00:00", "Categoria": "INSETTI", "Regione": "VENETO", "Prov": "PD", "Comune": "TRIBANO", "NumCapiMalati": 1, "NumFocolai": 1 }, "geometry": { "type": "Point", "coordinates": [ 11.8383, 45.1969 ] } },
{ "type": "Feature", "properties": { "CodIstat": 37050, "DataSospetto": "2022-07-26T00:00:00", "Categoria": "INSETTI", "Regione": "EMILIA ROMAGNA", "Prov": "BO", "Comune": "SALA BOLOGNESE", "NumCapiMalati": 1, "NumFocolai": 1 }, "geometry": { "type": "Point", "coordinates": [ 11.268, 44.6269 ] } },
{ "type": "Feature", "properties": { "CodIstat": 29052, "DataSospetto": "2022-06-28T00:00:00", "Categoria": "UCCELLI SELVATICI", "Regione": "VENETO", "Prov": "RO", "Comune": "PORTO VIRO", "NumCapiMalati": 1, "NumFocolai": 1 }, "geometry": { "type": "Point", "coordinates": [ 12.3044, 45.0148 ] } },
{ "type": "Feature", "properties": { "CodIstat": 29052, "DataSospetto": "2022-07-19T00:00:00", "Categoria": "INSETTI", "Regione": "VENETO", "Prov": "RO", "Comune": "PORTO VIRO", "NumCapiMalati": 1, "NumFocolai": 1 }, "geometry": { "type": "Point", "coordinates": [ 12.3044, 45.0148 ] } },
{ "type": "Feature", "properties": { "CodIstat": 29052, "DataSospetto": "2022-08-01T00:00:00", "Categoria": "INSETTI", "Regione": "VENETO", "Prov": "RO", "Comune": "PORTO VIRO", "NumCapiMalati": 1, "NumFocolai": 1 }, "geometry": { "type": "Point", "coordinates": [ 12.3044, 45.0148 ] } },
{ "type": "Feature", "properties": { "CodIstat": 29052, "DataSospetto": "2022-09-30T00:00:00", "Categoria": "UCCELLI BERSAGLIO", "Regione": "VENETO", "Prov": "RO", "Comune": "PORTO VIRO", "NumCapiMalati": 1, "NumFocolai": 1 }, "geometry": { "type": "Point", "coordinates": [ 12.3044, 45.0148 ] } },
{ "type": "Feature", "properties": { "CodIstat": 27031, "DataSospetto": "2022-07-12T00:00:00", "Categoria": "INSETTI", "Regione": "VENETO", "Prov": "VE", "Comune": "QUARTO D'ALTINO", "NumCapiMalati": 2, "NumFocolai": 1 }, "geometry": { "type": "Point", "coordinates": [ 12.4091, 45.5606 ] } },
{ "type": "Feature", "properties": { "CodIstat": 28026, "DataSospetto": "2022-07-19T00:00:00", "Categoria": "EQUIDI", "Regione": "VENETO", "Prov": "PD", "Comune": "CARTURA", "NumCapiMalati": 1, "NumFocolai": 1 }, "geometry": { "type": "Point", "coordinates": [ 11.8705, 45.2712 ] } },
{ "type": "Feature", "properties": { "CodIstat": 24117, "DataSospetto": "2022-07-22T00:00:00", "Categoria": "UCCELLI BERSAGLIO", "Regione": "VENETO", "Prov": "VI", "Comune": "VILLAGA", "NumCapiMalati": 1, "NumFocolai": 1 }, "geometry": { "type": "Point", "coordinates": [ 11.5253, 45.3917 ] } },
{ "type": "Feature", "properties": { "CodIstat": 28085, "DataSospetto": "2022-06-28T00:00:00", "Categoria": "UCCELLI SELVATICI", "Regione": "VENETO", "Prov": "PD", "Comune": "SAONARA", "NumCapiMalati": 1, "NumFocolai": 1 }, "geometry": { "type": "Point", "coordinates": [ 11.9816, 45.3755 ] } },
{ "type": "Feature", "properties": { "CodIstat": 28085, "DataSospetto": "2022-07-27T00:00:00", "Categoria": "EQUIDI", "Regione": "VENETO", "Prov": "PD", "Comune": "SAONARA", "NumCapiMalati": 1, "NumFocolai": 1 }, "geometry": { "type": "Point", "coordinates": [ 11.9816, 45.3755 ] } },
{ "type": "Feature", "properties": { "CodIstat": 26095, "DataSospetto": "2022-08-12T00:00:00", "Categoria": "UCCELLI BERSAGLIO", "Regione": "VENETO", "Prov": "TV", "Comune": "ZERO BRANCO", "NumCapiMalati": 1, "NumFocolai": 1 }, "geometry": { "type": "Point", "coordinates": [ 12.1421, 45.6073 ] } },
{ "type": "Feature", "properties": { "CodIstat": 23097, "DataSospetto": "2022-08-14T00:00:00", "Categoria": "UCCELLI SELVATICI", "Regione": "VENETO", "Prov": "VR", "Comune": "ZEVIO", "NumCapiMalati": 1, "NumFocolai": 1 }, "geometry": { "type": "Point", "coordinates": [ 11.122, 45.3621 ] } },
{ "type": "Feature", "properties": { "CodIstat": 2158, "DataSospetto": "2022-08-10T00:00:00", "Categoria": "INSETTI", "Regione": "PIEMONTE", "Prov": "VC", "Comune": "VERCELLI", "NumCapiMalati": 1, "NumFocolai": 1 }, "geometry": { "type": "Point", "coordinates": [ 8.411032351799999, 45.3197 ] } },
{ "type": "Feature", "properties": { "CodIstat": 2158, "DataSospetto": "2022-10-10T00:00:00", "Categoria": "UCCELLI BERSAGLIO", "Regione": "PIEMONTE", "Prov": "VC", "Comune": "VERCELLI", "NumCapiMalati": 1, "NumFocolai": 1 }, "geometry": { "type": "Point", "coordinates": [ 8.411032351799999, 45.3197 ] } },
{ "type": "Feature", "properties": { "CodIstat": 27034, "DataSospetto": "2022-07-12T00:00:00", "Categoria": "INSETTI", "Regione": "VENETO", "Prov": "VE", "Comune": "SAN MICHELE AL TAGLIAMENTO", "NumCapiMalati": 1, "NumFocolai": 1 }, "geometry": { "type": "Point", "coordinates": [ 13.0026, 45.7089 ] } },
{ "type": "Feature", "properties": { "CodIstat": 28099, "DataSospetto": "2022-08-02T00:00:00", "Categoria": "UCCELLI SELVATICI", "Regione": "VENETO", "Prov": "PD", "Comune": "VIGODARZERE", "NumCapiMalati": 1, "NumFocolai": 1 }, "geometry": { "type": "Point", "coordinates": [ 11.8737, 45.4818 ] } },
{ "type": "Feature", "properties": { "CodIstat": 29050, "DataSospetto": "2022-07-04T00:00:00", "Categoria": "UCCELLI SELVATICI", "Regione": "VENETO", "Prov": "RO", "Comune": "VILLANOVA DEL GHEBBO", "NumCapiMalati": 3, "NumFocolai": 1 }, "geometry": { "type": "Point", "coordinates": [ 11.6586, 45.0671 ] } },
{ "type": "Feature", "properties": { "CodIstat": 29050, "DataSospetto": "2022-07-14T00:00:00", "Categoria": "INSETTI", "Regione": "VENETO", "Prov": "RO", "Comune": "VILLANOVA DEL GHEBBO", "NumCapiMalati": 2, "NumFocolai": 2 }, "geometry": { "type": "Point", "coordinates": [ 11.6586, 45.0671 ] } },
{ "type": "Feature", "properties": { "CodIstat": 24116, "DataSospetto": "2022-07-29T00:00:00", "Categoria": "UCCELLI BERSAGLIO", "Regione": "VENETO", "Prov": "VI", "Comune": "VICENZA", "NumCapiMalati": 1, "NumFocolai": 1 }, "geometry": { "type": "Point", "coordinates": [ 11.5538, 45.5449 ] } },
{ "type": "Feature", "properties": { "CodIstat": 24116, "DataSospetto": "2022-09-02T00:00:00", "Categoria": "UCCELLI BERSAGLIO", "Regione": "VENETO", "Prov": "VI", "Comune": "VICENZA", "NumCapiMalati": 1, "NumFocolai": 1 }, "geometry": { "type": "Point", "coordinates": [ 11.5538, 45.5449 ] } },
{ "type": "Feature", "properties": { "CodIstat": 24116, "DataSospetto": "2022-09-19T00:00:00", "Categoria": "UCCELLI SELVATICI", "Regione": "VENETO", "Prov": "VI", "Comune": "VICENZA", "NumCapiMalati": 1, "NumFocolai": 1 }, "geometry": { "type": "Point", "coordinates": [ 11.5538, 45.5449 ] } },
{ "type": "Feature", "properties": { "CodIstat": 26063, "DataSospetto": "2022-08-13T00:00:00", "Categoria": "EQUIDI", "Regione": "VENETO", "Prov": "TV", "Comune": "PREGANZIOL", "NumCapiMalati": 1, "NumFocolai": 1 }, "geometry": { "type": "Point", "coordinates": [ 12.2269, 45.6076 ] } },
{ "type": "Feature", "properties": { "CodIstat": 26068, "DataSospetto": "2022-08-30T00:00:00", "Categoria": "INSETTI", "Regione": "VENETO", "Prov": "TV", "Comune": "RIESE PIO X", "NumCapiMalati": 1, "NumFocolai": 1 }, "geometry": { "type": "Point", "coordinates": [ 11.913, 45.7262 ] } },
{ "type": "Feature", "properties": { "CodIstat": 35037, "DataSospetto": "2022-07-14T00:00:00", "Categoria": "INSETTI", "Regione": "EMILIA ROMAGNA", "Prov": "RE", "Comune": "SAN MARTINO IN RIO", "NumCapiMalati": 1, "NumFocolai": 1 }, "geometry": { "type": "Point", "coordinates": [ 10.7833, 44.7154 ] } },
{ "type": "Feature", "properties": { "CodIstat": 27043, "DataSospetto": "2022-07-28T00:00:00", "Categoria": "UCCELLI SELVATICI", "Regione": "VENETO", "Prov": "VE", "Comune": "VIGONOVO", "NumCapiMalati": 1, "NumFocolai": 1 }, "geometry": { "type": "Point", "coordinates": [ 12.0102, 45.3901 ] } },
{ "type": "Feature", "properties": { "CodIstat": 28100, "DataSospetto": "2022-09-23T00:00:00", "Categoria": "UCCELLI BERSAGLIO", "Regione": "VENETO", "Prov": "PD", "Comune": "VIGONZA", "NumCapiMalati": 1, "NumFocolai": 1 }, "geometry": { "type": "Point", "coordinates": [ 11.9714, 45.4488 ] } },
{ "type": "Feature", "properties": { "CodIstat": 36036, "DataSospetto": "2022-08-04T00:00:00", "Categoria": "INSETTI", "Regione": "EMILIA ROMAGNA", "Prov": "MO", "Comune": "SAN CESARIO SUL PANARO", "NumCapiMalati": 1, "NumFocolai": 1 }, "geometry": { "type": "Point", "coordinates": [ 11.0237, 44.5735 ] } },
{ "type": "Feature", "properties": { "CodIstat": 29037, "DataSospetto": "2022-08-01T00:00:00", "Categoria": "UCCELLI SELVATICI", "Regione": "VENETO", "Prov": "RO", "Comune": "POLESELLA", "NumCapiMalati": 1, "NumFocolai": 1 }, "geometry": { "type": "Point", "coordinates": [ 11.7388, 44.9692 ] } },
{ "type": "Feature", "properties": { "CodIstat": 29037, "DataSospetto": "2022-08-25T00:00:00", "Categoria": "UCCELLI SELVATICI", "Regione": "VENETO", "Prov": "RO", "Comune": "POLESELLA", "NumCapiMalati": 1, "NumFocolai": 1 }, "geometry": { "type": "Point", "coordinates": [ 11.7388, 44.9692 ] } },
{ "type": "Feature", "properties": { "CodIstat": 23095, "DataSospetto": "2022-08-16T00:00:00", "Categoria": "INSETTI", "Regione": "VENETO", "Prov": "VR", "Comune": "VILLA BARTOLOMEA", "NumCapiMalati": 1, "NumFocolai": 1 }, "geometry": { "type": "Point", "coordinates": [ 11.3505, 45.1182 ] } },
{ "type": "Feature", "properties": { "CodIstat": 23072, "DataSospetto": "2022-09-13T00:00:00", "Categoria": "UCCELLI SELVATICI", "Regione": "VENETO", "Prov": "VR", "Comune": "SANGUINETTO", "NumCapiMalati": 1, "NumFocolai": 1 }, "geometry": { "type": "Point", "coordinates": [ 11.1538, 45.1736 ] } },
{ "type": "Feature", "properties": { "CodIstat": 20057, "DataSospetto": "2022-07-05T00:00:00", "Categoria": "INSETTI", "Regione": "LOMBARDIA", "Prov": "MN", "Comune": "SAN GIORGIO BIGARELLO", "NumCapiMalati": 1, "NumFocolai": 1 }, "geometry": { "type": "Point", "coordinates": [ 10.8833, 45.1836 ] } },
{ "type": "Feature", "properties": { "CodIstat": 87037, "DataSospetto": "2022-10-14T00:00:00", "Categoria": "EQUIDI", "Regione": "SICILIA", "Prov": "CT", "Comune": "RAMACCA", "NumCapiMalati": 3, "NumFocolai": 2 }, "geometry": { "type": "Point", "coordinates": [ 14.6995, 37.4368 ] } },
{ "type": "Feature", "properties": { "CodIstat": 4089, "DataSospetto": "2022-07-25T00:00:00", "Categoria": "UCCELLI BERSAGLIO", "Regione": "PIEMONTE", "Prov": "CN", "Comune": "FOSSANO", "NumCapiMalati": 1, "NumFocolai": 1 }, "geometry": { "type": "Point", "coordinates": [ 7.69245774654, 44.5436 ] } },
{ "type": "Feature", "properties": { "CodIstat": 23091, "DataSospetto": "2022-08-01T00:00:00", "Categoria": "UCCELLI BERSAGLIO", "Regione": "VENETO", "Prov": "VR", "Comune": "VERONA", "NumCapiMalati": 2, "NumFocolai": 1 }, "geometry": { "type": "Point", "coordinates": [ 11.0021, 45.4487 ] } },
{ "type": "Feature", "properties": { "CodIstat": 23091, "DataSospetto": "2022-09-05T00:00:00", "Categoria": "INSETTI", "Regione": "VENETO", "Prov": "VR", "Comune": "VERONA", "NumCapiMalati": 1, "NumFocolai": 1 }, "geometry": { "type": "Point", "coordinates": [ 11.0021, 45.4487 ] } },
{ "type": "Feature", "properties": { "CodIstat": 38022, "DataSospetto": "2022-08-22T00:00:00", "Categoria": "UCCELLI SELVATICI", "Regione": "EMILIA ROMAGNA", "Prov": "FE", "Comune": "VIGARANO MAINARDA", "NumCapiMalati": 2, "NumFocolai": 2 }, "geometry": { "type": "Point", "coordinates": [ 11.4963, 44.8524 ] } },
{ "type": "Feature", "properties": { "CodIstat": 27042, "DataSospetto": "2022-07-04T00:00:00", "Categoria": "UCCELLI BERSAGLIO", "Regione": "VENETO", "Prov": "VE", "Comune": "VENEZIA", "NumCapiMalati": 4, "NumFocolai": 2 }, "geometry": { "type": "Point", "coordinates": [ 12.3455, 45.4677 ] } },
{ "type": "Feature", "properties": { "CodIstat": 27042, "DataSospetto": "2022-07-04T00:00:00", "Categoria": "UCCELLI SELVATICI", "Regione": "VENETO", "Prov": "VE", "Comune": "VENEZIA", "NumCapiMalati": 15, "NumFocolai": 6 }, "geometry": { "type": "Point", "coordinates": [ 12.3455, 45.4677 ] } },
{ "type": "Feature", "properties": { "CodIstat": 27042, "DataSospetto": "2022-07-07T00:00:00", "Categoria": "INSETTI", "Regione": "VENETO", "Prov": "VE", "Comune": "VENEZIA", "NumCapiMalati": 4, "NumFocolai": 1 }, "geometry": { "type": "Point", "coordinates": [ 12.3455, 45.4677 ] } },
{ "type": "Feature", "properties": { "CodIstat": 27042, "DataSospetto": "2022-07-12T00:00:00", "Categoria": "UCCELLI SELVATICI", "Regione": "VENETO", "Prov": "VE", "Comune": "VENEZIA", "NumCapiMalati": 6, "NumFocolai": 4 }, "geometry": { "type": "Point", "coordinates": [ 12.3455, 45.4677 ] } },
{ "type": "Feature", "properties": { "CodIstat": 27042, "DataSospetto": "2022-07-18T00:00:00", "Categoria": "UCCELLI BERSAGLIO", "Regione": "VENETO", "Prov": "VE", "Comune": "VENEZIA", "NumCapiMalati": 1, "NumFocolai": 1 }, "geometry": { "type": "Point", "coordinates": [ 12.3455, 45.4677 ] } },
{ "type": "Feature", "properties": { "CodIstat": 27042, "DataSospetto": "2022-08-16T00:00:00", "Categoria": "INSETTI", "Regione": "VENETO", "Prov": "VE", "Comune": "VENEZIA", "NumCapiMalati": 1, "NumFocolai": 1 }, "geometry": { "type": "Point", "coordinates": [ 12.3455, 45.4677 ] } },
{ "type": "Feature", "properties": { "CodIstat": 23096, "DataSospetto": "2022-07-08T00:00:00", "Categoria": "UCCELLI SELVATICI", "Regione": "VENETO", "Prov": "VR", "Comune": "VILLAFRANCA DI VERONA", "NumCapiMalati": 1, "NumFocolai": 1 }, "geometry": { "type": "Point", "coordinates": [ 10.8499, 45.36 ] } },
{ "type": "Feature", "properties": { "CodIstat": 17160, "DataSospetto": "2022-08-11T00:00:00", "Categoria": "EQUIDI", "Regione": "LOMBARDIA", "Prov": "BS", "Comune": "REMEDELLO", "NumCapiMalati": 1, "NumFocolai": 1 }, "geometry": { "type": "Point", "coordinates": [ 10.3693, 45.2746 ] } },
{ "type": "Feature", "properties": { "CodIstat": 29040, "DataSospetto": "2022-06-15T00:00:00", "Categoria": "UCCELLI BERSAGLIO", "Regione": "VENETO", "Prov": "RO", "Comune": "ROSOLINA", "NumCapiMalati": 1, "NumFocolai": 1 }, "geometry": { "type": "Point", "coordinates": [ 12.297, 45.089 ] } },
{ "type": "Feature", "properties": { "CodIstat": 29040, "DataSospetto": "2022-06-15T00:00:00", "Categoria": "UCCELLI SELVATICI", "Regione": "VENETO", "Prov": "RO", "Comune": "ROSOLINA", "NumCapiMalati": 2, "NumFocolai": 2 }, "geometry": { "type": "Point", "coordinates": [ 12.297, 45.089 ] } },
{ "type": "Feature", "properties": { "CodIstat": 29040, "DataSospetto": "2022-07-18T00:00:00", "Categoria": "UCCELLI SELVATICI", "Regione": "VENETO", "Prov": "RO", "Comune": "ROSOLINA", "NumCapiMalati": 1, "NumFocolai": 1 }, "geometry": { "type": "Point", "coordinates": [ 12.297, 45.089 ] } },
{ "type": "Feature", "properties": { "CodIstat": 27033, "DataSospetto": "2022-08-26T00:00:00", "Categoria": "UCCELLI SELVATICI", "Regione": "VENETO", "Prov": "VE", "Comune": "SAN DONA' DI PIAVE", "NumCapiMalati": 1, "NumFocolai": 1 }, "geometry": { "type": "Point", "coordinates": [ 12.5969, 45.6276 ] } },
{ "type": "Feature", "properties": { "CodIstat": 27033, "DataSospetto": "2022-09-09T00:00:00", "Categoria": "UCCELLI SELVATICI", "Regione": "VENETO", "Prov": "VE", "Comune": "SAN DONA' DI PIAVE", "NumCapiMalati": 1, "NumFocolai": 1 }, "geometry": { "type": "Point", "coordinates": [ 12.5969, 45.6276 ] } },
{ "type": "Feature", "properties": { "CodIstat": 111072, "DataSospetto": "2022-08-10T00:00:00", "Categoria": "UCCELLI BERSAGLIO", "Regione": "SARDEGNA", "Prov": "SU", "Comune": "SARDARA", "NumCapiMalati": 2, "NumFocolai": 1 }, "geometry": { "type": "Point", "coordinates": [ 8.80749759881, 39.6086 ] } },
{ "type": "Feature", "properties": { "CodIstat": 111072, "DataSospetto": "2022-08-22T00:00:00", "Categoria": "UCCELLI BERSAGLIO", "Regione": "SARDEGNA", "Prov": "SU", "Comune": "SARDARA", "NumCapiMalati": 1, "NumFocolai": 1 }, "geometry": { "type": "Point", "coordinates": [ 8.80749759881, 39.6086 ] } },
{ "type": "Feature", "properties": { "CodIstat": 111072, "DataSospetto": "2022-10-07T00:00:00", "Categoria": "UCCELLI BERSAGLIO", "Regione": "SARDEGNA", "Prov": "SU", "Comune": "SARDARA", "NumCapiMalati": 1, "NumFocolai": 1 }, "geometry": { "type": "Point", "coordinates": [ 8.80749759881, 39.6086 ] } },
{ "type": "Feature", "properties": { "CodIstat": 28041, "DataSospetto": "2022-07-26T00:00:00", "Categoria": "INSETTI", "Regione": "VENETO", "Prov": "PD", "Comune": "GAZZO", "NumCapiMalati": 2, "NumFocolai": 1 }, "geometry": { "type": "Point", "coordinates": [ 11.6931, 45.5667 ] } },
{ "type": "Feature", "properties": { "CodIstat": 103015, "DataSospetto": "2022-07-30T00:00:00", "Categoria": "UCCELLI SELVATICI", "Regione": "PIEMONTE", "Prov": "VB", "Comune": "CAMBIASCA", "NumCapiMalati": 1, "NumFocolai": 1 }, "geometry": { "type": "Point", "coordinates": [ 8.54147946372, 45.9692 ] } },
{ "type": "Feature", "properties": { "CodIstat": 24075, "DataSospetto": "2022-07-29T00:00:00", "Categoria": "UCCELLI BERSAGLIO", "Regione": "VENETO", "Prov": "VI", "Comune": "ORGIANO", "NumCapiMalati": 1, "NumFocolai": 1 }, "geometry": { "type": "Point", "coordinates": [ 11.4661, 45.3447 ] } },
{ "type": "Feature", "properties": { "CodIstat": 35028, "DataSospetto": "2022-06-30T00:00:00", "Categoria": "INSETTI", "Regione": "EMILIA ROMAGNA", "Prov": "RE", "Comune": "NOVELLARA", "NumCapiMalati": 1, "NumFocolai": 1 }, "geometry": { "type": "Point", "coordinates": [ 10.7084, 44.8453 ] } },
{ "type": "Feature", "properties": { "CodIstat": 35028, "DataSospetto": "2022-07-04T00:00:00", "Categoria": "UCCELLI BERSAGLIO", "Regione": "EMILIA ROMAGNA", "Prov": "RE", "Comune": "NOVELLARA", "NumCapiMalati": 7, "NumFocolai": 2 }, "geometry": { "type": "Point", "coordinates": [ 10.7084, 44.8453 ] } },
{ "type": "Feature", "properties": { "CodIstat": 28060, "DataSospetto": "2022-07-13T00:00:00", "Categoria": "UCCELLI BERSAGLIO", "Regione": "VENETO", "Prov": "PD", "Comune": "PADOVA", "NumCapiMalati": 8, "NumFocolai": 3 }, "geometry": { "type": "Point", "coordinates": [ 11.8831, 45.4034 ] } },
{ "type": "Feature", "properties": { "CodIstat": 28060, "DataSospetto": "2022-07-13T00:00:00", "Categoria": "UCCELLI SELVATICI", "Regione": "VENETO", "Prov": "PD", "Comune": "PADOVA", "NumCapiMalati": 6, "NumFocolai": 4 }, "geometry": { "type": "Point", "coordinates": [ 11.8831, 45.4034 ] } },
{ "type": "Feature", "properties": { "CodIstat": 28060, "DataSospetto": "2022-07-14T00:00:00", "Categoria": "UCCELLI SELVATICI", "Regione": "VENETO", "Prov": "PD", "Comune": "PADOVA", "NumCapiMalati": 1, "NumFocolai": 1 }, "geometry": { "type": "Point", "coordinates": [ 11.8831, 45.4034 ] } },
{ "type": "Feature", "properties": { "CodIstat": 28060, "DataSospetto": "2022-08-04T00:00:00", "Categoria": "EQUIDI", "Regione": "VENETO", "Prov": "PD", "Comune": "PADOVA", "NumCapiMalati": 1, "NumFocolai": 1 }, "geometry": { "type": "Point", "coordinates": [ 11.8831, 45.4034 ] } },
{ "type": "Feature", "properties": { "CodIstat": 28080, "DataSospetto": "2022-09-05T00:00:00", "Categoria": "INSETTI", "Regione": "VENETO", "Prov": "PD", "Comune": "SANTA GIUSTINA IN COLLE", "NumCapiMalati": 1, "NumFocolai": 1 }, "geometry": { "type": "Point", "coordinates": [ 11.8954, 45.5777 ] } },
{ "type": "Feature", "properties": { "CodIstat": 93051, "DataSospetto": "2022-07-14T00:00:00", "Categoria": "UCCELLI BERSAGLIO", "Regione": "FRIULI VENEZIA GIULIA", "Prov": "PN", "Comune": "ZOPPOLA", "NumCapiMalati": 1, "NumFocolai": 1 }, "geometry": { "type": "Point", "coordinates": [ 12.7779, 45.9715 ] } },
{ "type": "Feature", "properties": { "CodIstat": 33022, "DataSospetto": "2022-08-05T00:00:00", "Categoria": "EQUIDI", "Regione": "EMILIA ROMAGNA", "Prov": "PC", "Comune": "GAZZOLA", "NumCapiMalati": 2, "NumFocolai": 1 }, "geometry": { "type": "Point", "coordinates": [ 9.55361285349, 44.9393 ] } },
{ "type": "Feature", "properties": { "CodIstat": 103033, "DataSospetto": "2022-07-20T00:00:00", "Categoria": "UCCELLI SELVATICI", "Regione": "PIEMONTE", "Prov": "VB", "Comune": "GHIFFA", "NumCapiMalati": 1, "NumFocolai": 1 }, "geometry": { "type": "Point", "coordinates": [ 8.61712013675, 45.9582 ] } },
{ "type": "Feature", "properties": { "CodIstat": 29005, "DataSospetto": "2022-08-27T00:00:00", "Categoria": "UCCELLI SELVATICI", "Regione": "VENETO", "Prov": "RO", "Comune": "BAGNOLO DI PO", "NumCapiMalati": 1, "NumFocolai": 1 }, "geometry": { "type": "Point", "coordinates": [ 11.5023, 44.9999 ] } },
{ "type": "Feature", "properties": { "CodIstat": 108009, "DataSospetto": "2022-09-26T00:00:00", "Categoria": "UCCELLI SELVATICI", "Regione": "LOMBARDIA", "Prov": "MB", "Comune": "BIASSONO", "NumCapiMalati": 1, "NumFocolai": 1 }, "geometry": { "type": "Point", "coordinates": [ 9.277001086329999, 45.63 ] } },
{ "type": "Feature", "properties": { "CodIstat": 31018, "DataSospetto": "2022-07-07T00:00:00", "Categoria": "INSETTI", "Regione": "FRIULI VENEZIA GIULIA", "Prov": "GO", "Comune": "SAN CANZIAN D'ISONZO", "NumCapiMalati": 1, "NumFocolai": 1 }, "geometry": { "type": "Point", "coordinates": [ 13.4641, 45.7781 ] } },
{ "type": "Feature", "properties": { "CodIstat": 29047, "DataSospetto": "2022-07-12T00:00:00", "Categoria": "UCCELLI SELVATICI", "Regione": "VENETO", "Prov": "RO", "Comune": "TRECENTA", "NumCapiMalati": 1, "NumFocolai": 1 }, "geometry": { "type": "Point", "coordinates": [ 11.4506, 45.0209 ] } },
{ "type": "Feature", "properties": { "CodIstat": 93040, "DataSospetto": "2022-09-09T00:00:00", "Categoria": "EQUIDI", "Regione": "FRIULI VENEZIA GIULIA", "Prov": "PN", "Comune": "SAN QUIRINO", "NumCapiMalati": 1, "NumFocolai": 1 }, "geometry": { "type": "Point", "coordinates": [ 12.6834, 46.0378 ] } },
{ "type": "Feature", "properties": { "CodIstat": 18035, "DataSospetto": "2022-09-29T00:00:00", "Categoria": "UCCELLI SELVATICI", "Regione": "LOMBARDIA", "Prov": "PV", "Comune": "CASSOLNOVO", "NumCapiMalati": 1, "NumFocolai": 1 }, "geometry": { "type": "Point", "coordinates": [ 8.802696679369999, 45.3684 ] } },
{ "type": "Feature", "properties": { "CodIstat": 18057, "DataSospetto": "2022-07-12T00:00:00", "Categoria": "UCCELLI SELVATICI", "Regione": "LOMBARDIA", "Prov": "PV", "Comune": "CORVINO SAN QUIRICO", "NumCapiMalati": 1, "NumFocolai": 1 }, "geometry": { "type": "Point", "coordinates": [ 9.155302564159999, 45.0171 ] } },
{ "type": "Feature", "properties": { "CodIstat": 4067, "DataSospetto": "2022-08-25T00:00:00", "Categoria": "EQUIDI", "Regione": "PIEMONTE", "Prov": "CN", "Comune": "CHERASCO", "NumCapiMalati": 1, "NumFocolai": 1 }, "geometry": { "type": "Point", "coordinates": [ 7.83264338673, 44.6453 ] } },
{ "type": "Feature", "properties": { "CodIstat": 4067, "DataSospetto": "2022-10-25T00:00:00", "Categoria": "UCCELLI SELVATICI", "Regione": "PIEMONTE", "Prov": "CN", "Comune": "CHERASCO", "NumCapiMalati": 1, "NumFocolai": 1 }, "geometry": { "type": "Point", "coordinates": [ 7.83264338673, 44.6453 ] } },
{ "type": "Feature", "properties": { "CodIstat": 28032, "DataSospetto": "2022-07-14T00:00:00", "Categoria": "UCCELLI SELVATICI", "Regione": "VENETO", "Prov": "PD", "Comune": "CITTADELLA", "NumCapiMalati": 1, "NumFocolai": 1 }, "geometry": { "type": "Point", "coordinates": [ 11.7687, 45.6546 ] } },
{ "type": "Feature", "properties": { "CodIstat": 17032, "DataSospetto": "2022-08-08T00:00:00", "Categoria": "EQUIDI", "Regione": "LOMBARDIA", "Prov": "BS", "Comune": "CALCINATO", "NumCapiMalati": 1, "NumFocolai": 1 }, "geometry": { "type": "Point", "coordinates": [ 10.403, 45.4581 ] } },
{ "type": "Feature", "properties": { "CodIstat": 28030, "DataSospetto": "2022-09-02T00:00:00", "Categoria": "UCCELLI SELVATICI", "Regione": "VENETO", "Prov": "PD", "Comune": "CERVARESE SANTA CROCE", "NumCapiMalati": 1, "NumFocolai": 1 }, "geometry": { "type": "Point", "coordinates": [ 11.6932, 45.4021 ] } },
{ "type": "Feature", "properties": { "CodIstat": 27007, "DataSospetto": "2022-07-26T00:00:00", "Categoria": "INSETTI", "Regione": "VENETO", "Prov": "VE", "Comune": "CEGGIA", "NumCapiMalati": 2, "NumFocolai": 1 }, "geometry": { "type": "Point", "coordinates": [ 12.6487, 45.6838 ] } },
{ "type": "Feature", "properties": { "CodIstat": 95019, "DataSospetto": "2022-08-31T00:00:00", "Categoria": "UCCELLI SELVATICI", "Regione": "SARDEGNA", "Prov": "OR", "Comune": "CUGLIERI", "NumCapiMalati": 1, "NumFocolai": 1 }, "geometry": { "type": "Point", "coordinates": [ 8.529505043449999, 40.1497 ] } },
{ "type": "Feature", "properties": { "CodIstat": 24037, "DataSospetto": "2022-07-19T00:00:00", "Categoria": "UCCELLI SELVATICI", "Regione": "VENETO", "Prov": "VI", "Comune": "CRESPADORO", "NumCapiMalati": 1, "NumFocolai": 1 }, "geometry": { "type": "Point", "coordinates": [ 11.1891, 45.6473 ] } },
{ "type": "Feature", "properties": { "CodIstat": 26019, "DataSospetto": "2022-07-28T00:00:00", "Categoria": "INSETTI", "Regione": "VENETO", "Prov": "TV", "Comune": "CODOGNE'", "NumCapiMalati": 1, "NumFocolai": 1 }, "geometry": { "type": "Point", "coordinates": [ 12.4285, 45.8692 ] } },
{ "type": "Feature", "properties": { "CodIstat": 30100, "DataSospetto": "2022-08-04T00:00:00", "Categoria": "INSETTI", "Regione": "FRIULI VENEZIA GIULIA", "Prov": "UD", "Comune": "SAN GIORGIO DI NOGARO", "NumCapiMalati": 1, "NumFocolai": 1 }, "geometry": { "type": "Point", "coordinates": [ 13.2167, 45.8105 ] } },
{ "type": "Feature", "properties": { "CodIstat": 5109, "DataSospetto": "2022-08-25T00:00:00", "Categoria": "EQUIDI", "Regione": "PIEMONTE", "Prov": "AT", "Comune": "TONCO", "NumCapiMalati": 1, "NumFocolai": 1 }, "geometry": { "type": "Point", "coordinates": [ 8.18926770567, 45.0206 ] } },
{ "type": "Feature", "properties": { "CodIstat": 29048, "DataSospetto": "2022-08-02T00:00:00", "Categoria": "UCCELLI SELVATICI", "Regione": "VENETO", "Prov": "RO", "Comune": "VILLADOSE", "NumCapiMalati": 1, "NumFocolai": 1 }, "geometry": { "type": "Point", "coordinates": [ 11.9123, 45.08 ] } },
{ "type": "Feature", "properties": { "CodIstat": 36047, "DataSospetto": "2022-08-22T00:00:00", "Categoria": "UCCELLI SELVATICI", "Regione": "EMILIA ROMAGNA", "Prov": "MO", "Comune": "ZOCCA", "NumCapiMalati": 1, "NumFocolai": 1 }, "geometry": { "type": "Point", "coordinates": [ 10.9944, 44.3607 ] } },
{ "type": "Feature", "properties": { "CodIstat": 17200, "DataSospetto": "2022-07-08T00:00:00", "Categoria": "INSETTI", "Regione": "LOMBARDIA", "Prov": "BS", "Comune": "VILLACHIARA", "NumCapiMalati": 1, "NumFocolai": 1 }, "geometry": { "type": "Point", "coordinates": [ 9.91751143308, 45.3544 ] } },
{ "type": "Feature", "properties": { "CodIstat": 12119, "DataSospetto": "2022-09-19T00:00:00", "Categoria": "UCCELLI BERSAGLIO", "Regione": "LOMBARDIA", "Prov": "VA", "Comune": "SARONNO", "NumCapiMalati": 1, "NumFocolai": 1 }, "geometry": { "type": "Point", "coordinates": [ 9.03645845015, 45.6271 ] } },
{ "type": "Feature", "properties": { "CodIstat": 28102, "DataSospetto": "2022-07-10T00:00:00", "Categoria": "UCCELLI SELVATICI", "Regione": "VENETO", "Prov": "PD", "Comune": "VILLA ESTENSE", "NumCapiMalati": 1, "NumFocolai": 1 }, "geometry": { "type": "Point", "coordinates": [ 11.6755, 45.1687 ] } },
{ "type": "Feature", "properties": { "CodIstat": 37060, "DataSospetto": "2022-08-29T00:00:00", "Categoria": "EQUIDI", "Regione": "EMILIA ROMAGNA", "Prov": "BO", "Comune": "ZOLA PREDOSA", "NumCapiMalati": 1, "NumFocolai": 1 }, "geometry": { "type": "Point", "coordinates": [ 11.2105, 44.4947 ] } },
{ "type": "Feature", "properties": { "CodIstat": 29039, "DataSospetto": "2022-06-28T00:00:00", "Categoria": "UCCELLI BERSAGLIO", "Regione": "VENETO", "Prov": "RO", "Comune": "PORTO TOLLE", "NumCapiMalati": 1, "NumFocolai": 1 }, "geometry": { "type": "Point", "coordinates": [ 12.42, 44.9214 ] } },
{ "type": "Feature", "properties": { "CodIstat": 29039, "DataSospetto": "2022-07-19T00:00:00", "Categoria": "INSETTI", "Regione": "VENETO", "Prov": "RO", "Comune": "PORTO TOLLE", "NumCapiMalati": 2, "NumFocolai": 1 }, "geometry": { "type": "Point", "coordinates": [ 12.42, 44.9214 ] } },
{ "type": "Feature", "properties": { "CodIstat": 29039, "DataSospetto": "2022-08-18T00:00:00", "Categoria": "UCCELLI SELVATICI", "Regione": "VENETO", "Prov": "RO", "Comune": "PORTO TOLLE", "NumCapiMalati": 1, "NumFocolai": 1 }, "geometry": { "type": "Point", "coordinates": [ 12.42, 44.9214 ] } },
{ "type": "Feature", "properties": { "CodIstat": 34032, "DataSospetto": "2022-07-12T00:00:00", "Categoria": "UCCELLI BERSAGLIO", "Regione": "EMILIA ROMAGNA", "Prov": "PR", "Comune": "SALSOMAGGIORE TERME", "NumCapiMalati": 2, "NumFocolai": 1 }, "geometry": { "type": "Point", "coordinates": [ 9.981244347820001, 44.804 ] } },
{ "type": "Feature", "properties": { "CodIstat": 108010, "DataSospetto": "2022-09-26T00:00:00", "Categoria": "UCCELLI SELVATICI", "Regione": "LOMBARDIA", "Prov": "MB", "Comune": "BOVISIO-MASCIAGO", "NumCapiMalati": 1, "NumFocolai": 1 }, "geometry": { "type": "Point", "coordinates": [ 9.15029813184, 45.6123 ] } },
{ "type": "Feature", "properties": { "CodIstat": 103072, "DataSospetto": "2022-08-01T00:00:00", "Categoria": "UCCELLI BERSAGLIO", "Regione": "PIEMONTE", "Prov": "VB", "Comune": "VERBANIA", "NumCapiMalati": 1, "NumFocolai": 1 }, "geometry": { "type": "Point", "coordinates": [ 8.538532884149999, 45.9344 ] } },
{ "type": "Feature", "properties": { "CodIstat": 27019, "DataSospetto": "2022-07-01T00:00:00", "Categoria": "UCCELLI SELVATICI", "Regione": "VENETO", "Prov": "VE", "Comune": "JESOLO", "NumCapiMalati": 3, "NumFocolai": 3 }, "geometry": { "type": "Point", "coordinates": [ 12.6333, 45.5348 ] } },
{ "type": "Feature", "properties": { "CodIstat": 27019, "DataSospetto": "2022-07-26T00:00:00", "Categoria": "INSETTI", "Regione": "VENETO", "Prov": "VE", "Comune": "JESOLO", "NumCapiMalati": 1, "NumFocolai": 1 }, "geometry": { "type": "Point", "coordinates": [ 12.6333, 45.5348 ] } },
{ "type": "Feature", "properties": { "CodIstat": 27019, "DataSospetto": "2022-07-29T00:00:00", "Categoria": "UCCELLI SELVATICI", "Regione": "VENETO", "Prov": "VE", "Comune": "JESOLO", "NumCapiMalati": 1, "NumFocolai": 1 }, "geometry": { "type": "Point", "coordinates": [ 12.6333, 45.5348 ] } },
{ "type": "Feature", "properties": { "CodIstat": 27019, "DataSospetto": "2022-08-02T00:00:00", "Categoria": "UCCELLI SELVATICI", "Regione": "VENETO", "Prov": "VE", "Comune": "JESOLO", "NumCapiMalati": 2, "NumFocolai": 2 }, "geometry": { "type": "Point", "coordinates": [ 12.6333, 45.5348 ] } },
{ "type": "Feature", "properties": { "CodIstat": 34036, "DataSospetto": "2022-07-04T00:00:00", "Categoria": "INSETTI", "Regione": "EMILIA ROMAGNA", "Prov": "PR", "Comune": "SORAGNA", "NumCapiMalati": 1, "NumFocolai": 1 }, "geometry": { "type": "Point", "coordinates": [ 10.1384, 44.9377 ] } },
{ "type": "Feature", "properties": { "CodIstat": 33040, "DataSospetto": "2022-08-29T00:00:00", "Categoria": "UCCELLI SELVATICI", "Regione": "EMILIA ROMAGNA", "Prov": "PC", "Comune": "SAN GIORGIO PIACENTINO", "NumCapiMalati": 1, "NumFocolai": 1 }, "geometry": { "type": "Point", "coordinates": [ 9.739774966540001, 44.9238 ] } },
{ "type": "Feature", "properties": { "CodIstat": 19100, "DataSospetto": "2022-09-08T00:00:00", "Categoria": "UCCELLI BERSAGLIO", "Regione": "LOMBARDIA", "Prov": "CR", "Comune": "SPINADESCO", "NumCapiMalati": 1, "NumFocolai": 1 }, "geometry": { "type": "Point", "coordinates": [ 9.93266065872, 45.1324 ] } },
{ "type": "Feature", "properties": { "CodIstat": 18144, "DataSospetto": "2022-07-04T00:00:00", "Categoria": "INSETTI", "Regione": "LOMBARDIA", "Prov": "PV", "Comune": "SANT'ANGELO LOMELLINA", "NumCapiMalati": 2, "NumFocolai": 1 }, "geometry": { "type": "Point", "coordinates": [ 8.644792080609999, 45.2383 ] } },
{ "type": "Feature", "properties": { "CodIstat": 54053, "DataSospetto": "2022-01-19T00:00:00", "Categoria": "UCCELLI SELVATICI", "Regione": "UMBRIA", "Prov": "PG", "Comune": "TORGIANO", "NumCapiMalati": 1, "NumFocolai": 1 }, "geometry": { "type": "Point", "coordinates": [ 12.4502, 43.0414 ] } },
{ "type": "Feature", "properties": { "CodIstat": 29041, "DataSospetto": "2022-06-10T00:00:00", "Categoria": "UCCELLI BERSAGLIO", "Regione": "VENETO", "Prov": "RO", "Comune": "ROVIGO", "NumCapiMalati": 1, "NumFocolai": 1 }, "geometry": { "type": "Point", "coordinates": [ 11.7949, 45.0696 ] } },
{ "type": "Feature", "properties": { "CodIstat": 29041, "DataSospetto": "2022-06-10T00:00:00", "Categoria": "UCCELLI SELVATICI", "Regione": "VENETO", "Prov": "RO", "Comune": "ROVIGO", "NumCapiMalati": 1, "NumFocolai": 1 }, "geometry": { "type": "Point", "coordinates": [ 11.7949, 45.0696 ] } },
{ "type": "Feature", "properties": { "CodIstat": 29041, "DataSospetto": "2022-07-07T00:00:00", "Categoria": "INSETTI", "Regione": "VENETO", "Prov": "RO", "Comune": "ROVIGO", "NumCapiMalati": 4, "NumFocolai": 1 }, "geometry": { "type": "Point", "coordinates": [ 11.7949, 45.0696 ] } },
{ "type": "Feature", "properties": { "CodIstat": 29041, "DataSospetto": "2022-07-07T00:00:00", "Categoria": "UCCELLI BERSAGLIO", "Regione": "VENETO", "Prov": "RO", "Comune": "ROVIGO", "NumCapiMalati": 2, "NumFocolai": 1 }, "geometry": { "type": "Point", "coordinates": [ 11.7949, 45.0696 ] } },
{ "type": "Feature", "properties": { "CodIstat": 29041, "DataSospetto": "2022-07-07T00:00:00", "Categoria": "UCCELLI SELVATICI", "Regione": "VENETO", "Prov": "RO", "Comune": "ROVIGO", "NumCapiMalati": 8, "NumFocolai": 5 }, "geometry": { "type": "Point", "coordinates": [ 11.7949, 45.0696 ] } },
{ "type": "Feature", "properties": { "CodIstat": 29041, "DataSospetto": "2022-07-18T00:00:00", "Categoria": "UCCELLI SELVATICI", "Regione": "VENETO", "Prov": "RO", "Comune": "ROVIGO", "NumCapiMalati": 1, "NumFocolai": 1 }, "geometry": { "type": "Point", "coordinates": [ 11.7949, 45.0696 ] } },
{ "type": "Feature", "properties": { "CodIstat": 37053, "DataSospetto": "2022-08-18T00:00:00", "Categoria": "UCCELLI BERSAGLIO", "Regione": "EMILIA ROMAGNA", "Prov": "BO", "Comune": "SAN GIOVANNI IN PERSICETO", "NumCapiMalati": 3, "NumFocolai": 2 }, "geometry": { "type": "Point", "coordinates": [ 11.203, 44.6603 ] } },
{ "type": "Feature", "properties": { "CodIstat": 16189, "DataSospetto": "2022-10-19T00:00:00", "Categoria": "UCCELLI SELVATICI", "Regione": "LOMBARDIA", "Prov": "BG", "Comune": "SAN PAOLO D'ARGON", "NumCapiMalati": 1, "NumFocolai": 1 }, "geometry": { "type": "Point", "coordinates": [ 9.80317213449, 45.6862 ] } },
{ "type": "Feature", "properties": { "CodIstat": 6177, "DataSospetto": "2022-08-19T00:00:00", "Categoria": "INSETTI", "Regione": "PIEMONTE", "Prov": "AL", "Comune": "VALENZA", "NumCapiMalati": 1, "NumFocolai": 1 }, "geometry": { "type": "Point", "coordinates": [ 8.629390216, 45.0191 ] } },
{ "type": "Feature", "properties": { "CodIstat": 28092, "DataSospetto": "2022-07-27T00:00:00", "Categoria": "UCCELLI SELVATICI", "Regione": "VENETO", "Prov": "PD", "Comune": "TORREGLIA", "NumCapiMalati": 1, "NumFocolai": 1 }, "geometry": { "type": "Point", "coordinates": [ 11.7268, 45.3381 ] } },
{ "type": "Feature", "properties": { "CodIstat": 20059, "DataSospetto": "2022-08-01T00:00:00", "Categoria": "EQUIDI", "Regione": "LOMBARDIA", "Prov": "MN", "Comune": "SAN MARTINO DALL'ARGINE", "NumCapiMalati": 1, "NumFocolai": 1 }, "geometry": { "type": "Point", "coordinates": [ 10.5291, 45.0952 ] } },
{ "type": "Feature", "properties": { "CodIstat": 30069, "DataSospetto": "2022-07-07T00:00:00", "Categoria": "INSETTI", "Regione": "FRIULI VENEZIA GIULIA", "Prov": "UD", "Comune": "PALAZZOLO DELLO STELLA", "NumCapiMalati": 1, "NumFocolai": 1 }, "geometry": { "type": "Point", "coordinates": [ 13.0785, 45.7902 ] } },
{ "type": "Feature", "properties": { "CodIstat": 108027, "DataSospetto": "2022-09-26T00:00:00", "Categoria": "UCCELLI BERSAGLIO", "Regione": "LOMBARDIA", "Prov": "MB", "Comune": "LIMBIATE", "NumCapiMalati": 1, "NumFocolai": 1 }, "geometry": { "type": "Point", "coordinates": [ 9.120706087789999, 45.6011 ] } },
{ "type": "Feature", "properties": { "CodIstat": 20037, "DataSospetto": "2022-07-19T00:00:00", "Categoria": "INSETTI", "Regione": "LOMBARDIA", "Prov": "MN", "Comune": "MOTTEGGIANA", "NumCapiMalati": 1, "NumFocolai": 1 }, "geometry": { "type": "Point", "coordinates": [ 10.7636, 45.0347 ] } },
{ "type": "Feature", "properties": { "CodIstat": 93041, "DataSospetto": "2022-07-07T00:00:00", "Categoria": "INSETTI", "Regione": "FRIULI VENEZIA GIULIA", "Prov": "PN", "Comune": "SAN VITO AL TAGLIAMENTO", "NumCapiMalati": 1, "NumFocolai": 1 }, "geometry": { "type": "Point", "coordinates": [ 12.8615, 45.9145 ] } },
{ "type": "Feature", "properties": { "CodIstat": 93041, "DataSospetto": "2022-09-01T00:00:00", "Categoria": "INSETTI", "Regione": "FRIULI VENEZIA GIULIA", "Prov": "PN", "Comune": "SAN VITO AL TAGLIAMENTO", "NumCapiMalati": 1, "NumFocolai": 1 }, "geometry": { "type": "Point", "coordinates": [ 12.8615, 45.9145 ] } },
{ "type": "Feature", "properties": { "CodIstat": 17161, "DataSospetto": "2022-08-25T00:00:00", "Categoria": "EQUIDI", "Regione": "LOMBARDIA", "Prov": "BS", "Comune": "REZZATO", "NumCapiMalati": 1, "NumFocolai": 1 }, "geometry": { "type": "Point", "coordinates": [ 10.3172, 45.5076 ] } },
{ "type": "Feature", "properties": { "CodIstat": 38019, "DataSospetto": "2022-08-26T00:00:00", "Categoria": "UCCELLI BERSAGLIO", "Regione": "EMILIA ROMAGNA", "Prov": "FE", "Comune": "PORTOMAGGIORE", "NumCapiMalati": 1, "NumFocolai": 1 }, "geometry": { "type": "Point", "coordinates": [ 11.8388, 44.6982 ] } },
{ "type": "Feature", "properties": { "CodIstat": 38019, "DataSospetto": "2022-12-06T00:00:00", "Categoria": "EQUIDI", "Regione": "EMILIA ROMAGNA", "Prov": "FE", "Comune": "PORTOMAGGIORE", "NumCapiMalati": 1, "NumFocolai": 1 }, "geometry": { "type": "Point", "coordinates": [ 11.8388, 44.6982 ] } },
{ "type": "Feature", "properties": { "CodIstat": 23048, "DataSospetto": "2022-07-05T00:00:00", "Categoria": "INSETTI", "Regione": "VENETO", "Prov": "VR", "Comune": "MINERBE", "NumCapiMalati": 3, "NumFocolai": 1 }, "geometry": { "type": "Point", "coordinates": [ 11.3528, 45.2491 ] } },
{ "type": "Feature", "properties": { "CodIstat": 18109, "DataSospetto": "2022-07-18T00:00:00", "Categoria": "INSETTI", "Regione": "LOMBARDIA", "Prov": "PV", "Comune": "PARONA", "NumCapiMalati": 3, "NumFocolai": 1 }, "geometry": { "type": "Point", "coordinates": [ 8.76128284849, 45.2833 ] } },
{ "type": "Feature", "properties": { "CodIstat": 15168, "DataSospetto": "2022-10-21T00:00:00", "Categoria": "UCCELLI SELVATICI", "Regione": "LOMBARDIA", "Prov": "MI", "Comune": "PARABIAGO", "NumCapiMalati": 1, "NumFocolai": 1 }, "geometry": { "type": "Point", "coordinates": [ 8.943146924380001, 45.5492 ] } },
{ "type": "Feature", "properties": { "CodIstat": 34025, "DataSospetto": "2022-08-02T00:00:00", "Categoria": "EQUIDI", "Regione": "EMILIA ROMAGNA", "Prov": "PR", "Comune": "NOCETO", "NumCapiMalati": 1, "NumFocolai": 1 }, "geometry": { "type": "Point", "coordinates": [ 10.1356, 44.8026 ] } },
{ "type": "Feature", "properties": { "CodIstat": 1150, "DataSospetto": "2022-09-15T00:00:00", "Categoria": "EQUIDI", "Regione": "PIEMONTE", "Prov": "TO", "Comune": "MERCENASCO", "NumCapiMalati": 1, "NumFocolai": 1 }, "geometry": { "type": "Point", "coordinates": [ 7.86926462625, 45.3564 ] } },
{ "type": "Feature", "properties": { "CodIstat": 90047, "DataSospetto": "2022-08-20T00:00:00", "Categoria": "UCCELLI SELVATICI", "Regione": "SARDEGNA", "Prov": "SS", "Comune": "OLBIA", "NumCapiMalati": 1, "NumFocolai": 1 }, "geometry": { "type": "Point", "coordinates": [ 9.479398524420001, 40.923 ] } },
{ "type": "Feature", "properties": { "CodIstat": 90047, "DataSospetto": "2022-08-26T00:00:00", "Categoria": "UCCELLI BERSAGLIO", "Regione": "SARDEGNA", "Prov": "SS", "Comune": "OLBIA", "NumCapiMalati": 1, "NumFocolai": 1 }, "geometry": { "type": "Point", "coordinates": [ 9.479398524420001, 40.923 ] } },
{ "type": "Feature", "properties": { "CodIstat": 30118, "DataSospetto": "2022-07-21T00:00:00", "Categoria": "EQUIDI", "Regione": "FRIULI VENEZIA GIULIA", "Prov": "UD", "Comune": "TAVAGNACCO", "NumCapiMalati": 1, "NumFocolai": 1 }, "geometry": { "type": "Point", "coordinates": [ 13.2208, 46.1101 ] } },
{ "type": "Feature", "properties": { "CodIstat": 33032, "DataSospetto": "2022-08-08T00:00:00", "Categoria": "UCCELLI SELVATICI", "Regione": "EMILIA ROMAGNA", "Prov": "PC", "Comune": "PIACENZA", "NumCapiMalati": 1, "NumFocolai": 1 }, "geometry": { "type": "Point", "coordinates": [ 9.717737473190001, 45.0414 ] } },
{ "type": "Feature", "properties": { "CodIstat": 27026, "DataSospetto": "2022-08-24T00:00:00", "Categoria": "UCCELLI SELVATICI", "Regione": "VENETO", "Prov": "VE", "Comune": "NOALE", "NumCapiMalati": 1, "NumFocolai": 1 }, "geometry": { "type": "Point", "coordinates": [ 12.0676, 45.5536 ] } },
{ "type": "Feature", "properties": { "CodIstat": 36023, "DataSospetto": "2022-07-21T00:00:00", "Categoria": "INSETTI", "Regione": "EMILIA ROMAGNA", "Prov": "MO", "Comune": "MODENA", "NumCapiMalati": 3, "NumFocolai": 1 }, "geometry": { "type": "Point", "coordinates": [ 10.9153, 44.6441 ] } },
{ "type": "Feature", "properties": { "CodIstat": 38017, "DataSospetto": "2022-08-01T00:00:00", "Categoria": "INSETTI", "Regione": "EMILIA ROMAGNA", "Prov": "FE", "Comune": "OSTELLATO", "NumCapiMalati": 1, "NumFocolai": 1 }, "geometry": { "type": "Point", "coordinates": [ 11.9778, 44.7237 ] } },
{ "type": "Feature", "properties": { "CodIstat": 38017, "DataSospetto": "2022-08-01T00:00:00", "Categoria": "UCCELLI BERSAGLIO", "Regione": "EMILIA ROMAGNA", "Prov": "FE", "Comune": "OSTELLATO", "NumCapiMalati": 3, "NumFocolai": 1 },