{
"type": "FeatureCollection",
"crs": { "type": "name", "properties": { "name": "urn:ogc:def:crs:OGC:1.3:CRS84" } },
"features": [
{ "type": "Feature", "properties": { "CodIstat": 18018, "DataSospetto": "2021-09-20T00:00:00", "Categoria": "UCCELLI SELVATICI", "Regione": "LOMBARDIA", "Prov": "PV", "Comune": "BORGO SAN SIRO", "NumCapiMalati": 1, "NumFocolai": 1 }, "geometry": { "type": "Point", "coordinates": [ 8.925518231000069, 45.244191871000055 ] } },
{ "type": "Feature", "properties": { "CodIstat": 36015, "DataSospetto": "2021-08-04T00:00:00", "Categoria": "INSETTI", "Regione": "EMILIA ROMAGNA", "Prov": "MO", "Comune": "FORMIGINE", "NumCapiMalati": 2, "NumFocolai": 1 }, "geometry": { "type": "Point", "coordinates": [ 10.845983772000068, 44.57987539700008 ] } },
{ "type": "Feature", "properties": { "CodIstat": 36015, "DataSospetto": "2021-08-04T00:00:00", "Categoria": "UCCELLI TARGET", "Regione": "EMILIA ROMAGNA", "Prov": "MO", "Comune": "FORMIGINE", "NumCapiMalati": 3, "NumFocolai": 1 }, "geometry": { "type": "Point", "coordinates": [ 10.845983772000068, 44.57987539700008 ] } },
{ "type": "Feature", "properties": { "CodIstat": 37037, "DataSospetto": "2021-07-20T00:00:00", "Categoria": "INSETTI", "Regione": "EMILIA ROMAGNA", "Prov": "BO", "Comune": "MEDICINA", "NumCapiMalati": 1, "NumFocolai": 1 }, "geometry": { "type": "Point", "coordinates": [ 11.668850033000069, 44.514219294000043 ] } },
{ "type": "Feature", "properties": { "CodIstat": 35023, "DataSospetto": "2021-09-12T00:00:00", "Categoria": "UCCELLI TARGET", "Regione": "EMILIA ROMAGNA", "Prov": "RE", "Comune": "GUALTIERI", "NumCapiMalati": 1, "NumFocolai": 1 }, "geometry": { "type": "Point", "coordinates": [ 10.616637744000059, 44.881680740000036 ] } },
{ "type": "Feature", "properties": { "CodIstat": 35026, "DataSospetto": "2021-08-12T00:00:00", "Categoria": "INSETTI", "Regione": "EMILIA ROMAGNA", "Prov": "RE", "Comune": "LUZZARA", "NumCapiMalati": 3, "NumFocolai": 1 }, "geometry": { "type": "Point", "coordinates": [ 10.711146362000022, 44.953850224000064 ] } },
{ "type": "Feature", "properties": { "CodIstat": 3100, "DataSospetto": "2021-09-20T00:00:00", "Categoria": "UCCELLI TARGET", "Regione": "PIEMONTE", "Prov": "NO", "Comune": "MOMO", "NumCapiMalati": 1, "NumFocolai": 1 }, "geometry": { "type": "Point", "coordinates": [ 8.56461594700005, 45.569666355000038 ] } },
{ "type": "Feature", "properties": { "CodIstat": 23054, "DataSospetto": "2021-08-12T00:00:00", "Categoria": "INSETTI", "Regione": "VENETO", "Prov": "VR", "Comune": "NOGAROLE ROCCA", "NumCapiMalati": 1, "NumFocolai": 1 }, "geometry": { "type": "Point", "coordinates": [ 10.879193250000071, 45.280407251000042 ] } },
{ "type": "Feature", "properties": { "CodIstat": 38010, "DataSospetto": "2021-08-24T00:00:00", "Categoria": "UCCELLI SELVATICI", "Regione": "EMILIA ROMAGNA", "Prov": "FE", "Comune": "JOLANDA DI SAVOIA", "NumCapiMalati": 1, "NumFocolai": 1 }, "geometry": { "type": "Point", "coordinates": [ 11.978906033000044, 44.875553306000029 ] } },
{ "type": "Feature", "properties": { "CodIstat": 36027, "DataSospetto": "2021-08-04T00:00:00", "Categoria": "INSETTI", "Regione": "EMILIA ROMAGNA", "Prov": "MO", "Comune": "NONANTOLA", "NumCapiMalati": 2, "NumFocolai": 1 }, "geometry": { "type": "Point", "coordinates": [ 11.05584755600006, 44.685255319000078 ] } },
{ "type": "Feature", "properties": { "CodIstat": 36028, "DataSospetto": "2021-07-22T00:00:00", "Categoria": "INSETTI", "Regione": "EMILIA ROMAGNA", "Prov": "MO", "Comune": "NOVI DI MODENA", "NumCapiMalati": 1, "NumFocolai": 1 }, "geometry": { "type": "Point", "coordinates": [ 10.929528859000072, 44.873623681000026 ] } },
{ "type": "Feature", "properties": { "CodIstat": 27024, "DataSospetto": "2021-08-14T00:00:00", "Categoria": "UCCELLI SELVATICI", "Regione": "VENETO", "Prov": "VE", "Comune": "MIRANO", "NumCapiMalati": 1, "NumFocolai": 1 }, "geometry": { "type": "Point", "coordinates": [ 12.08763310300003, 45.485662309000077 ] } },
{ "type": "Feature", "properties": { "CodIstat": 29033, "DataSospetto": "2021-07-29T00:00:00", "Categoria": "INSETTI", "Regione": "VENETO", "Prov": "RO", "Comune": "OCCHIOBELLO", "NumCapiMalati": 1, "NumFocolai": 1 }, "geometry": { "type": "Point", "coordinates": [ 11.605579577000071, 44.919259169000043 ] } },
{ "type": "Feature", "properties": { "CodIstat": 26058, "DataSospetto": "2021-08-12T00:00:00", "Categoria": "INSETTI", "Regione": "VENETO", "Prov": "TV", "Comune": "PONTE DI PIAVE", "NumCapiMalati": 1, "NumFocolai": 1 }, "geometry": { "type": "Point", "coordinates": [ 12.467181492000066, 45.731934472000034 ] } },
{ "type": "Feature", "properties": { "CodIstat": 38018, "DataSospetto": "2021-08-12T00:00:00", "Categoria": "INSETTI", "Regione": "EMILIA ROMAGNA", "Prov": "FE", "Comune": "POGGIO RENATICO", "NumCapiMalati": 1, "NumFocolai": 1 }, "geometry": { "type": "Point", "coordinates": [ 11.496945050000022, 44.77036408400005 ] } },
{ "type": "Feature", "properties": { "CodIstat": 38018, "DataSospetto": "2021-08-12T00:00:00", "Categoria": "UCCELLI SELVATICI", "Regione": "EMILIA ROMAGNA", "Prov": "FE", "Comune": "POGGIO RENATICO", "NumCapiMalati": 1, "NumFocolai": 1 }, "geometry": { "type": "Point", "coordinates": [ 11.496945050000022, 44.77036408400005 ] } },
{ "type": "Feature", "properties": { "CodIstat": 6003, "DataSospetto": "2021-07-22T00:00:00", "Categoria": "INSETTI", "Regione": "PIEMONTE", "Prov": "AL", "Comune": "ALESSANDRIA", "NumCapiMalati": 1, "NumFocolai": 1 }, "geometry": { "type": "Point", "coordinates": [ 8.644397053000034, 44.909194178000064 ] } },
{ "type": "Feature", "properties": { "CodIstat": 4003, "DataSospetto": "2021-11-11T00:00:00", "Categoria": "UCCELLI SELVATICI", "Regione": "PIEMONTE", "Prov": "CN", "Comune": "ALBA", "NumCapiMalati": 1, "NumFocolai": 1 }, "geometry": { "type": "Point", "coordinates": [ 8.030698103000077, 44.687741258000074 ] } },
{ "type": "Feature", "properties": { "CodIstat": 37024, "DataSospetto": "2021-08-10T00:00:00", "Categoria": "INSETTI", "Regione": "EMILIA ROMAGNA", "Prov": "BO", "Comune": "CREVALCORE", "NumCapiMalati": 1, "NumFocolai": 1 }, "geometry": { "type": "Point", "coordinates": [ 11.185571920000029, 44.752543975000037 ] } },
{ "type": "Feature", "properties": { "CodIstat": 20021, "DataSospetto": "2021-08-02T00:00:00", "Categoria": "UCCELLI TARGET", "Regione": "LOMBARDIA", "Prov": "MN", "Comune": "CURTATONE", "NumCapiMalati": 1, "NumFocolai": 1 }, "geometry": { "type": "Point", "coordinates": [ 10.715073399000062, 45.10758564300005 ] } },
{ "type": "Feature", "properties": { "CodIstat": 35020, "DataSospetto": "2021-07-29T00:00:00", "Categoria": "INSETTI", "Regione": "EMILIA ROMAGNA", "Prov": "RE", "Comune": "CORREGGIO", "NumCapiMalati": 2, "NumFocolai": 1 }, "geometry": { "type": "Point", "coordinates": [ 10.765519096000048, 44.763281806000066 ] } },
{ "type": "Feature", "properties": { "CodIstat": 23032, "DataSospetto": "2021-08-12T00:00:00", "Categoria": "INSETTI", "Regione": "VENETO", "Prov": "VR", "Comune": "ERBE'", "NumCapiMalati": 1, "NumFocolai": 1 }, "geometry": { "type": "Point", "coordinates": [ 10.973335365000025, 45.24164644800004 ] } },
{ "type": "Feature", "properties": { "CodIstat": 38003, "DataSospetto": "2021-08-10T00:00:00", "Categoria": "UCCELLI SELVATICI", "Regione": "EMILIA ROMAGNA", "Prov": "FE", "Comune": "BONDENO", "NumCapiMalati": 1, "NumFocolai": 1 }, "geometry": { "type": "Point", "coordinates": [ 11.373549815000047, 44.903090030000044 ] } },
{ "type": "Feature", "properties": { "CodIstat": 37006, "DataSospetto": "2021-10-07T00:00:00", "Categoria": "UCCELLI SELVATICI", "Regione": "EMILIA ROMAGNA", "Prov": "BO", "Comune": "BOLOGNA", "NumCapiMalati": 3, "NumFocolai": 3 }, "geometry": { "type": "Point", "coordinates": [ 11.333126250000021, 44.49809742900004 ] } },
{ "type": "Feature", "properties": { "CodIstat": 33002, "DataSospetto": "2021-08-10T00:00:00", "Categoria": "INSETTI", "Regione": "EMILIA ROMAGNA", "Prov": "PC", "Comune": "ALSENO", "NumCapiMalati": 5, "NumFocolai": 1 }, "geometry": { "type": "Point", "coordinates": [ 9.962484394000057, 44.887353463000068 ] } },
{ "type": "Feature", "properties": { "CodIstat": 15007, "DataSospetto": "2021-09-08T00:00:00", "Categoria": "UCCELLI TARGET", "Regione": "LOMBARDIA", "Prov": "MI", "Comune": "ARCONATE", "NumCapiMalati": 1, "NumFocolai": 1 }, "geometry": { "type": "Point", "coordinates": [ 8.841476387000057, 45.540225422000049 ] } },
{ "type": "Feature", "properties": { "CodIstat": 33014, "DataSospetto": "2021-08-03T00:00:00", "Categoria": "INSETTI", "Regione": "EMILIA ROMAGNA", "Prov": "PC", "Comune": "CASTELVETRO PIACENTINO", "NumCapiMalati": 1, "NumFocolai": 1 }, "geometry": { "type": "Point", "coordinates": [ 9.991470188000051, 45.088230857000042 ] } },
{ "type": "Feature", "properties": { "CodIstat": 33014, "DataSospetto": "2021-08-03T00:00:00", "Categoria": "UCCELLI SELVATICI", "Regione": "EMILIA ROMAGNA", "Prov": "PC", "Comune": "CASTELVETRO PIACENTINO", "NumCapiMalati": 1, "NumFocolai": 1 }, "geometry": { "type": "Point", "coordinates": [ 9.991470188000051, 45.088230857000042 ] } },
{ "type": "Feature", "properties": { "CodIstat": 33014, "DataSospetto": "2021-08-03T00:00:00", "Categoria": "UCCELLI TARGET", "Regione": "EMILIA ROMAGNA", "Prov": "PC", "Comune": "CASTELVETRO PIACENTINO", "NumCapiMalati": 1, "NumFocolai": 1 }, "geometry": { "type": "Point", "coordinates": [ 9.991470188000051, 45.088230857000042 ] } },
{ "type": "Feature", "properties": { "CodIstat": 38007, "DataSospetto": "2021-08-24T00:00:00", "Categoria": "INSETTI", "Regione": "EMILIA ROMAGNA", "Prov": "FE", "Comune": "COPPARO", "NumCapiMalati": 1, "NumFocolai": 1 }, "geometry": { "type": "Point", "coordinates": [ 11.860675907000029, 44.902406816000052 ] } },
{ "type": "Feature", "properties": { "CodIstat": 38007, "DataSospetto": "2021-08-24T00:00:00", "Categoria": "UCCELLI SELVATICI", "Regione": "EMILIA ROMAGNA", "Prov": "FE", "Comune": "COPPARO", "NumCapiMalati": 2, "NumFocolai": 2 }, "geometry": { "type": "Point", "coordinates": [ 11.860675907000029, 44.902406816000052 ] } },
{ "type": "Feature", "properties": { "CodIstat": 16068, "DataSospetto": "2021-09-24T00:00:00", "Categoria": "UCCELLI TARGET", "Regione": "LOMBARDIA", "Prov": "BG", "Comune": "CENATE SOPRA", "NumCapiMalati": 1, "NumFocolai": 1 }, "geometry": { "type": "Point", "coordinates": [ 9.821774631000039, 45.719870671000081 ] } },
{ "type": "Feature", "properties": { "CodIstat": 33025, "DataSospetto": "2021-08-19T00:00:00", "Categoria": "UCCELLI SELVATICI", "Regione": "EMILIA ROMAGNA", "Prov": "PC", "Comune": "GROPPARELLO", "NumCapiMalati": 1, "NumFocolai": 1 }, "geometry": { "type": "Point", "coordinates": [ 9.709337920000053, 44.816385589000049 ] } },
{ "type": "Feature", "properties": { "CodIstat": 18068, "DataSospetto": "2021-10-04T00:00:00", "Categoria": "INSETTI", "Regione": "LOMBARDIA", "Prov": "PV", "Comune": "GAMBOLO'", "NumCapiMalati": 1, "NumFocolai": 1 }, "geometry": { "type": "Point", "coordinates": [ 8.862169557000072, 45.258398653000029 ] } },
{ "type": "Feature", "properties": { "CodIstat": 38001, "DataSospetto": "2021-07-15T00:00:00", "Categoria": "INSETTI", "Regione": "EMILIA ROMAGNA", "Prov": "FE", "Comune": "ARGENTA", "NumCapiMalati": 1, "NumFocolai": 1 }, "geometry": { "type": "Point", "coordinates": [ 11.888721223000061, 44.622211224000068 ] } },
{ "type": "Feature", "properties": { "CodIstat": 38001, "DataSospetto": "2021-07-15T00:00:00", "Categoria": "UCCELLI SELVATICI", "Regione": "EMILIA ROMAGNA", "Prov": "FE", "Comune": "ARGENTA", "NumCapiMalati": 1, "NumFocolai": 1 }, "geometry": { "type": "Point", "coordinates": [ 11.888721223000061, 44.622211224000068 ] } },
{ "type": "Feature", "properties": { "CodIstat": 38001, "DataSospetto": "2021-07-15T00:00:00", "Categoria": "UCCELLI TARGET", "Regione": "EMILIA ROMAGNA", "Prov": "FE", "Comune": "ARGENTA", "NumCapiMalati": 2, "NumFocolai": 1 }, "geometry": { "type": "Point", "coordinates": [ 11.888721223000061, 44.622211224000068 ] } },
{ "type": "Feature", "properties": { "CodIstat": 17038, "DataSospetto": "2021-08-30T00:00:00", "Categoria": "UCCELLI SELVATICI", "Regione": "LOMBARDIA", "Prov": "BS", "Comune": "CAPRIOLO", "NumCapiMalati": 1, "NumFocolai": 1 }, "geometry": { "type": "Point", "coordinates": [ 9.931621096000072, 45.63521027400003 ] } },
{ "type": "Feature", "properties": { "CodIstat": 16043, "DataSospetto": "2021-07-20T00:00:00", "Categoria": "UCCELLI TARGET", "Regione": "LOMBARDIA", "Prov": "BG", "Comune": "CALCINATE", "NumCapiMalati": 1, "NumFocolai": 1 }, "geometry": { "type": "Point", "coordinates": [ 9.790494428000045, 45.620816758000046 ] } },
{ "type": "Feature", "properties": { "CodIstat": 35021, "DataSospetto": "2021-07-29T00:00:00", "Categoria": "INSETTI", "Regione": "EMILIA ROMAGNA", "Prov": "RE", "Comune": "FABBRICO", "NumCapiMalati": 5, "NumFocolai": 1 }, "geometry": { "type": "Point", "coordinates": [ 10.812774404000038, 44.875873221000063 ] } },
{ "type": "Feature", "properties": { "CodIstat": 59005, "DataSospetto": "2020-11-14T00:00:00", "Categoria": "UCCELLI TARGET", "Regione": "LAZIO", "Prov": "LT", "Comune": "CISTERNA DI LATINA", "NumCapiMalati": 1, "NumFocolai": 1 }, "geometry": { "type": "Point", "coordinates": [ 12.83733987200003, 41.573361358000056 ] } },
{ "type": "Feature", "properties": { "CodIstat": 23025, "DataSospetto": "2021-08-07T00:00:00", "Categoria": "UCCELLI SELVATICI", "Regione": "VENETO", "Prov": "VR", "Comune": "CEREA", "NumCapiMalati": 1, "NumFocolai": 1 }, "geometry": { "type": "Point", "coordinates": [ 11.217996850000077, 45.17370819000007 ] } },
{ "type": "Feature", "properties": { "CodIstat": 4086, "DataSospetto": "2021-11-17T00:00:00", "Categoria": "UCCELLI SELVATICI", "Regione": "PIEMONTE", "Prov": "CN", "Comune": "FARIGLIANO", "NumCapiMalati": 1, "NumFocolai": 1 }, "geometry": { "type": "Point", "coordinates": [ 7.922144100000025, 44.509962324000071 ] } },
{ "type": "Feature", "properties": { "CodIstat": 37045, "DataSospetto": "2021-08-17T00:00:00", "Categoria": "INSETTI", "Regione": "EMILIA ROMAGNA", "Prov": "BO", "Comune": "MORDANO", "NumCapiMalati": 1, "NumFocolai": 1 }, "geometry": { "type": "Point", "coordinates": [ 11.796195598000054, 44.409512989000063 ] } },
{ "type": "Feature", "properties": { "CodIstat": 37003, "DataSospetto": "2021-08-17T00:00:00", "Categoria": "INSETTI", "Regione": "EMILIA ROMAGNA", "Prov": "BO", "Comune": "BARICELLA", "NumCapiMalati": 3, "NumFocolai": 1 }, "geometry": { "type": "Point", "coordinates": [ 11.571188390000032, 44.668541643000026 ] } },
{ "type": "Feature", "properties": { "CodIstat": 20026, "DataSospetto": "2021-08-24T00:00:00", "Categoria": "EQUIDI", "Regione": "LOMBARDIA", "Prov": "MN", "Comune": "GOITO", "NumCapiMalati": 1, "NumFocolai": 1 }, "geometry": { "type": "Point", "coordinates": [ 10.660540382000022, 45.250446520000025 ] } },
{ "type": "Feature", "properties": { "CodIstat": 91031, "DataSospetto": "2021-09-02T00:00:00", "Categoria": "UCCELLI SELVATICI", "Regione": "SARDEGNA", "Prov": "NU", "Comune": "GIRASOLE", "NumCapiMalati": 1, "NumFocolai": 1 }, "geometry": { "type": "Point", "coordinates": [ 9.644252578000021, 39.953534350000041 ] } },
{ "type": "Feature", "properties": { "CodIstat": 16133, "DataSospetto": "2021-09-09T00:00:00", "Categoria": "EQUIDI", "Regione": "LOMBARDIA", "Prov": "BG", "Comune": "MARTINENGO", "NumCapiMalati": 1, "NumFocolai": 1 }, "geometry": { "type": "Point", "coordinates": [ 9.77339399400006, 45.560680328000046 ] } },
{ "type": "Feature", "properties": { "CodIstat": 18164, "DataSospetto": "2021-08-02T00:00:00", "Categoria": "INSETTI", "Regione": "LOMBARDIA", "Prov": "PV", "Comune": "TROMELLO", "NumCapiMalati": 1, "NumFocolai": 1 }, "geometry": { "type": "Point", "coordinates": [ 8.852818291000062, 45.208236525000075 ] } },
{ "type": "Feature", "properties": { "CodIstat": 37050, "DataSospetto": "2021-08-10T00:00:00", "Categoria": "INSETTI", "Regione": "EMILIA ROMAGNA", "Prov": "BO", "Comune": "SALA BOLOGNESE", "NumCapiMalati": 1, "NumFocolai": 1 }, "geometry": { "type": "Point", "coordinates": [ 11.267963123000072, 44.626941112000054 ] } },
{ "type": "Feature", "properties": { "CodIstat": 27031, "DataSospetto": "2021-08-11T00:00:00", "Categoria": "INSETTI", "Regione": "VENETO", "Prov": "VE", "Comune": "QUARTO D'ALTINO", "NumCapiMalati": 1, "NumFocolai": 1 }, "geometry": { "type": "Point", "coordinates": [ 12.409101403000022, 45.560580443000049 ] } },
{ "type": "Feature", "properties": { "CodIstat": 29050, "DataSospetto": "2021-08-26T00:00:00", "Categoria": "INSETTI", "Regione": "VENETO", "Prov": "RO", "Comune": "VILLANOVA DEL GHEBBO", "NumCapiMalati": 1, "NumFocolai": 1 }, "geometry": { "type": "Point", "coordinates": [ 11.658581543000025, 45.06707175400004 ] } },
{ "type": "Feature", "properties": { "CodIstat": 90052, "DataSospetto": "2021-09-19T00:00:00", "Categoria": "UCCELLI TARGET", "Regione": "SARDEGNA", "Prov": "SS", "Comune": "OZIERI", "NumCapiMalati": 1, "NumFocolai": 1 }, "geometry": { "type": "Point", "coordinates": [ 8.953196152000032, 40.632697534000044 ] } },
{ "type": "Feature", "properties": { "CodIstat": 90052, "DataSospetto": "2021-09-27T00:00:00", "Categoria": "UCCELLI SELVATICI", "Regione": "SARDEGNA", "Prov": "SS", "Comune": "OZIERI", "NumCapiMalati": 1, "NumFocolai": 1 }, "geometry": { "type": "Point", "coordinates": [ 8.953196152000032, 40.632697534000044 ] } },
{ "type": "Feature", "properties": { "CodIstat": 90052, "DataSospetto": "2021-10-03T00:00:00", "Categoria": "UCCELLI TARGET", "Regione": "SARDEGNA", "Prov": "SS", "Comune": "OZIERI", "NumCapiMalati": 2, "NumFocolai": 2 }, "geometry": { "type": "Point", "coordinates": [ 8.953196152000032, 40.632697534000044 ] } },
{ "type": "Feature", "properties": { "CodIstat": 23068, "DataSospetto": "2021-09-03T00:00:00", "Categoria": "UCCELLI TARGET", "Regione": "VENETO", "Prov": "VR", "Comune": "SALIZZOLE", "NumCapiMalati": 2, "NumFocolai": 2 }, "geometry": { "type": "Point", "coordinates": [ 11.089517622000074, 45.222109290000049 ] } },
{ "type": "Feature", "properties": { "CodIstat": 38022, "DataSospetto": "2021-07-31T00:00:00", "Categoria": "UCCELLI SELVATICI", "Regione": "EMILIA ROMAGNA", "Prov": "FE", "Comune": "VIGARANO MAINARDA", "NumCapiMalati": 1, "NumFocolai": 1 }, "geometry": { "type": "Point", "coordinates": [ 11.496263617000068, 44.852440719000072 ] } },
{ "type": "Feature", "properties": { "CodIstat": 35028, "DataSospetto": "2021-07-15T00:00:00", "Categoria": "INSETTI", "Regione": "EMILIA ROMAGNA", "Prov": "RE", "Comune": "NOVELLARA", "NumCapiMalati": 1, "NumFocolai": 1 }, "geometry": { "type": "Point", "coordinates": [ 10.708439074000069, 44.845286525000063 ] } },
{ "type": "Feature", "properties": { "CodIstat": 35028, "DataSospetto": "2021-07-15T00:00:00", "Categoria": "UCCELLI TARGET", "Regione": "EMILIA ROMAGNA", "Prov": "RE", "Comune": "NOVELLARA", "NumCapiMalati": 3, "NumFocolai": 2 }, "geometry": { "type": "Point", "coordinates": [ 10.708439074000069, 44.845286525000063 ] } },
{ "type": "Feature", "properties": { "CodIstat": 28060, "DataSospetto": "2021-10-21T00:00:00", "Categoria": "UCCELLI SELVATICI", "Regione": "VENETO", "Prov": "PD", "Comune": "PADOVA", "NumCapiMalati": 1, "NumFocolai": 1 }, "geometry": { "type": "Point", "coordinates": [ 11.883099091000076, 45.40343045700007 ] } },
{ "type": "Feature", "properties": { "CodIstat": 20055, "DataSospetto": "2021-07-27T00:00:00", "Categoria": "INSETTI", "Regione": "LOMBARDIA", "Prov": "MN", "Comune": "SAN BENEDETTO PO", "NumCapiMalati": 1, "NumFocolai": 1 }, "geometry": { "type": "Point", "coordinates": [ 10.929855546000056, 45.034342256000059 ] } },
{ "type": "Feature", "properties": { "CodIstat": 4163, "DataSospetto": "2021-11-17T00:00:00", "Categoria": "UCCELLI TARGET", "Regione": "PIEMONTE", "Prov": "CN", "Comune": "PEVERAGNO", "NumCapiMalati": 1, "NumFocolai": 1 }, "geometry": { "type": "Point", "coordinates": [ 7.617913644000055, 44.310761734000039 ] } },
{ "type": "Feature", "properties": { "CodIstat": 33043, "DataSospetto": "2021-08-11T00:00:00", "Categoria": "UCCELLI SELVATICI", "Regione": "EMILIA ROMAGNA", "Prov": "PC", "Comune": "TRAVO", "NumCapiMalati": 1, "NumFocolai": 1 }, "geometry": { "type": "Point", "coordinates": [ 9.525832930000036, 44.857710051000026 ] } },
{ "type": "Feature", "properties": { "CodIstat": 33043, "DataSospetto": "2021-08-11T00:00:00", "Categoria": "UCCELLI TARGET", "Regione": "EMILIA ROMAGNA", "Prov": "PC", "Comune": "TRAVO", "NumCapiMalati": 1, "NumFocolai": 1 }, "geometry": { "type": "Point", "coordinates": [ 9.525832930000036, 44.857710051000026 ] } },
{ "type": "Feature", "properties": { "CodIstat": 27034, "DataSospetto": "2021-07-27T00:00:00", "Categoria": "INSETTI", "Regione": "VENETO", "Prov": "VE", "Comune": "SAN MICHELE AL TAGLIAMENTO", "NumCapiMalati": 5, "NumFocolai": 1 }, "geometry": { "type": "Point", "coordinates": [ 13.002605535000043, 45.708940341000073 ] } },
{ "type": "Feature", "properties": { "CodIstat": 17160, "DataSospetto": "2021-08-23T00:00:00", "Categoria": "INSETTI", "Regione": "LOMBARDIA", "Prov": "BS", "Comune": "REMEDELLO", "NumCapiMalati": 2, "NumFocolai": 1 }, "geometry": { "type": "Point", "coordinates": [ 10.369264367000028, 45.274619529000063 ] } },
{ "type": "Feature", "properties": { "CodIstat": 16244, "DataSospetto": "2021-08-19T00:00:00", "Categoria": "UCCELLI TARGET", "Regione": "LOMBARDIA", "Prov": "BG", "Comune": "ZANDOBBIO", "NumCapiMalati": 2, "NumFocolai": 1 }, "geometry": { "type": "Point", "coordinates": [ 9.876330978000055, 45.684323053000071 ] } },
{ "type": "Feature", "properties": { "CodIstat": 23095, "DataSospetto": "2021-08-17T00:00:00", "Categoria": "INSETTI", "Regione": "VENETO", "Prov": "VR", "Comune": "VILLA BARTOLOMEA", "NumCapiMalati": 4, "NumFocolai": 1 }, "geometry": { "type": "Point", "coordinates": [ 11.350469389000068, 45.118176840000046 ] } },
{ "type": "Feature", "properties": { "CodIstat": 4061, "DataSospetto": "2021-11-11T00:00:00", "Categoria": "UCCELLI SELVATICI", "Regione": "PIEMONTE", "Prov": "CN", "Comune": "CENTALLO", "NumCapiMalati": 1, "NumFocolai": 1 }, "geometry": { "type": "Point", "coordinates": [ 7.592812928000058, 44.488088008000034 ] } },
{ "type": "Feature", "properties": { "CodIstat": 16053, "DataSospetto": "2021-07-20T00:00:00", "Categoria": "UCCELLI TARGET", "Regione": "LOMBARDIA", "Prov": "BG", "Comune": "CARAVAGGIO", "NumCapiMalati": 1, "NumFocolai": 1 }, "geometry": { "type": "Point", "coordinates": [ 9.653390494000064, 45.492395642000076 ] } },
{ "type": "Feature", "properties": { "CodIstat": 18051, "DataSospetto": "2021-09-17T00:00:00", "Categoria": "UCCELLI SELVATICI", "Regione": "LOMBARDIA", "Prov": "PV", "Comune": "CODEVILLA", "NumCapiMalati": 1, "NumFocolai": 1 }, "geometry": { "type": "Point", "coordinates": [ 9.06102007100003, 44.96420940400003 ] } },
{ "type": "Feature", "properties": { "CodIstat": 33011, "DataSospetto": "2021-08-28T00:00:00", "Categoria": "UCCELLI TARGET", "Regione": "EMILIA ROMAGNA", "Prov": "PC", "Comune": "CARPANETO PIACENTINO", "NumCapiMalati": 1, "NumFocolai": 1 }, "geometry": { "type": "Point", "coordinates": [ 9.796654502000024, 44.899155891000078 ] } },
{ "type": "Feature", "properties": { "CodIstat": 15071, "DataSospetto": "2021-09-22T00:00:00", "Categoria": "EQUIDI", "Regione": "LOMBARDIA", "Prov": "MI", "Comune": "CERRO AL LAMBRO", "NumCapiMalati": 1, "NumFocolai": 1 }, "geometry": { "type": "Point", "coordinates": [ 9.32728856500006, 45.331861997000033 ] } },
{ "type": "Feature", "properties": { "CodIstat": 2047, "DataSospetto": "2021-10-27T00:00:00", "Categoria": "UCCELLI TARGET", "Regione": "PIEMONTE", "Prov": "VC", "Comune": "COSTANZANA", "NumCapiMalati": 1, "NumFocolai": 1 }, "geometry": { "type": "Point", "coordinates": [ 8.366382882000039, 45.224086692000071 ] } },
{ "type": "Feature", "properties": { "CodIstat": 35018, "DataSospetto": "2021-08-20T00:00:00", "Categoria": "UCCELLI SELVATICI", "Regione": "EMILIA ROMAGNA", "Prov": "RE", "Comune": "CANOSSA", "NumCapiMalati": 1, "NumFocolai": 1 }, "geometry": { "type": "Point", "coordinates": [ 10.412453199000026, 44.551789152000026 ] } },
{ "type": "Feature", "properties": { "CodIstat": 37001, "DataSospetto": "2021-08-10T00:00:00", "Categoria": "INSETTI", "Regione": "EMILIA ROMAGNA", "Prov": "BO", "Comune": "ANZOLA DELL'EMILIA", "NumCapiMalati": 1, "NumFocolai": 1 }, "geometry": { "type": "Point", "coordinates": [ 11.193588662000025, 44.565243942000052 ] } },
{ "type": "Feature", "properties": { "CodIstat": 90003, "DataSospetto": "2021-09-10T00:00:00", "Categoria": "UCCELLI SELVATICI", "Regione": "SARDEGNA", "Prov": "SS", "Comune": "ALGHERO", "NumCapiMalati": 1, "NumFocolai": 1 }, "geometry": { "type": "Point", "coordinates": [ 8.298920322000072, 40.599865471000044 ] } },
{ "type": "Feature", "properties": { "CodIstat": 33004, "DataSospetto": "2021-08-04T00:00:00", "Categoria": "UCCELLI TARGET", "Regione": "EMILIA ROMAGNA", "Prov": "PC", "Comune": "BETTOLA", "NumCapiMalati": 1, "NumFocolai": 1 }, "geometry": { "type": "Point", "coordinates": [ 9.596410520000063, 44.778640504000066 ] } },
{ "type": "Feature", "properties": { "CodIstat": 98011, "DataSospetto": "2021-08-25T00:00:00", "Categoria": "INSETTI", "Regione": "LOMBARDIA", "Prov": "LO", "Comune": "CASELLE LANDI", "NumCapiMalati": 1, "NumFocolai": 1 }, "geometry": { "type": "Point", "coordinates": [ 9.807957310000063, 45.098261090000051 ] } },
{ "type": "Feature", "properties": { "CodIstat": 35008, "DataSospetto": "2021-08-10T00:00:00", "Categoria": "UCCELLI TARGET", "Regione": "EMILIA ROMAGNA", "Prov": "RE", "Comune": "CADELBOSCO DI SOPRA", "NumCapiMalati": 3, "NumFocolai": 2 }, "geometry": { "type": "Point", "coordinates": [ 10.618654898000045, 44.796130266000034 ] } },
{ "type": "Feature", "properties": { "CodIstat": 35002, "DataSospetto": "2021-08-12T00:00:00", "Categoria": "INSETTI", "Regione": "EMILIA ROMAGNA", "Prov": "RE", "Comune": "BAGNOLO IN PIANO", "NumCapiMalati": 1, "NumFocolai": 1 }, "geometry": { "type": "Point", "coordinates": [ 10.678764349000062, 44.784089299000073 ] } },
{ "type": "Feature", "properties": { "CodIstat": 18024, "DataSospetto": "2021-08-02T00:00:00", "Categoria": "INSETTI", "Regione": "LOMBARDIA", "Prov": "PV", "Comune": "BRONI", "NumCapiMalati": 1, "NumFocolai": 1 }, "geometry": { "type": "Point", "coordinates": [ 9.250171321000039, 45.070835703000057 ] } },
{ "type": "Feature", "properties": { "CodIstat": 27005, "DataSospetto": "2021-08-10T00:00:00", "Categoria": "INSETTI", "Regione": "VENETO", "Prov": "VE", "Comune": "CAORLE", "NumCapiMalati": 1, "NumFocolai": 1 }, "geometry": { "type": "Point", "coordinates": [ 12.869871936000038, 45.639714136000066 ] } },
{ "type": "Feature", "properties": { "CodIstat": 35022, "DataSospetto": "2021-08-12T00:00:00", "Categoria": "INSETTI", "Regione": "EMILIA ROMAGNA", "Prov": "RE", "Comune": "GATTATICO", "NumCapiMalati": 1, "NumFocolai": 1 }, "geometry": { "type": "Point", "coordinates": [ 10.47140108800005, 44.799928287000057 ] } },
{ "type": "Feature", "properties": { "CodIstat": 36022, "DataSospetto": "2021-08-05T00:00:00", "Categoria": "INSETTI", "Regione": "EMILIA ROMAGNA", "Prov": "MO", "Comune": "MIRANDOLA", "NumCapiMalati": 1, "NumFocolai": 1 }, "geometry": { "type": "Point", "coordinates": [ 11.124164834000055, 44.907481682000025 ] } },
{ "type": "Feature", "properties": { "CodIstat": 37039, "DataSospetto": "2021-08-17T00:00:00", "Categoria": "INSETTI", "Regione": "EMILIA ROMAGNA", "Prov": "BO", "Comune": "MOLINELLA", "NumCapiMalati": 1, "NumFocolai": 1 }, "geometry": { "type": "Point", "coordinates": [ 11.685647190000054, 44.608341571000039 ] } },
{ "type": "Feature", "properties": { "CodIstat": 15188, "DataSospetto": "2021-09-15T00:00:00", "Categoria": "INSETTI", "Regione": "LOMBARDIA", "Prov": "MI", "Comune": "ROSATE", "NumCapiMalati": 2, "NumFocolai": 1 }, "geometry": { "type": "Point", "coordinates": [ 9.018524389000049, 45.351051491000078 ] } },
{ "type": "Feature", "properties": { "CodIstat": 33038, "DataSospetto": "2021-08-10T00:00:00", "Categoria": "UCCELLI SELVATICI", "Regione": "EMILIA ROMAGNA", "Prov": "PC", "Comune": "RIVERGARO", "NumCapiMalati": 1, "NumFocolai": 1 }, "geometry": { "type": "Point", "coordinates": [ 9.611708905000057, 44.916467048000072 ] } },
{ "type": "Feature", "properties": { "CodIstat": 33038, "DataSospetto": "2021-08-10T00:00:00", "Categoria": "UCCELLI TARGET", "Regione": "EMILIA ROMAGNA", "Prov": "PC", "Comune": "RIVERGARO", "NumCapiMalati": 1, "NumFocolai": 1 }, "geometry": { "type": "Point", "coordinates": [ 9.611708905000057, 44.916467048000072 ] } },
{ "type": "Feature", "properties": { "CodIstat": 6140, "DataSospetto": "2021-08-19T00:00:00", "Categoria": "UCCELLI SELVATICI", "Regione": "PIEMONTE", "Prov": "AL", "Comune": "PREDOSA", "NumCapiMalati": 1, "NumFocolai": 1 }, "geometry": { "type": "Point", "coordinates": [ 8.638580194000042, 44.754564603000063 ] } },
{ "type": "Feature", "properties": { "CodIstat": 36012, "DataSospetto": "2021-07-22T00:00:00", "Categoria": "INSETTI", "Regione": "EMILIA ROMAGNA", "Prov": "MO", "Comune": "FINALE EMILIA", "NumCapiMalati": 3, "NumFocolai": 1 }, "geometry": { "type": "Point", "coordinates": [ 11.266477194000061, 44.849116109000079 ] } },
{ "type": "Feature", "properties": { "CodIstat": 12068, "DataSospetto": "2021-09-20T00:00:00", "Categoria": "UCCELLI SELVATICI", "Regione": "LOMBARDIA", "Prov": "VA", "Comune": "FERNO", "NumCapiMalati": 1, "NumFocolai": 1 }, "geometry": { "type": "Point", "coordinates": [ 8.738605268000072, 45.619516088000069 ] } },
{ "type": "Feature", "properties": { "CodIstat": 38008, "DataSospetto": "2021-07-23T00:00:00", "Categoria": "UCCELLI SELVATICI", "Regione": "EMILIA ROMAGNA", "Prov": "FE", "Comune": "FERRARA", "NumCapiMalati": 10, "NumFocolai": 3 }, "geometry": { "type": "Point", "coordinates": [ 11.649123246000045, 44.822929214000055 ] } },
{ "type": "Feature", "properties": { "CodIstat": 38008, "DataSospetto": "2021-07-23T00:00:00", "Categoria": "UCCELLI TARGET", "Regione": "EMILIA ROMAGNA", "Prov": "FE", "Comune": "FERRARA", "NumCapiMalati": 5, "NumFocolai": 1 }, "geometry": { "type": "Point", "coordinates": [ 11.649123246000045, 44.822929214000055 ] } },
{ "type": "Feature", "properties": { "CodIstat": 18077, "DataSospetto": "2021-09-28T00:00:00", "Categoria": "INSETTI", "Regione": "LOMBARDIA", "Prov": "PV", "Comune": "INVERNO E MONTELEONE", "NumCapiMalati": 1, "NumFocolai": 1 }, "geometry": { "type": "Point", "coordinates": [ 9.396181845000058, 45.193775087000063 ] } },
{ "type": "Feature", "properties": { "CodIstat": 18109, "DataSospetto": "2021-09-02T00:00:00", "Categoria": "INSETTI", "Regione": "LOMBARDIA", "Prov": "PV", "Comune": "PARONA", "NumCapiMalati": 1, "NumFocolai": 1 }, "geometry": { "type": "Point", "coordinates": [ 8.761282848000064, 45.283342456000071 ] } },
{ "type": "Feature", "properties": { "CodIstat": 90047, "DataSospetto": "2021-10-05T00:00:00", "Categoria": "UCCELLI SELVATICI", "Regione": "SARDEGNA", "Prov": "SS", "Comune": "OLBIA", "NumCapiMalati": 1, "NumFocolai": 1 }, "geometry": { "type": "Point", "coordinates": [ 9.479398524000032, 40.922983563000059 ] } },
{ "type": "Feature", "properties": { "CodIstat": 90047, "DataSospetto": "2021-10-24T00:00:00", "Categoria": "UCCELLI SELVATICI", "Regione": "SARDEGNA", "Prov": "SS", "Comune": "OLBIA", "NumCapiMalati": 1, "NumFocolai": 1 }, "geometry": { "type": "Point", "coordinates": [ 9.479398524000032, 40.922983563000059 ] } },
{ "type": "Feature", "properties": { "CodIstat": 90047, "DataSospetto": "2021-11-01T00:00:00", "Categoria": "UCCELLI SELVATICI", "Regione": "SARDEGNA", "Prov": "SS", "Comune": "OLBIA", "NumCapiMalati": 1, "NumFocolai": 1 }, "geometry": { "type": "Point", "coordinates": [ 9.479398524000032, 40.922983563000059 ] } },
{ "type": "Feature", "properties": { "CodIstat": 90047, "DataSospetto": "2021-11-09T00:00:00", "Categoria": "UCCELLI SELVATICI", "Regione": "SARDEGNA", "Prov": "SS", "Comune": "OLBIA", "NumCapiMalati": 1, "NumFocolai": 1 }, "geometry": { "type": "Point", "coordinates": [ 9.479398524000032, 40.922983563000059 ] } },
{ "type": "Feature", "properties": { "CodIstat": 38017, "DataSospetto": "2021-08-18T00:00:00", "Categoria": "UCCELLI SELVATICI", "Regione": "EMILIA ROMAGNA", "Prov": "FE", "Comune": "OSTELLATO", "NumCapiMalati": 1, "NumFocolai": 1 }, "geometry": { "type": "Point", "coordinates": [ 11.977784728000074, 44.723705839000047 ] } },
{ "type": "Feature", "properties": { "CodIstat": 90084, "DataSospetto": "2021-10-17T00:00:00", "Categoria": "UCCELLI SELVATICI", "Regione": "SARDEGNA", "Prov": "SS", "Comune": "LOIRI PORTO SAN PAOLO", "NumCapiMalati": 1, "NumFocolai": 1 }, "geometry": { "type": "Point", "coordinates": [ 9.558787736000056, 40.835343582000064 ] } },
{ "type": "Feature", "properties": { "CodIstat": 15134, "DataSospetto": "2021-09-08T00:00:00", "Categoria": "UCCELLI TARGET", "Regione": "LOMBARDIA", "Prov": "MI", "Comune": "MARCALLO CON CASONE", "NumCapiMalati": 1, "NumFocolai": 1 }, "geometry": { "type": "Point", "coordinates": [ 8.869357557000058, 45.486466157000052 ] } },
{ "type": "Feature", "properties": { "CodIstat": 4151, "DataSospetto": "2021-11-17T00:00:00", "Categoria": "UCCELLI SELVATICI", "Regione": "PIEMONTE", "Prov": "CN", "Comune": "NIELLA TANARO", "NumCapiMalati": 1, "NumFocolai": 1 }, "geometry": { "type": "Point", "coordinates": [ 7.922572554000055, 44.409609280000041 ] } },
{ "type": "Feature", "properties": { "CodIstat": 33032, "DataSospetto": "2021-07-19T00:00:00", "Categoria": "INSETTI", "Regione": "EMILIA ROMAGNA", "Prov": "PC", "Comune": "PIACENZA", "NumCapiMalati": 1, "NumFocolai": 1 }, "geometry": { "type": "Point", "coordinates": [ 9.717737473000057, 45.041430220000052 ] } },
{ "type": "Feature", "properties": { "CodIstat": 33032, "DataSospetto": "2021-07-19T00:00:00", "Categoria": "UCCELLI SELVATICI", "Regione": "EMILIA ROMAGNA", "Prov": "PC", "Comune": "PIACENZA", "NumCapiMalati": 3, "NumFocolai": 3 }, "geometry": { "type": "Point", "coordinates": [ 9.717737473000057, 45.041430220000052 ] } },
{ "type": "Feature", "properties": { "CodIstat": 33032, "DataSospetto": "2021-07-19T00:00:00", "Categoria": "UCCELLI TARGET", "Regione": "EMILIA ROMAGNA", "Prov": "PC", "Comune": "PIACENZA", "NumCapiMalati": 3, "NumFocolai": 2 }, "geometry": { "type": "Point", "coordinates": [ 9.717737473000057, 45.041430220000052 ] } },
{ "type": "Feature", "properties": { "CodIstat": 38019, "DataSospetto": "2021-08-06T00:00:00", "Categoria": "UCCELLI TARGET", "Regione": "EMILIA ROMAGNA", "Prov": "FE", "Comune": "PORTOMAGGIORE", "NumCapiMalati": 2, "NumFocolai": 1 }, "geometry": { "type": "Point", "coordinates": [ 11.838771028000053, 44.69824161300005 ] } },
{ "type": "Feature", "properties": { "CodIstat": 16218, "DataSospetto": "2021-11-13T00:00:00", "Categoria": "UCCELLI SELVATICI", "Regione": "LOMBARDIA", "Prov": "BG", "Comune": "TRESCORE BALNEARIO", "NumCapiMalati": 1, "NumFocolai": 1 }, "geometry": { "type": "Point", "coordinates": [ 9.851117979000037, 45.699128 ] } },
{ "type": "Feature", "properties": { "CodIstat": 6127, "DataSospetto": "2021-09-02T00:00:00", "Categoria": "INSETTI", "Regione": "PIEMONTE", "Prov": "AL", "Comune": "PASTURANA", "NumCapiMalati": 1, "NumFocolai": 1 }, "geometry": { "type": "Point", "coordinates": [ 8.746362743000077, 44.75059303200004 ] } },
{ "type": "Feature", "properties": { "CodIstat": 33035, "DataSospetto": "2021-08-24T00:00:00", "Categoria": "INSETTI", "Regione": "EMILIA ROMAGNA", "Prov": "PC", "Comune": "PODENZANO", "NumCapiMalati": 1, "NumFocolai": 1 }, "geometry": { "type": "Point", "coordinates": [ 9.702118283000061, 44.970495562000053 ] } },
{ "type": "Feature", "properties": { "CodIstat": 33035, "DataSospetto": "2021-09-08T00:00:00", "Categoria": "EQUIDI", "Regione": "EMILIA ROMAGNA", "Prov": "PC", "Comune": "PODENZANO", "NumCapiMalati": 1, "NumFocolai": 1 }, "geometry": { "type": "Point", "coordinates": [ 9.702118283000061, 44.970495562000053 ] } },
{ "type": "Feature", "properties": { "CodIstat": 37055, "DataSospetto": "2021-08-19T00:00:00", "Categoria": "INSETTI", "Regione": "EMILIA ROMAGNA", "Prov": "BO", "Comune": "SAN PIETRO IN CASALE", "NumCapiMalati": 1, "NumFocolai": 1 }, "geometry": { "type": "Point", "coordinates": [ 11.404694340000049, 44.710534353000071 ] } },
{ "type": "Feature", "properties": { "CodIstat": 37055, "DataSospetto": "2021-08-19T00:00:00", "Categoria": "UCCELLI SELVATICI", "Regione": "EMILIA ROMAGNA", "Prov": "BO", "Comune": "SAN PIETRO IN CASALE", "NumCapiMalati": 1, "NumFocolai": 1 }, "geometry": { "type": "Point", "coordinates": [ 11.404694340000049, 44.710534353000071 ] } },
{ "type": "Feature", "properties": { "CodIstat": 15130, "DataSospetto": "2021-09-17T00:00:00", "Categoria": "UCCELLI TARGET", "Regione": "LOMBARDIA", "Prov": "MI", "Comune": "MAGENTA", "NumCapiMalati": 1, "NumFocolai": 1 }, "geometry": { "type": "Point", "coordinates": [ 8.862490456000046, 45.453412201000049 ] } },
{ "type": "Feature", "properties": { "CodIstat": 33037, "DataSospetto": "2021-08-31T00:00:00", "Categoria": "UCCELLI SELVATICI", "Regione": "EMILIA ROMAGNA", "Prov": "PC", "Comune": "PONTENURE", "NumCapiMalati": 1, "NumFocolai": 1 }, "geometry": { "type": "Point", "coordinates": [ 9.795807927000055, 44.993296933000067 ] } },
{ "type": "Feature", "properties": { "CodIstat": 30100, "DataSospetto": "2021-07-22T00:00:00", "Categoria": "INSETTI", "Regione": "FRIULI VENEZIA GIULIA", "Prov": "UD", "Comune": "SAN GIORGIO DI NOGARO", "NumCapiMalati": 1, "NumFocolai": 1 }, "geometry": { "type": "Point", "coordinates": [ 13.216733784000041, 45.81047611200006 ] } },
{ "type": "Feature", "properties": { "CodIstat": 34032, "DataSospetto": "2021-09-16T00:00:00", "Categoria": "UCCELLI TARGET", "Regione": "EMILIA ROMAGNA", "Prov": "PR", "Comune": "SALSOMAGGIORE TERME", "NumCapiMalati": 4, "NumFocolai": 2 }, "geometry": { "type": "Point", "coordinates": [ 9.981244348000075, 44.804000279000036 ] } },
{ "type": "Feature", "properties": { "CodIstat": 36039, "DataSospetto": "2021-07-12T00:00:00", "Categoria": "INSETTI", "Regione": "EMILIA ROMAGNA", "Prov": "MO", "Comune": "SAN PROSPERO", "NumCapiMalati": 1, "NumFocolai": 1 }, "geometry": { "type": "Point", "coordinates": [ 11.032432018000065, 44.789482027000076 ] } },
{ "type": "Feature", "properties": { "CodIstat": 36039, "DataSospetto": "2021-07-12T00:00:00", "Categoria": "UCCELLI SELVATICI", "Regione": "EMILIA ROMAGNA", "Prov": "MO", "Comune": "SAN PROSPERO", "NumCapiMalati": 1, "NumFocolai": 1 }, "geometry": { "type": "Point", "coordinates": [ 11.032432018000065, 44.789482027000076 ] } },
{ "type": "Feature", "properties": { "CodIstat": 34036, "DataSospetto": "2021-08-17T00:00:00", "Categoria": "INSETTI", "Regione": "EMILIA ROMAGNA", "Prov": "PR", "Comune": "SORAGNA", "NumCapiMalati": 2, "NumFocolai": 1 }, "geometry": { "type": "Point", "coordinates": [ 10.138406463000024, 44.937687363000066 ] } },
{ "type": "Feature", "properties": { "CodIstat": 34036, "DataSospetto": "2021-08-17T00:00:00", "Categoria": "UCCELLI TARGET", "Regione": "EMILIA ROMAGNA", "Prov": "PR", "Comune": "SORAGNA", "NumCapiMalati": 1, "NumFocolai": 1 }, "geometry": { "type": "Point", "coordinates": [ 10.138406463000024, 44.937687363000066 ] } },
{ "type": "Feature", "properties": { "CodIstat": 33033, "DataSospetto": "2021-09-16T00:00:00", "Categoria": "UCCELLI SELVATICI", "Regione": "EMILIA ROMAGNA", "Prov": "PC", "Comune": "PIANELLO VAL TIDONE", "NumCapiMalati": 1, "NumFocolai": 1 }, "geometry": { "type": "Point", "coordinates": [ 9.411050948000025, 44.925965516000076 ] } },
{ "type": "Feature", "properties": { "CodIstat": 6177, "DataSospetto": "2021-10-22T00:00:00", "Categoria": "EQUIDI", "Regione": "PIEMONTE", "Prov": "AL", "Comune": "VALENZA", "NumCapiMalati": 2, "NumFocolai": 1 }, "geometry": { "type": "Point", "coordinates": [ 8.629390216000047, 45.019079810000051 ] } },
{ "type": "Feature", "properties": { "CodIstat": 27019, "DataSospetto": "2021-07-27T00:00:00", "Categoria": "INSETTI", "Regione": "VENETO", "Prov": "VE", "Comune": "JESOLO", "NumCapiMalati": 1, "NumFocolai": 1 }, "geometry": { "type": "Point", "coordinates": [ 12.633256268000025, 45.534788129000049 ] } },
{ "type": "Feature", "properties": { "CodIstat": 27019, "DataSospetto": "2021-08-09T00:00:00", "Categoria": "UCCELLI SELVATICI", "Regione": "VENETO", "Prov": "VE", "Comune": "JESOLO", "NumCapiMalati": 1, "NumFocolai": 1 }, "geometry": { "type": "Point", "coordinates": [ 12.633256268000025, 45.534788129000049 ] } },
{ "type": "Feature", "properties": { "CodIstat": 54053, "DataSospetto": "2022-01-19T00:00:00", "Categoria": "UCCELLI SELVATICI", "Regione": "UMBRIA", "Prov": "PG", "Comune": "TORGIANO", "NumCapiMalati": 1, "NumFocolai": 1 }, "geometry": { "type": "Point", "coordinates": [ 12.450230801000032, 43.041385077000029 ] } },
{ "type": "Feature", "properties": { "CodIstat": 37053, "DataSospetto": "2021-08-10T00:00:00", "Categoria": "INSETTI", "Regione": "EMILIA ROMAGNA", "Prov": "BO", "Comune": "SAN GIOVANNI IN PERSICETO", "NumCapiMalati": 2, "NumFocolai": 1 }, "geometry": { "type": "Point", "coordinates": [ 11.203030177000073, 44.66028536400006 ] } },
{ "type": "Feature", "properties": { "CodIstat": 36044, "DataSospetto": "2021-09-23T00:00:00", "Categoria": "UCCELLI TARGET", "Regione": "EMILIA ROMAGNA", "Prov": "MO", "Comune": "SOLIERA", "NumCapiMalati": 1, "NumFocolai": 1 }, "geometry": { "type": "Point", "coordinates": [ 10.941646228000025, 44.747626573000048 ] } },
{ "type": "Feature", "properties": { "CodIstat": 28086, "DataSospetto": "2021-08-18T00:00:00", "Categoria": "INSETTI", "Regione": "VENETO", "Prov": "PD", "Comune": "SELVAZZANO DENTRO", "NumCapiMalati": 1, "NumFocolai": 1 }, "geometry": { "type": "Point", "coordinates": [ 11.789607244000024, 45.399493106000079 ] } },
{ "type": "Feature", "properties": { "CodIstat": 28086, "DataSospetto": "2021-10-11T00:00:00", "Categoria": "UCCELLI SELVATICI", "Regione": "VENETO", "Prov": "PD", "Comune": "SELVAZZANO DENTRO", "NumCapiMalati": 1, "NumFocolai": 1 }, "geometry": { "type": "Point", "coordinates": [ 11.789607244000024, 45.399493106000079 ] } },
{ "type": "Feature", "properties": { "CodIstat": 24119, "DataSospetto": "2021-08-27T00:00:00", "Categoria": "UCCELLI TARGET", "Regione": "VENETO", "Prov": "VI", "Comune": "ZANE'", "NumCapiMalati": 1, "NumFocolai": 1 }, "geometry": { "type": "Point", "coordinates": [ 11.44816253700003, 45.721556981000049 ] } },
{ "type": "Feature", "properties": { "CodIstat": 3158, "DataSospetto": "2021-10-22T00:00:00", "Categoria": "INSETTI", "Regione": "PIEMONTE", "Prov": "NO", "Comune": "VESPOLATE", "NumCapiMalati": 1, "NumFocolai": 1 }, "geometry": { "type": "Point", "coordinates": [ 8.661268488000076, 45.346219068000039 ] } },
{ "type": "Feature", "properties": { "CodIstat": 18182, "DataSospetto": "2021-09-01T00:00:00", "Categoria": "EQUIDI", "Regione": "LOMBARDIA", "Prov": "PV", "Comune": "VOGHERA", "NumCapiMalati": 1, "NumFocolai": 1 }, "geometry": { "type": "Point", "coordinates": [ 9.013393425000061, 45.008414475000052 ] } },
{ "type": "Feature", "properties": { "CodIstat": 38030, "DataSospetto": "2021-09-27T00:00:00", "Categoria": "UCCELLI TARGET", "Regione": "EMILIA ROMAGNA", "Prov": "FE", "Comune": "TRESIGNANA", "NumCapiMalati": 2, "NumFocolai": 1 }, "geometry": { "type": "Point", "coordinates": [ 11.883006475000059, 44.825639757000033 ] } },
{ "type": "Feature", "properties": { "CodIstat": 34050, "DataSospetto": "2021-08-03T00:00:00", "Categoria": "INSETTI", "Regione": "EMILIA ROMAGNA", "Prov": "PR", "Comune": "POLESINE ZIBELLO", "NumCapiMalati": 1, "NumFocolai": 1 }, "geometry": { "type": "Point", "coordinates": [ 10.117759980000073, 45.012790138000071 ] } }
]
}
