{
"type": "FeatureCollection",
"crs": { "type": "name", "properties": { "name": "urn:ogc:def:crs:OGC:1.3:CRS84" } },
"features": [
{ "type": "Feature", "properties": { "Anno": 2018, "Sede": "TE", "Regione": "VENETO", "Provincia": "TV", "SiglaProvincia": "TREVISO", "Comune": "CORNUDA", "CodIstat": 26023, "N_insetti": 0, "N_uccelli": 2, "N_tot": 2, "Categoria": "UCCELLI" }, "geometry": { "type": "Point", "coordinates": [ 11.995798776000072, 45.832265679000045 ] } },
{ "type": "Feature", "properties": { "Anno": 2018, "Sede": "TE", "Regione": "EMILIA ROMAGNA", "Provincia": "FE", "SiglaProvincia": "FERRARA", "Comune": "COMACCHIO", "CodIstat": 38006, "N_insetti": 6, "N_uccelli": 1, "N_tot": 7, "Categoria": "MISTO" }, "geometry": { "type": "Point", "coordinates": [ 12.162001007000072, 44.683399501000054 ] } },
{ "type": "Feature", "properties": { "Anno": 2018, "Sede": "TE", "Regione": "EMILIA ROMAGNA", "Provincia": "PC", "SiglaProvincia": "PIACENZA", "Comune": "CORTEMAGGIORE", "CodIstat": 33018, "N_insetti": 2, "N_uccelli": 0, "N_tot": 2, "Categoria": "INSETTI" }, "geometry": { "type": "Point", "coordinates": [ 9.920532560000026, 45.00042372200005 ] } },
{ "type": "Feature", "properties": { "Anno": 2018, "Sede": "TE", "Regione": "VENETO", "Provincia": "RO", "SiglaProvincia": "ROVIGO", "Comune": "FICAROLO", "CodIstat": 29021, "N_insetti": 4, "N_uccelli": 0, "N_tot": 4, "Categoria": "INSETTI" }, "geometry": { "type": "Point", "coordinates": [ 11.445932400000061, 44.957650980000039 ] } },
{ "type": "Feature", "properties": { "Anno": 2018, "Sede": "TE", "Regione": "EMILIA ROMAGNA", "Provincia": "MO", "SiglaProvincia": "MODENA", "Comune": "FORMIGINE", "CodIstat": 36015, "N_insetti": 4, "N_uccelli": 0, "N_tot": 4, "Categoria": "INSETTI" }, "geometry": { "type": "Point", "coordinates": [ 10.845983772000068, 44.57987539700008 ] } },
{ "type": "Feature", "properties": { "Anno": 2018, "Sede": "TE", "Regione": "LOMBARDIA", "Provincia": "MN", "SiglaProvincia": "MANTOVA", "Comune": "MANTOVA", "CodIstat": 20030, "N_insetti": 4, "N_uccelli": 0, "N_tot": 4, "Categoria": "INSETTI" }, "geometry": { "type": "Point", "coordinates": [ 10.807245263000027, 45.149232174000076 ] } },
{ "type": "Feature", "properties": { "Anno": 2018, "Sede": "TE", "Regione": "EMILIA ROMAGNA", "Provincia": "RA", "SiglaProvincia": "RAVENNA", "Comune": "LUGO", "CodIstat": 39012, "N_insetti": 4, "N_uccelli": 1, "N_tot": 5, "Categoria": "MISTO" }, "geometry": { "type": "Point", "coordinates": [ 11.906486269000027, 44.477350167000054 ] } },
{ "type": "Feature", "properties": { "Anno": 2018, "Sede": "TE", "Regione": "LOMBARDIA", "Provincia": "MN", "SiglaProvincia": "MANTOVA", "Comune": "MONZAMBANO", "CodIstat": 20036, "N_insetti": 2, "N_uccelli": 0, "N_tot": 2, "Categoria": "INSETTI" }, "geometry": { "type": "Point", "coordinates": [ 10.667984080000053, 45.37989556000008 ] } },
{ "type": "Feature", "properties": { "Anno": 2018, "Sede": "TE", "Regione": "EMILIA ROMAGNA", "Provincia": "PR", "SiglaProvincia": "PARMA", "Comune": "PARMA", "CodIstat": 34027, "N_insetti": 4, "N_uccelli": 0, "N_tot": 4, "Categoria": "INSETTI" }, "geometry": { "type": "Point", "coordinates": [ 10.32746018000006, 44.793681783000068 ] } },
{ "type": "Feature", "properties": { "Anno": 2018, "Sede": "TE", "Regione": "EMILIA ROMAGNA", "Provincia": "FE", "SiglaProvincia": "FERRARA", "Comune": "GORO", "CodIstat": 38025, "N_insetti": 2, "N_uccelli": 0, "N_tot": 2, "Categoria": "INSETTI" }, "geometry": { "type": "Point", "coordinates": [ 12.317030933000069, 44.831681192000076 ] } },
{ "type": "Feature", "properties": { "Anno": 2018, "Sede": "TE", "Regione": "EMILIA ROMAGNA", "Provincia": "FE", "SiglaProvincia": "FERRARA", "Comune": "JOLANDA DI SAVOIA", "CodIstat": 38010, "N_insetti": 4, "N_uccelli": 0, "N_tot": 4, "Categoria": "INSETTI" }, "geometry": { "type": "Point", "coordinates": [ 11.978906033000044, 44.875553306000029 ] } },
{ "type": "Feature", "properties": { "Anno": 2018, "Sede": "TE", "Regione": "EMILIA ROMAGNA", "Provincia": "MO", "SiglaProvincia": "MODENA", "Comune": "NONANTOLA", "CodIstat": 36027, "N_insetti": 10, "N_uccelli": 0, "N_tot": 10, "Categoria": "INSETTI" }, "geometry": { "type": "Point", "coordinates": [ 11.05584755600006, 44.685255319000078 ] } },
{ "type": "Feature", "properties": { "Anno": 2018, "Sede": "TE", "Regione": "EMILIA ROMAGNA", "Provincia": "MO", "SiglaProvincia": "MODENA", "Comune": "NOVI DI MODENA", "CodIstat": 36028, "N_insetti": 2, "N_uccelli": 0, "N_tot": 2, "Categoria": "INSETTI" }, "geometry": { "type": "Point", "coordinates": [ 10.929528859000072, 44.873623681000026 ] } },
{ "type": "Feature", "properties": { "Anno": 2018, "Sede": "TE", "Regione": "PIEMONTE", "Provincia": "NO", "SiglaProvincia": "NOVARA", "Comune": "NOVARA", "CodIstat": 3106, "N_insetti": 4, "N_uccelli": 4, "N_tot": 8, "Categoria": "MISTO" }, "geometry": { "type": "Point", "coordinates": [ 8.615455842000074, 45.439660223000033 ] } },
{ "type": "Feature", "properties": { "Anno": 2018, "Sede": "TE", "Regione": "LOMBARDIA", "Provincia": "LC", "SiglaProvincia": "LECCO", "Comune": "OGGIONO", "CodIstat": 97057, "N_insetti": 2, "N_uccelli": 0, "N_tot": 2, "Categoria": "INSETTI" }, "geometry": { "type": "Point", "coordinates": [ 9.344968155000061, 45.791671388000054 ] } },
{ "type": "Feature", "properties": { "Anno": 2018, "Sede": "TE", "Regione": "VENETO", "Provincia": "VE", "SiglaProvincia": "VENEZIA", "Comune": "MIRANO", "CodIstat": 27024, "N_insetti": 4, "N_uccelli": 0, "N_tot": 4, "Categoria": "INSETTI" }, "geometry": { "type": "Point", "coordinates": [ 12.08763310300003, 45.485662309000077 ] } },
{ "type": "Feature", "properties": { "Anno": 2018, "Sede": "TE", "Regione": "EMILIA ROMAGNA", "Provincia": "FE", "SiglaProvincia": "FERRARA", "Comune": "MESOLA", "CodIstat": 38014, "N_insetti": 2, "N_uccelli": 0, "N_tot": 2, "Categoria": "INSETTI" }, "geometry": { "type": "Point", "coordinates": [ 12.218792182000072, 44.899748009000064 ] } },
{ "type": "Feature", "properties": { "Anno": 2018, "Sede": "TE", "Regione": "PIEMONTE", "Provincia": "VB", "SiglaProvincia": "VERBANO-CUSIO-OSSOLA", "Comune": "PREMOSELLO-CHIOVENDA", "CodIstat": 103057, "N_insetti": 0, "N_uccelli": 4, "N_tot": 4, "Categoria": "UCCELLI" }, "geometry": { "type": "Point", "coordinates": [ 8.362820750000026, 46.016896778000046 ] } },
{ "type": "Feature", "properties": { "Anno": 2018, "Sede": "TE", "Regione": "FRIULI VENEZIA GIULIA", "Provincia": "UD", "SiglaProvincia": "UDINE", "Comune": "PASIAN DI PRATO", "CodIstat": 30072, "N_insetti": 0, "N_uccelli": 1, "N_tot": 1, "Categoria": "UCCELLI" }, "geometry": { "type": "Point", "coordinates": [ 13.167721712000059, 46.052821127000072 ] } },
{ "type": "Feature", "properties": { "Anno": 2018, "Sede": "TE", "Regione": "LOMBARDIA", "Provincia": "BS", "SiglaProvincia": "BRESCIA", "Comune": "NUVOLENTO", "CodIstat": 17119, "N_insetti": 2, "N_uccelli": 0, "N_tot": 2, "Categoria": "INSETTI" }, "geometry": { "type": "Point", "coordinates": [ 10.387320483000053, 45.541667548000078 ] } },
{ "type": "Feature", "properties": { "Anno": 2018, "Sede": "TE", "Regione": "EMILIA ROMAGNA", "Provincia": "FE", "SiglaProvincia": "FERRARA", "Comune": "POGGIO RENATICO", "CodIstat": 38018, "N_insetti": 5, "N_uccelli": 2, "N_tot": 7, "Categoria": "MISTO" }, "geometry": { "type": "Point", "coordinates": [ 11.496945050000022, 44.77036408400005 ] } },
{ "type": "Feature", "properties": { "Anno": 2018, "Sede": "TE", "Regione": "LOMBARDIA", "Provincia": "MN", "SiglaProvincia": "MANTOVA", "Comune": "POGGIO RUSCO", "CodIstat": 20042, "N_insetti": 2, "N_uccelli": 0, "N_tot": 2, "Categoria": "INSETTI" }, "geometry": { "type": "Point", "coordinates": [ 11.158354661000033, 44.963667921000081 ] } },
{ "type": "Feature", "properties": { "Anno": 2018, "Sede": "TE", "Regione": "VENETO", "Provincia": "VR", "SiglaProvincia": "VERONA", "Comune": "OPPEANO", "CodIstat": 23055, "N_insetti": 2, "N_uccelli": 0, "N_tot": 2, "Categoria": "INSETTI" }, "geometry": { "type": "Point", "coordinates": [ 11.113315647000036, 45.310311312000067 ] } },
{ "type": "Feature", "properties": { "Anno": 2018, "Sede": "TE", "Regione": "TRENTINO ALTO ADIGE", "Provincia": "TN", "SiglaProvincia": "TRENTO", "Comune": "RIVA DEL GARDA", "CodIstat": 22153, "N_insetti": 0, "N_uccelli": 2, "N_tot": 2, "Categoria": "UCCELLI" }, "geometry": { "type": "Point", "coordinates": [ 10.821034960000077, 45.889200792000054 ] } },
{ "type": "Feature", "properties": { "Anno": 2018, "Sede": "TE", "Regione": "PIEMONTE", "Provincia": "AL", "SiglaProvincia": "ALESSANDRIA", "Comune": "ALESSANDRIA", "CodIstat": 6003, "N_insetti": 3, "N_uccelli": 0, "N_tot": 3, "Categoria": "INSETTI" }, "geometry": { "type": "Point", "coordinates": [ 8.644397053000034, 44.909194178000064 ] } },
{ "type": "Feature", "properties": { "Anno": 2018, "Sede": "TE", "Regione": "EMILIA ROMAGNA", "Provincia": "BO", "SiglaProvincia": "BOLOGNA", "Comune": "CREVALCORE", "CodIstat": 37024, "N_insetti": 4, "N_uccelli": 0, "N_tot": 4, "Categoria": "INSETTI" }, "geometry": { "type": "Point", "coordinates": [ 11.185571920000029, 44.752543975000037 ] } },
{ "type": "Feature", "properties": { "Anno": 2018, "Sede": "TE", "Regione": "VENETO", "Provincia": "VR", "SiglaProvincia": "VERONA", "Comune": "ERBE'", "CodIstat": 23032, "N_insetti": 1, "N_uccelli": 0, "N_tot": 1, "Categoria": "INSETTI" }, "geometry": { "type": "Point", "coordinates": [ 10.973335365000025, 45.24164644800004 ] } },
{ "type": "Feature", "properties": { "Anno": 2018, "Sede": "TE", "Regione": "LOMBARDIA", "Provincia": "LO", "SiglaProvincia": "LODI", "Comune": "BORGHETTO LODIGIANO", "CodIstat": 98004, "N_insetti": 1, "N_uccelli": 0, "N_tot": 1, "Categoria": "INSETTI" }, "geometry": { "type": "Point", "coordinates": [ 9.498786557000074, 45.212124204000077 ] } },
{ "type": "Feature", "properties": { "Anno": 2018, "Sede": "TE", "Regione": "EMILIA ROMAGNA", "Provincia": "FE", "SiglaProvincia": "FERRARA", "Comune": "BONDENO", "CodIstat": 38003, "N_insetti": 4, "N_uccelli": 3, "N_tot": 7, "Categoria": "MISTO" }, "geometry": { "type": "Point", "coordinates": [ 11.373549815000047, 44.903090030000044 ] } },
{ "type": "Feature", "properties": { "Anno": 2018, "Sede": "TE", "Regione": "EMILIA ROMAGNA", "Provincia": "BO", "SiglaProvincia": "BOLOGNA", "Comune": "BOLOGNA", "CodIstat": 37006, "N_insetti": 11, "N_uccelli": 104, "N_tot": 115, "Categoria": "MISTO" }, "geometry": { "type": "Point", "coordinates": [ 11.333126250000021, 44.49809742900004 ] } },
{ "type": "Feature", "properties": { "Anno": 2018, "Sede": "TE", "Regione": "FRIULI VENEZIA GIULIA", "Provincia": "PN", "SiglaProvincia": "PORDENONE", "Comune": "CANEVA", "CodIstat": 93009, "N_insetti": 2, "N_uccelli": 0, "N_tot": 2, "Categoria": "INSETTI" }, "geometry": { "type": "Point", "coordinates": [ 12.447454082000036, 45.994429921000062 ] } },
{ "type": "Feature", "properties": { "Anno": 2018, "Sede": "TE", "Regione": "EMILIA ROMAGNA", "Provincia": "BO", "SiglaProvincia": "BOLOGNA", "Comune": "BUDRIO", "CodIstat": 37008, "N_insetti": 4, "N_uccelli": 1, "N_tot": 5, "Categoria": "MISTO" }, "geometry": { "type": "Point", "coordinates": [ 11.54604484400005, 44.562643367000078 ] } },
{ "type": "Feature", "properties": { "Anno": 2018, "Sede": "TE", "Regione": "EMILIA ROMAGNA", "Provincia": "FE", "SiglaProvincia": "FERRARA", "Comune": "COPPARO", "CodIstat": 38007, "N_insetti": 8, "N_uccelli": 0, "N_tot": 8, "Categoria": "INSETTI" }, "geometry": { "type": "Point", "coordinates": [ 11.860675907000029, 44.902406816000052 ] } },
{ "type": "Feature", "properties": { "Anno": 2018, "Sede": "TE", "Regione": "LAZIO", "Provincia": "LT", "SiglaProvincia": "LATINA", "Comune": "APRILIA", "CodIstat": 59001, "N_insetti": 1, "N_uccelli": 0, "N_tot": 1, "Categoria": "INSETTI" }, "geometry": { "type": "Point", "coordinates": [ 12.656093227000042, 41.578585702000055 ] } },
{ "type": "Feature", "properties": { "Anno": 2018, "Sede": "TE", "Regione": "EMILIA ROMAGNA", "Provincia": "FE", "SiglaProvincia": "FERRARA", "Comune": "ARGENTA", "CodIstat": 38001, "N_insetti": 4, "N_uccelli": 4, "N_tot": 8, "Categoria": "MISTO" }, "geometry": { "type": "Point", "coordinates": [ 11.888721223000061, 44.622211224000068 ] } },
{ "type": "Feature", "properties": { "Anno": 2018, "Sede": "TE", "Regione": "EMILIA ROMAGNA", "Provincia": "RE", "SiglaProvincia": "REGGIO NELL'EMILIA", "Comune": "FABBRICO", "CodIstat": 35021, "N_insetti": 8, "N_uccelli": 0, "N_tot": 8, "Categoria": "INSETTI" }, "geometry": { "type": "Point", "coordinates": [ 10.812774404000038, 44.875873221000063 ] } },
{ "type": "Feature", "properties": { "Anno": 2018, "Sede": "TE", "Regione": "LOMBARDIA", "Provincia": "MI", "SiglaProvincia": "MILANO", "Comune": "BUSTO GAROLFO", "CodIstat": 15041, "N_insetti": 2, "N_uccelli": 0, "N_tot": 2, "Categoria": "INSETTI" }, "geometry": { "type": "Point", "coordinates": [ 8.884613619000049, 45.544619070000067 ] } },
{ "type": "Feature", "properties": { "Anno": 2018, "Sede": "TE", "Regione": "EMILIA ROMAGNA", "Provincia": "PC", "SiglaProvincia": "PIACENZA", "Comune": "CAORSO", "CodIstat": 33010, "N_insetti": 2, "N_uccelli": 0, "N_tot": 2, "Categoria": "INSETTI" }, "geometry": { "type": "Point", "coordinates": [ 9.855391808000036, 45.05358803200005 ] } },
{ "type": "Feature", "properties": { "Anno": 2018, "Sede": "TE", "Regione": "LAZIO", "Provincia": "LT", "SiglaProvincia": "LATINA", "Comune": "CISTERNA DI LATINA", "CodIstat": 59005, "N_insetti": 7, "N_uccelli": 0, "N_tot": 7, "Categoria": "INSETTI" }, "geometry": { "type": "Point", "coordinates": [ 12.83733987200003, 41.573361358000056 ] } },
{ "type": "Feature", "properties": { "Anno": 2018, "Sede": "TE", "Regione": "EMILIA ROMAGNA", "Provincia": "PC", "SiglaProvincia": "PIACENZA", "Comune": "CASTEL SAN GIOVANNI", "CodIstat": 33013, "N_insetti": 3, "N_uccelli": 0, "N_tot": 3, "Categoria": "INSETTI" }, "geometry": { "type": "Point", "coordinates": [ 9.427557903000036, 45.058024206000027 ] } },
{ "type": "Feature", "properties": { "Anno": 2018, "Sede": "TE", "Regione": "PIEMONTE", "Provincia": "AL", "SiglaProvincia": "ALESSANDRIA", "Comune": "CASTELLETTO D'ORBA", "CodIstat": 6049, "N_insetti": 0, "N_uccelli": 1, "N_tot": 1, "Categoria": "UCCELLI" }, "geometry": { "type": "Point", "coordinates": [ 8.708496524000054, 44.68822477100008 ] } },
{ "type": "Feature", "properties": { "Anno": 2018, "Sede": "TE", "Regione": "EMILIA ROMAGNA", "Provincia": "BO", "SiglaProvincia": "BOLOGNA", "Comune": "MORDANO", "CodIstat": 37045, "N_insetti": 4, "N_uccelli": 0, "N_tot": 4, "Categoria": "INSETTI" }, "geometry": { "type": "Point", "coordinates": [ 11.796195598000054, 44.409512989000063 ] } },
{ "type": "Feature", "properties": { "Anno": 2018, "Sede": "TE", "Regione": "FRIULI VENEZIA GIULIA", "Provincia": "UD", "SiglaProvincia": "UDINE", "Comune": "BERTIOLO", "CodIstat": 30010, "N_insetti": 2, "N_uccelli": 0, "N_tot": 2, "Categoria": "INSETTI" }, "geometry": { "type": "Point", "coordinates": [ 13.060954293000066, 45.936336012000027 ] } },
{ "type": "Feature", "properties": { "Anno": 2018, "Sede": "TE", "Regione": "EMILIA ROMAGNA", "Provincia": "MO", "SiglaProvincia": "MODENA", "Comune": "CARPI", "CodIstat": 36005, "N_insetti": 6, "N_uccelli": 0, "N_tot": 6, "Categoria": "INSETTI" }, "geometry": { "type": "Point", "coordinates": [ 10.892723445000058, 44.801874354000063 ] } },
{ "type": "Feature", "properties": { "Anno": 2018, "Sede": "TE", "Regione": "VENETO", "Provincia": "RO", "SiglaProvincia": "ROVIGO", "Comune": "CENESELLI", "CodIstat": 29014, "N_insetti": 6, "N_uccelli": 0, "N_tot": 6, "Categoria": "INSETTI" }, "geometry": { "type": "Point", "coordinates": [ 11.380659784000045, 45.026649533000068 ] } },
{ "type": "Feature", "properties": { "Anno": 2018, "Sede": "TE", "Regione": "EMILIA ROMAGNA", "Provincia": "FC", "SiglaProvincia": "FORLI-CESENA", "Comune": "GATTEO", "CodIstat": 40016, "N_insetti": 0, "N_uccelli": 2, "N_tot": 2, "Categoria": "UCCELLI" }, "geometry": { "type": "Point", "coordinates": [ 12.391834931000062, 44.131226794000042 ] } },
{ "type": "Feature", "properties": { "Anno": 2018, "Sede": "TE", "Regione": "EMILIA ROMAGNA", "Provincia": "BO", "SiglaProvincia": "BOLOGNA", "Comune": "MARZABOTTO", "CodIstat": 37036, "N_insetti": 0, "N_uccelli": 1, "N_tot": 1, "Categoria": "UCCELLI" }, "geometry": { "type": "Point", "coordinates": [ 11.201866938000023, 44.33867033000007 ] } },
{ "type": "Feature", "properties": { "Anno": 2018, "Sede": "TE", "Regione": "VENETO", "Provincia": "VI", "SiglaProvincia": "VICENZA", "Comune": "CASSOLA", "CodIstat": 24026, "N_insetti": 0, "N_uccelli": 1, "N_tot": 1, "Categoria": "UCCELLI" }, "geometry": { "type": "Point", "coordinates": [ 11.781115025000076, 45.744118861000061 ] } },
{ "type": "Feature", "properties": { "Anno": 2018, "Sede": "TE", "Regione": "EMILIA ROMAGNA", "Provincia": "RE", "SiglaProvincia": "REGGIO NELL'EMILIA", "Comune": "BRESCELLO", "CodIstat": 35006, "N_insetti": 3, "N_uccelli": 0, "N_tot": 3, "Categoria": "INSETTI" }, "geometry": { "type": "Point", "coordinates": [ 10.490782747000026, 44.88346344200005 ] } },
{ "type": "Feature", "properties": { "Anno": 2018, "Sede": "TE", "Regione": "EMILIA ROMAGNA", "Provincia": "RA", "SiglaProvincia": "RAVENNA", "Comune": "RAVENNA", "CodIstat": 39014, "N_insetti": 10, "N_uccelli": 0, "N_tot": 10, "Categoria": "INSETTI" }, "geometry": { "type": "Point", "coordinates": [ 12.193712100000027, 44.413842140000042 ] } },
{ "type": "Feature", "properties": { "Anno": 2018, "Sede": "TE", "Regione": "TOSCANA", "Provincia": "PI", "SiglaProvincia": "PISA", "Comune": "PISA", "CodIstat": 50026, "N_insetti": 1, "N_uccelli": 0, "N_tot": 1, "Categoria": "INSETTI" }, "geometry": { "type": "Point", "coordinates": [ 10.353902978000065, 43.67245009700008 ] } },
{ "type": "Feature", "properties": { "Anno": 2018, "Sede": "TE", "Regione": "SARDEGNA", "Provincia": "OR", "SiglaProvincia": "ORISTANO", "Comune": "CABRAS", "CodIstat": 95018, "N_insetti": 0, "N_uccelli": 3, "N_tot": 3, "Categoria": "UCCELLI" }, "geometry": { "type": "Point", "coordinates": [ 8.465451395000059, 39.934569694000061 ] } },
{ "type": "Feature", "properties": { "Anno": 2018, "Sede": "TE", "Regione": "MARCHE", "Provincia": "PU", "SiglaProvincia": "PESARO E URBINO", "Comune": "FANO", "CodIstat": 41013, "N_insetti": 3, "N_uccelli": 0, "N_tot": 3, "Categoria": "INSETTI" }, "geometry": { "type": "Point", "coordinates": [ 12.994681832000026, 43.812316018000047 ] } },
{ "type": "Feature", "properties": { "Anno": 2018, "Sede": "TE", "Regione": "VENETO", "Provincia": "PD", "SiglaProvincia": "PADOVA", "Comune": "GAZZO", "CodIstat": 28041, "N_insetti": 1, "N_uccelli": 0, "N_tot": 1, "Categoria": "INSETTI" }, "geometry": { "type": "Point", "coordinates": [ 11.693067001000031, 45.566657320000047 ] } },
{ "type": "Feature", "properties": { "Anno": 2018, "Sede": "TE", "Regione": "EMILIA ROMAGNA", "Provincia": "BO", "SiglaProvincia": "BOLOGNA", "Comune": "SALA BOLOGNESE", "CodIstat": 37050, "N_insetti": 6, "N_uccelli": 0, "N_tot": 6, "Categoria": "INSETTI" }, "geometry": { "type": "Point", "coordinates": [ 11.267963123000072, 44.626941112000054 ] } },
{ "type": "Feature", "properties": { "Anno": 2018, "Sede": "TE", "Regione": "PIEMONTE", "Provincia": "VC", "SiglaProvincia": "VERCELLI", "Comune": "VERCELLI", "CodIstat": 2158, "N_insetti": 0, "N_uccelli": 4, "N_tot": 4, "Categoria": "UCCELLI" }, "geometry": { "type": "Point", "coordinates": [ 8.411032352000063, 45.319691727000077 ] } },
{ "type": "Feature", "properties": { "Anno": 2018, "Sede": "TE", "Regione": "VENETO", "Provincia": "RO", "SiglaProvincia": "ROVIGO", "Comune": "VILLANOVA DEL GHEBBO", "CodIstat": 29050, "N_insetti": 1, "N_uccelli": 0, "N_tot": 1, "Categoria": "INSETTI" }, "geometry": { "type": "Point", "coordinates": [ 11.658581543000025, 45.06707175400004 ] } },
{ "type": "Feature", "properties": { "Anno": 2018, "Sede": "TE", "Regione": "LOMBARDIA", "Provincia": "BS", "SiglaProvincia": "BRESCIA", "Comune": "ROCCAFRANCA", "CodIstat": 17162, "N_insetti": 2, "N_uccelli": 0, "N_tot": 2, "Categoria": "INSETTI" }, "geometry": { "type": "Point", "coordinates": [ 9.917215343000066, 45.454930558000058 ] } },
{ "type": "Feature", "properties": { "Anno": 2018, "Sede": "TE", "Regione": "LOMBARDIA", "Provincia": "MN", "SiglaProvincia": "MANTOVA", "Comune": "SAN GIORGIO DI MANTOVA", "CodIstat": 20057, "N_insetti": 2, "N_uccelli": 0, "N_tot": 2, "Categoria": "INSETTI" }, "geometry": { "type": "Point", "coordinates": [ 10.883252441000025, 45.183557969000049 ] } },
{ "type": "Feature", "properties": { "Anno": 2018, "Sede": "TE", "Regione": "VENETO", "Provincia": "VE", "SiglaProvincia": "VENEZIA", "Comune": "VENEZIA", "CodIstat": 27042, "N_insetti": 2, "N_uccelli": 0, "N_tot": 2, "Categoria": "INSETTI" }, "geometry": { "type": "Point", "coordinates": [ 12.345477470000048, 45.467700812000032 ] } },
{ "type": "Feature", "properties": { "Anno": 2018, "Sede": "TE", "Regione": "EMILIA ROMAGNA", "Provincia": "RE", "SiglaProvincia": "REGGIO NELL'EMILIA", "Comune": "NOVELLARA", "CodIstat": 35028, "N_insetti": 2, "N_uccelli": 0, "N_tot": 2, "Categoria": "INSETTI" }, "geometry": { "type": "Point", "coordinates": [ 10.708439074000069, 44.845286525000063 ] } },
{ "type": "Feature", "properties": { "Anno": 2018, "Sede": "TE", "Regione": "LOMBARDIA", "Provincia": "MN", "SiglaProvincia": "MANTOVA", "Comune": "SAN BENEDETTO PO", "CodIstat": 20055, "N_insetti": 2, "N_uccelli": 0, "N_tot": 2, "Categoria": "INSETTI" }, "geometry": { "type": "Point", "coordinates": [ 10.929855546000056, 45.034342256000059 ] } },
{ "type": "Feature", "properties": { "Anno": 2018, "Sede": "PE", "Regione": "ABRUZZO", "Provincia": "PE", "SiglaProvincia": "PESCARA", "Comune": "PESCARA", "CodIstat": 68028, "N_insetti": 1, "N_uccelli": 0, "N_tot": 1, "Categoria": "INSETTI" }, "geometry": { "type": "Point", "coordinates": [ 14.203078137000034, 42.455945845000031 ] } },
{ "type": "Feature", "properties": { "Anno": 2018, "Sede": "TE", "Regione": "MARCHE", "Provincia": "PU", "SiglaProvincia": "PESARO E URBINO", "Comune": "PESARO", "CodIstat": 41044, "N_insetti": 3, "N_uccelli": 0, "N_tot": 3, "Categoria": "INSETTI" }, "geometry": { "type": "Point", "coordinates": [ 12.863348517000077, 43.886613929000077 ] } },
{ "type": "Feature", "properties": { "Anno": 2018, "Sede": "TE", "Regione": "MARCHE", "Provincia": "AP", "SiglaProvincia": "ASCOLI PICENO", "Comune": "MONTEPRANDONE", "CodIstat": 44045, "N_insetti": 2, "N_uccelli": 2, "N_tot": 4, "Categoria": "MISTO" }, "geometry": { "type": "Point", "coordinates": [ 13.839945200000045, 42.909223945000065 ] } },
{ "type": "Feature", "properties": { "Anno": 2018, "Sede": "TE", "Regione": "EMILIA ROMAGNA", "Provincia": "PR", "SiglaProvincia": "PARMA", "Comune": "ROCCABIANCA", "CodIstat": 34030, "N_insetti": 2, "N_uccelli": 0, "N_tot": 2, "Categoria": "INSETTI" }, "geometry": { "type": "Point", "coordinates": [ 10.211300705000042, 44.99795286300008 ] } },
{ "type": "Feature", "properties": { "Anno": 2018, "Sede": "TE", "Regione": "VENETO", "Provincia": "TV", "SiglaProvincia": "TREVISO", "Comune": "PREGANZIOL", "CodIstat": 26063, "N_insetti": 2, "N_uccelli": 0, "N_tot": 2, "Categoria": "INSETTI" }, "geometry": { "type": "Point", "coordinates": [ 12.226936887000022, 45.607643981000081 ] } },
{ "type": "Feature", "properties": { "Anno": 2018, "Sede": "TE", "Regione": "MARCHE", "Provincia": "AP", "SiglaProvincia": "ASCOLI PICENO", "Comune": "SAN BENEDETTO DEL TRONTO", "CodIstat": 44066, "N_insetti": 1, "N_uccelli": 2, "N_tot": 3, "Categoria": "MISTO" }, "geometry": { "type": "Point", "coordinates": [ 13.877722250000033, 42.929000374000054 ] } },
{ "type": "Feature", "properties": { "Anno": 2018, "Sede": "TE", "Regione": "VENETO", "Provincia": "PD", "SiglaProvincia": "PADOVA", "Comune": "VIGONZA", "CodIstat": 28100, "N_insetti": 1, "N_uccelli": 0, "N_tot": 1, "Categoria": "INSETTI" }, "geometry": { "type": "Point", "coordinates": [ 11.971367333000046, 45.448827362000031 ] } },
{ "type": "Feature", "properties": { "Anno": 2018, "Sede": "TE", "Regione": "EMILIA ROMAGNA", "Provincia": "PR", "SiglaProvincia": "PARMA", "Comune": "COLLECCHIO", "CodIstat": 34009, "N_insetti": 2, "N_uccelli": 0, "N_tot": 2, "Categoria": "INSETTI" }, "geometry": { "type": "Point", "coordinates": [ 10.207369916000061, 44.751121185000045 ] } },
{ "type": "Feature", "properties": { "Anno": 2018, "Sede": "TE", "Regione": "LOMBARDIA", "Provincia": "CR", "SiglaProvincia": "CREMONA", "Comune": "CAPPELLA DE' PICENARDI", "CodIstat": 19014, "N_insetti": 2, "N_uccelli": 0, "N_tot": 2, "Categoria": "INSETTI" }, "geometry": { "type": "Point", "coordinates": [ 10.232568394000054, 45.145064638000065 ] } },
{ "type": "Feature", "properties": { "Anno": 2018, "Sede": "TE", "Regione": "LOMBARDIA", "Provincia": "CR", "SiglaProvincia": "CREMONA", "Comune": "CREMONA", "CodIstat": 19036, "N_insetti": 2, "N_uccelli": 0, "N_tot": 2, "Categoria": "INSETTI" }, "geometry": { "type": "Point", "coordinates": [ 10.029541707000021, 45.140906245000053 ] } },
{ "type": "Feature", "properties": { "Anno": 2018, "Sede": "TE", "Regione": "EMILIA ROMAGNA", "Provincia": "FC", "SiglaProvincia": "FORLI-CESENA", "Comune": "CESENA", "CodIstat": 40007, "N_insetti": 2, "N_uccelli": 0, "N_tot": 2, "Categoria": "INSETTI" }, "geometry": { "type": "Point", "coordinates": [ 12.234699587000023, 44.130416905000061 ] } },
{ "type": "Feature", "properties": { "Anno": 2018, "Sede": "TE", "Regione": "EMILIA ROMAGNA", "Provincia": "MO", "SiglaProvincia": "MODENA", "Comune": "CONCORDIA SULLA SECCHIA", "CodIstat": 36010, "N_insetti": 2, "N_uccelli": 0, "N_tot": 2, "Categoria": "INSETTI" }, "geometry": { "type": "Point", "coordinates": [ 11.001488395000024, 44.924865391000026 ] } },
{ "type": "Feature", "properties": { "Anno": 2018, "Sede": "TE", "Regione": "EMILIA ROMAGNA", "Provincia": "PR", "SiglaProvincia": "PARMA", "Comune": "COLORNO", "CodIstat": 34010, "N_insetti": 1, "N_uccelli": 0, "N_tot": 1, "Categoria": "INSETTI" }, "geometry": { "type": "Point", "coordinates": [ 10.380507097000077, 44.941384115000062 ] } },
{ "type": "Feature", "properties": { "Anno": 2018, "Sede": "TE", "Regione": "FRIULI VENEZIA GIULIA", "Provincia": "UD", "SiglaProvincia": "UDINE", "Comune": "CIVIDALE DEL FRIULI", "CodIstat": 30026, "N_insetti": 0, "N_uccelli": 1, "N_tot": 1, "Categoria": "UCCELLI" }, "geometry": { "type": "Point", "coordinates": [ 13.444109910000066, 46.082354876000068 ] } },
{ "type": "Feature", "properties": { "Anno": 2018, "Sede": "TE", "Regione": "EMILIA ROMAGNA", "Provincia": "BO", "SiglaProvincia": "BOLOGNA", "Comune": "ANZOLA DELL'EMILIA", "CodIstat": 37001, "N_insetti": 4, "N_uccelli": 0, "N_tot": 4, "Categoria": "INSETTI" }, "geometry": { "type": "Point", "coordinates": [ 11.193588662000025, 44.565243942000052 ] } },
{ "type": "Feature", "properties": { "Anno": 2018, "Sede": "TE", "Regione": "SARDEGNA", "Provincia": "OR", "SiglaProvincia": "ORISTANO", "Comune": "ABBASANTA", "CodIstat": 95001, "N_insetti": 0, "N_uccelli": 6, "N_tot": 6, "Categoria": "UCCELLI" }, "geometry": { "type": "Point", "coordinates": [ 8.769857327000068, 40.140112058000057 ] } },
{ "type": "Feature", "properties": { "Anno": 2018, "Sede": "TE", "Regione": "EMILIA ROMAGNA", "Provincia": "BO", "SiglaProvincia": "BOLOGNA", "Comune": "CAMUGNANO", "CodIstat": 37010, "N_insetti": 0, "N_uccelli": 1, "N_tot": 1, "Categoria": "UCCELLI" }, "geometry": { "type": "Point", "coordinates": [ 11.095873574000052, 44.152779144000078 ] } },
{ "type": "Feature", "properties": { "Anno": 2018, "Sede": "TE", "Regione": "VENETO", "Provincia": "TV", "SiglaProvincia": "TREVISO", "Comune": "MOTTA DI LIVENZA", "CodIstat": 26049, "N_insetti": 4, "N_uccelli": 0, "N_tot": 4, "Categoria": "INSETTI" }, "geometry": { "type": "Point", "coordinates": [ 12.623008297000069, 45.766277820000028 ] } },
{ "type": "Feature", "properties": { "Anno": 2018, "Sede": "TE", "Regione": "EMILIA ROMAGNA", "Provincia": "BO", "SiglaProvincia": "BOLOGNA", "Comune": "BENTIVOGLIO", "CodIstat": 37005, "N_insetti": 2, "N_uccelli": 0, "N_tot": 2, "Categoria": "INSETTI" }, "geometry": { "type": "Point", "coordinates": [ 11.422780187000058, 44.632906324000032 ] } },
{ "type": "Feature", "properties": { "Anno": 2018, "Sede": "TE", "Regione": "MARCHE", "Provincia": "AN", "SiglaProvincia": "ANCONA", "Comune": "ANCONA", "CodIstat": 42002, "N_insetti": 2, "N_uccelli": 0, "N_tot": 2, "Categoria": "INSETTI" }, "geometry": { "type": "Point", "coordinates": [ 13.491601637000031, 43.572758309000051 ] } },
{ "type": "Feature", "properties": { "Anno": 2018, "Sede": "TE", "Regione": "VENETO", "Provincia": "RO", "SiglaProvincia": "ROVIGO", "Comune": "BADIA POLESINE", "CodIstat": 29004, "N_insetti": 2, "N_uccelli": 0, "N_tot": 2, "Categoria": "INSETTI" }, "geometry": { "type": "Point", "coordinates": [ 11.497179086000074, 45.092935964000048 ] } },
{ "type": "Feature", "properties": { "Anno": 2018, "Sede": "TE", "Regione": "VENETO", "Provincia": "RO", "SiglaProvincia": "ROVIGO", "Comune": "GUARDA VENETA", "CodIstat": 29028, "N_insetti": 2, "N_uccelli": 0, "N_tot": 2, "Categoria": "INSETTI" }, "geometry": { "type": "Point", "coordinates": [ 11.801949451000041, 44.984659673000067 ] } },
{ "type": "Feature", "properties": { "Anno": 2018, "Sede": "TE", "Regione": "VENETO", "Provincia": "VR", "SiglaProvincia": "VERONA", "Comune": "CASALEONE", "CodIstat": 23019, "N_insetti": 2, "N_uccelli": 0, "N_tot": 2, "Categoria": "INSETTI" }, "geometry": { "type": "Point", "coordinates": [ 11.198646197000073, 45.145032477000029 ] } },
{ "type": "Feature", "properties": { "Anno": 2018, "Sede": "TE", "Regione": "EMILIA ROMAGNA", "Provincia": "RN", "SiglaProvincia": "RIMINI", "Comune": "RIMINI", "CodIstat": 99014, "N_insetti": 4, "N_uccelli": 4, "N_tot": 8, "Categoria": "MISTO" }, "geometry": { "type": "Point", "coordinates": [ 12.529823040000053, 44.038749046000078 ] } },
{ "type": "Feature", "properties": { "Anno": 2018, "Sede": "TE", "Regione": "LOMBARDIA", "Provincia": "BS", "SiglaProvincia": "BRESCIA", "Comune": "ROVATO", "CodIstat": 17166, "N_insetti": 4, "N_uccelli": 0, "N_tot": 4, "Categoria": "INSETTI" }, "geometry": { "type": "Point", "coordinates": [ 10.010324613000023, 45.545242786000074 ] } },
{ "type": "Feature", "properties": { "Anno": 2018, "Sede": "TE", "Regione": "EMILIA ROMAGNA", "Provincia": "RE", "SiglaProvincia": "REGGIO NELL'EMILIA", "Comune": "BAGNOLO IN PIANO", "CodIstat": 35002, "N_insetti": 1, "N_uccelli": 0, "N_tot": 1, "Categoria": "INSETTI" }, "geometry": { "type": "Point", "coordinates": [ 10.678764349000062, 44.784089299000073 ] } },
{ "type": "Feature", "properties": { "Anno": 2018, "Sede": "TE", "Regione": "EMILIA ROMAGNA", "Provincia": "PC", "SiglaProvincia": "PIACENZA", "Comune": "CALENDASCO", "CodIstat": 33008, "N_insetti": 6, "N_uccelli": 0, "N_tot": 6, "Categoria": "INSETTI" }, "geometry": { "type": "Point", "coordinates": [ 9.608141599000021, 45.091250481000031 ] } },
{ "type": "Feature", "properties": { "Anno": 2018, "Sede": "TE", "Regione": "LOMBARDIA", "Provincia": "LO", "SiglaProvincia": "LODI", "Comune": "BOFFALORA D'ADDA", "CodIstat": 98003, "N_insetti": 2, "N_uccelli": 0, "N_tot": 2, "Categoria": "INSETTI" }, "geometry": { "type": "Point", "coordinates": [ 9.486885962000031, 45.358689179000066 ] } },
{ "type": "Feature", "properties": { "Anno": 2018, "Sede": "TE", "Regione": "EMILIA ROMAGNA", "Provincia": "MO", "SiglaProvincia": "MODENA", "Comune": "MIRANDOLA", "CodIstat": 36022, "N_insetti": 4, "N_uccelli": 0, "N_tot": 4, "Categoria": "INSETTI" }, "geometry": { "type": "Point", "coordinates": [ 11.124164834000055, 44.907481682000025 ] } },
{ "type": "Feature", "properties": { "Anno": 2018, "Sede": "TE", "Regione": "EMILIA ROMAGNA", "Provincia": "BO", "SiglaProvincia": "BOLOGNA", "Comune": "MOLINELLA", "CodIstat": 37039, "N_insetti": 2, "N_uccelli": 0, "N_tot": 2, "Categoria": "INSETTI" }, "geometry": { "type": "Point", "coordinates": [ 11.685647190000054, 44.608341571000039 ] } },
{ "type": "Feature", "properties": { "Anno": 2018, "Sede": "TE", "Regione": "EMILIA ROMAGNA", "Provincia": "BO", "SiglaProvincia": "BOLOGNA", "Comune": "IMOLA", "CodIstat": 37032, "N_insetti": 0, "N_uccelli": 1, "N_tot": 1, "Categoria": "UCCELLI" }, "geometry": { "type": "Point", "coordinates": [ 11.715654488000041, 44.387811800000065 ] } },
{ "type": "Feature", "properties": { "Anno": 2018, "Sede": "TE", "Regione": "EMILIA ROMAGNA", "Provincia": "RE", "SiglaProvincia": "REGGIO NELL'EMILIA", "Comune": "REGGIO NELL'EMILIA", "CodIstat": 35033, "N_insetti": 6, "N_uccelli": 0, "N_tot": 6, "Categoria": "INSETTI" }, "geometry": { "type": "Point", "coordinates": [ 10.634512271000062, 44.697433032000049 ] } },
{ "type": "Feature", "properties": { "Anno": 2018, "Sede": "TE", "Regione": "LOMBARDIA", "Provincia": "MI", "SiglaProvincia": "MILANO", "Comune": "ROSATE", "CodIstat": 15188, "N_insetti": 2, "N_uccelli": 0, "N_tot": 2, "Categoria": "INSETTI" }, "geometry": { "type": "Point", "coordinates": [ 9.018524389000049, 45.351051491000078 ] } },
{ "type": "Feature", "properties": { "Anno": 2018, "Sede": "TE", "Regione": "SARDEGNA", "Provincia": "OR", "SiglaProvincia": "ORISTANO", "Comune": "ORISTANO", "CodIstat": 95038, "N_insetti": 2, "N_uccelli": 0, "N_tot": 2, "Categoria": "INSETTI" }, "geometry": { "type": "Point", "coordinates": [ 8.614472278000051, 39.909230226000034 ] } },
{ "type": "Feature", "properties": { "Anno": 2018, "Sede": "TE", "Regione": "LOMBARDIA", "Provincia": "BS", "SiglaProvincia": "BRESCIA", "Comune": "CORTE FRANCA", "CodIstat": 17062, "N_insetti": 6, "N_uccelli": 0, "N_tot": 6, "Categoria": "INSETTI" }, "geometry": { "type": "Point", "coordinates": [ 10.002004384000031, 45.630937454000048 ] } },
{ "type": "Feature", "properties": { "Anno": 2018, "Sede": "TE", "Regione": "EMILIA ROMAGNA", "Provincia": "MO", "SiglaProvincia": "MODENA", "Comune": "FINALE EMILIA", "CodIstat": 36012, "N_insetti": 11, "N_uccelli": 0, "N_tot": 11, "Categoria": "INSETTI" }, "geometry": { "type": "Point", "coordinates": [ 11.266477194000061, 44.849116109000079 ] } },
{ "type": "Feature", "properties": { "Anno": 2018, "Sede": "TE", "Regione": "EMILIA ROMAGNA", "Provincia": "FC", "SiglaProvincia": "FORLI-CESENA", "Comune": "FORLI'", "CodIstat": 40012, "N_insetti": 13, "N_uccelli": 4, "N_tot": 17, "Categoria": "MISTO" }, "geometry": { "type": "Point", "coordinates": [ 12.049687739000035, 44.227453774000026 ] } },
{ "type": "Feature", "properties": { "Anno": 2018, "Sede": "TE", "Regione": "EMILIA ROMAGNA", "Provincia": "FE", "SiglaProvincia": "FERRARA", "Comune": "FERRARA", "CodIstat": 38008, "N_insetti": 16, "N_uccelli": 21, "N_tot": 37, "Categoria": "MISTO" }, "geometry": { "type": "Point", "coordinates": [ 11.649123246000045, 44.822929214000055 ] } },
{ "type": "Feature", "properties": { "Anno": 2018, "Sede": "TE", "Regione": "LOMBARDIA", "Provincia": "PV", "SiglaProvincia": "PAVIA", "Comune": "PARONA", "CodIstat": 18109, "N_insetti": 11, "N_uccelli": 0, "N_tot": 11, "Categoria": "INSETTI" }, "geometry": { "type": "Point", "coordinates": [ 8.761282848000064, 45.283342456000071 ] } },
{ "type": "Feature", "properties": { "Anno": 2018, "Sede": "TE", "Regione": "EMILIA ROMAGNA", "Provincia": "MO", "SiglaProvincia": "MODENA", "Comune": "MODENA", "CodIstat": 36023, "N_insetti": 10, "N_uccelli": 0, "N_tot": 10, "Categoria": "INSETTI" }, "geometry": { "type": "Point", "coordinates": [ 10.915345621000029, 44.644094874000075 ] } },
{ "type": "Feature", "properties": { "Anno": 2018, "Sede": "TE", "Regione": "EMILIA ROMAGNA", "Provincia": "FE", "SiglaProvincia": "FERRARA", "Comune": "OSTELLATO", "CodIstat": 38017, "N_insetti": 4, "N_uccelli": 2, "N_tot": 6, "Categoria": "MISTO" }, "geometry": { "type": "Point", "coordinates": [ 11.977784728000074, 44.723705839000047 ] } },
{ "type": "Feature", "properties": { "Anno": 2018, "Sede": "TE", "Regione": "VENETO", "Provincia": "VR", "SiglaProvincia": "VERONA", "Comune": "MINERBE", "CodIstat": 23048, "N_insetti": 12, "N_uccelli": 0, "N_tot": 12, "Categoria": "INSETTI" }, "geometry": { "type": "Point", "coordinates": [ 11.352762462000044, 45.249136588000056 ] } },
{ "type": "Feature", "properties": { "Anno": 2018, "Sede": "TE", "Regione": "LIGURIA", "Provincia": "GE", "SiglaProvincia": "GENOVA", "Comune": "GENOVA", "CodIstat": 10025, "N_insetti": 2, "N_uccelli": 0, "N_tot": 2, "Categoria": "INSETTI" }, "geometry": { "type": "Point", "coordinates": [ 8.893308537000053, 44.441865757000073 ] } },
{ "type": "Feature", "properties": { "Anno": 2018, "Sede": "TE", "Regione": "EMILIA ROMAGNA", "Provincia": "PC", "SiglaProvincia": "PIACENZA", "Comune": "PIACENZA", "CodIstat": 33032, "N_insetti": 2, "N_uccelli": 0, "N_tot": 2, "Categoria": "INSETTI" }, "geometry": { "type": "Point", "coordinates": [ 9.717737473000057, 45.041430220000052 ] } },
{ "type": "Feature", "properties": { "Anno": 2018, "Sede": "TE", "Regione": "EMILIA ROMAGNA", "Provincia": "RN", "SiglaProvincia": "RIMINI", "Comune": "RICCIONE", "CodIstat": 99013, "N_insetti": 1, "N_uccelli": 0, "N_tot": 1, "Categoria": "INSETTI" }, "geometry": { "type": "Point", "coordinates": [ 12.645436544000063, 43.99645225200004 ] } },
{ "type": "Feature", "properties": { "Anno": 2018, "Sede": "TE", "Regione": "EMILIA ROMAGNA", "Provincia": "BO", "SiglaProvincia": "BOLOGNA", "Comune": "SAN PIETRO IN CASALE", "CodIstat": 37055, "N_insetti": 9, "N_uccelli": 0, "N_tot": 9, "Categoria": "INSETTI" }, "geometry": { "type": "Point", "coordinates": [ 11.404694340000049, 44.710534353000071 ] } },
{ "type": "Feature", "properties": { "Anno": 2018, "Sede": "TE", "Regione": "FRIULI VENEZIA GIULIA", "Provincia": "UD", "SiglaProvincia": "UDINE", "Comune": "PALAZZOLO DELLO STELLA", "CodIstat": 30069, "N_insetti": 3, "N_uccelli": 0, "N_tot": 3, "Categoria": "INSETTI" }, "geometry": { "type": "Point", "coordinates": [ 13.078476821000038, 45.790233152000042 ] } },
{ "type": "Feature", "properties": { "Anno": 2018, "Sede": "TE", "Regione": "LOMBARDIA", "Provincia": "MI", "SiglaProvincia": "MILANO", "Comune": "VANZAGO", "CodIstat": 15229, "N_insetti": 0, "N_uccelli": 2, "N_tot": 2, "Categoria": "UCCELLI" }, "geometry": { "type": "Point", "coordinates": [ 8.98464357000006, 45.519875371000069 ] } },
{ "type": "Feature", "properties": { "Anno": 2018, "Sede": "TE", "Regione": "VENETO", "Provincia": "TV", "SiglaProvincia": "TREVISO", "Comune": "TREVISO", "CodIstat": 26086, "N_insetti": 2, "N_uccelli": 0, "N_tot": 2, "Categoria": "INSETTI" }, "geometry": { "type": "Point", "coordinates": [ 12.227596680000033, 45.663830029000053 ] } },
{ "type": "Feature", "properties": { "Anno": 2018, "Sede": "TE", "Regione": "EMILIA ROMAGNA", "Provincia": "BO", "SiglaProvincia": "BOLOGNA", "Comune": "SAN GIOVANNI IN PERSICETO", "CodIstat": 37053, "N_insetti": 19, "N_uccelli": 3, "N_tot": 22, "Categoria": "MISTO" }, "geometry": { "type": "Point", "coordinates": [ 11.203030177000073, 44.66028536400006 ] } },
{ "type": "Feature", "properties": { "Anno": 2018, "Sede": "TE", "Regione": "VENETO", "Provincia": "VR", "SiglaProvincia": "VERONA", "Comune": "RONCO ALL'ADIGE", "CodIstat": 23064, "N_insetti": 1, "N_uccelli": 0, "N_tot": 1, "Categoria": "INSETTI" }, "geometry": { "type": "Point", "coordinates": [ 11.224292393000042, 45.326137634000077 ] } },
{ "type": "Feature", "properties": { "Anno": 2018, "Sede": "TE", "Regione": "SARDEGNA", "Provincia": "OR", "SiglaProvincia": "ORISTANO", "Comune": "SOLARUSSA", "CodIstat": 95062, "N_insetti": 0, "N_uccelli": 2, "N_tot": 2, "Categoria": "UCCELLI" }, "geometry": { "type": "Point", "coordinates": [ 8.681726437000066, 39.971503386000052 ] } },
{ "type": "Feature", "properties": { "Anno": 2018, "Sede": "TE", "Regione": "LOMBARDIA", "Provincia": "PV", "SiglaProvincia": "PAVIA", "Comune": "TRAVACO' SICCOMARIO", "CodIstat": 18162, "N_insetti": 2, "N_uccelli": 0, "N_tot": 2, "Categoria": "INSETTI" }, "geometry": { "type": "Point", "coordinates": [ 9.174433674000056, 45.150140001000068 ] } },
{ "type": "Feature", "properties": { "Anno": 2018, "Sede": "TE", "Regione": "PIEMONTE", "Provincia": "AL", "SiglaProvincia": "ALESSANDRIA", "Comune": "TICINETO", "CodIstat": 6173, "N_insetti": 2, "N_uccelli": 0, "N_tot": 2, "Categoria": "INSETTI" }, "geometry": { "type": "Point", "coordinates": [ 8.558160194000038, 45.101914755000053 ] } },
{ "type": "Feature", "properties": { "Anno": 2018, "Sede": "TE", "Regione": "EMILIA ROMAGNA", "Provincia": "BO", "SiglaProvincia": "BOLOGNA", "Comune": "VALSAMOGGIA", "CodIstat": 37061, "N_insetti": 0, "N_uccelli": 2, "N_tot": 2, "Categoria": "UCCELLI" }, "geometry": { "type": "Point", "coordinates": [ 11.091031895000071, 44.443395671000076 ] } },
{ "type": "Feature", "properties": { "Anno": 2018, "Sede": "TE", "Regione": "EMILIA ROMAGNA", "Provincia": "PR", "SiglaProvincia": "PARMA", "Comune": "SISSA TRECASALI", "CodIstat": 34049, "N_insetti": 4, "N_uccelli": 0, "N_tot": 4, "Categoria": "INSETTI" }, "geometry": { "type": "Point", "coordinates": [ 10.279736058000026, 44.948295599000062 ] } },
{ "type": "Feature", "properties": { "Anno": 2018, "Sede": "TE", "Regione": "VENETO", "Provincia": "VI", "SiglaProvincia": "VICENZA", "Comune": "BARBARANO MOSSANO", "CodIstat": 24124, "N_insetti": 2, "N_uccelli": 0, "N_tot": 2, "Categoria": "INSETTI" }, "geometry": { "type": "Point", "coordinates": [ 11.564613423000026, 45.408796534000032 ] } },
{ "type": "Feature", "properties": { "Anno": 2018, "Sede": "TE", "Regione": "EMILIA ROMAGNA", "Provincia": "PR", "SiglaProvincia": "PARMA", "Comune": "MEZZANI", "CodIstat": 34051, "N_insetti": 4, "N_uccelli": 0, "N_tot": 4, "Categoria": "INSETTI" }, "geometry": { "type": "Point", "coordinates": [ 10.438805566000042, 44.887226027000054 ] } },
{ "type": "Feature", "properties": { "Anno": 2018, "Sede": "TE", "Regione": "EMILIA ROMAGNA", "Provincia": "PR", "SiglaProvincia": "PARMA", "Comune": "ZIBELLO", "CodIstat": 34050, "N_insetti": 4, "N_uccelli": 0, "N_tot": 4, "Categoria": "INSETTI" }, "geometry": { "type": "Point", "coordinates": [ 10.117759980000073, 45.012790138000071 ] } }
]
}
