{
"type": "FeatureCollection",
"crs": { "type": "name", "properties": { "name": "urn:ogc:def:crs:OGC:1.3:CRS84" } },
"features": [
{ "type": "Feature", "properties": { "CodIstat": 38006, "AnnoBollettino": 2021, "Regione": "EMILIA ROMAGNA", "Prov": "FERRARA", "Comune": "COMACCHIO", "INSETTI": 2, "UCCELLI": 0, "EQUIDI": 0, "AVICOLI": 0, "UOMO": 0 }, "geometry": { "type": "Point", "coordinates": [ 12.162001007000072, 44.683399501000054 ] } },
{ "type": "Feature", "properties": { "CodIstat": 109006, "AnnoBollettino": 2021, "Regione": "MARCHE", "Prov": "FERMO", "Comune": "FERMO", "INSETTI": 6, "UCCELLI": 3, "EQUIDI": 0, "AVICOLI": 0, "UOMO": 0 }, "geometry": { "type": "Point", "coordinates": [ 13.716969266000035, 43.160761429000047 ] } },
{ "type": "Feature", "properties": { "CodIstat": 29021, "AnnoBollettino": 2021, "Regione": "VENETO", "Prov": "ROVIGO", "Comune": "FICAROLO", "INSETTI": 2, "UCCELLI": 0, "EQUIDI": 0, "AVICOLI": 0, "UOMO": 0 }, "geometry": { "type": "Point", "coordinates": [ 11.445932400000061, 44.957650980000039 ] } },
{ "type": "Feature", "properties": { "CodIstat": 42015, "AnnoBollettino": 2021, "Regione": "MARCHE", "Prov": "ANCONA", "Comune": "CORINALDO", "INSETTI": 2, "UCCELLI": 0, "EQUIDI": 0, "AVICOLI": 0, "UOMO": 0 }, "geometry": { "type": "Point", "coordinates": [ 13.04429398700006, 43.648479688000066 ] } },
{ "type": "Feature", "properties": { "CodIstat": 36015, "AnnoBollettino": 2021, "Regione": "EMILIA ROMAGNA", "Prov": "MODENA", "Comune": "FORMIGINE", "INSETTI": 1, "UCCELLI": 0, "EQUIDI": 0, "AVICOLI": 0, "UOMO": 0 }, "geometry": { "type": "Point", "coordinates": [ 10.845983772000068, 44.57987539700008 ] } },
{ "type": "Feature", "properties": { "CodIstat": 24068, "AnnoBollettino": 2021, "Regione": "VENETO", "Prov": "VICENZA", "Comune": "MONTORSO VICENTINO", "INSETTI": 2, "UCCELLI": 0, "EQUIDI": 0, "AVICOLI": 0, "UOMO": 0 }, "geometry": { "type": "Point", "coordinates": [ 11.356078197000045, 45.491526049000072 ] } },
{ "type": "Feature", "properties": { "CodIstat": 23054, "AnnoBollettino": 2021, "Regione": "VENETO", "Prov": "VERONA", "Comune": "NOGAROLE ROCCA", "INSETTI": 1, "UCCELLI": 0, "EQUIDI": 0, "AVICOLI": 0, "UOMO": 0 }, "geometry": { "type": "Point", "coordinates": [ 10.879193250000071, 45.280407251000042 ] } },
{ "type": "Feature", "properties": { "CodIstat": 23050, "AnnoBollettino": 2021, "Regione": "VENETO", "Prov": "VERONA", "Comune": "MONTEFORTE D'ALPONE", "INSETTI": 0, "UCCELLI": 1, "EQUIDI": 0, "AVICOLI": 0, "UOMO": 0 }, "geometry": { "type": "Point", "coordinates": [ 11.286605270000052, 45.436141629000076 ] } },
{ "type": "Feature", "properties": { "CodIstat": 36027, "AnnoBollettino": 2021, "Regione": "EMILIA ROMAGNA", "Prov": "MODENA", "Comune": "NONANTOLA", "INSETTI": 1, "UCCELLI": 0, "EQUIDI": 0, "AVICOLI": 0, "UOMO": 0 }, "geometry": { "type": "Point", "coordinates": [ 11.05584755600006, 44.685255319000078 ] } },
{ "type": "Feature", "properties": { "CodIstat": 44054, "AnnoBollettino": 2021, "Regione": "MARCHE", "Prov": "ASCOLI PICENO", "Comune": "OFFIDA", "INSETTI": 1, "UCCELLI": 0, "EQUIDI": 0, "AVICOLI": 0, "UOMO": 0 }, "geometry": { "type": "Point", "coordinates": [ 13.712021768000056, 42.937981396000055 ] } },
{ "type": "Feature", "properties": { "CodIstat": 36028, "AnnoBollettino": 2021, "Regione": "EMILIA ROMAGNA", "Prov": "MODENA", "Comune": "NOVI DI MODENA", "INSETTI": 1, "UCCELLI": 0, "EQUIDI": 0, "AVICOLI": 0, "UOMO": 0 }, "geometry": { "type": "Point", "coordinates": [ 10.929528859000072, 44.873623681000026 ] } },
{ "type": "Feature", "properties": { "CodIstat": 43031, "AnnoBollettino": 2021, "Regione": "MARCHE", "Prov": "MACERATA", "Comune": "MONTE SAN GIUSTO", "INSETTI": 1, "UCCELLI": 0, "EQUIDI": 0, "AVICOLI": 0, "UOMO": 0 }, "geometry": { "type": "Point", "coordinates": [ 13.581560294000042, 43.237335099000063 ] } },
{ "type": "Feature", "properties": { "CodIstat": 27024, "AnnoBollettino": 2021, "Regione": "VENETO", "Prov": "VENEZIA", "Comune": "MIRANO", "INSETTI": 3, "UCCELLI": 0, "EQUIDI": 0, "AVICOLI": 0, "UOMO": 0 }, "geometry": { "type": "Point", "coordinates": [ 12.08763310300003, 45.485662309000077 ] } },
{ "type": "Feature", "properties": { "CodIstat": 38014, "AnnoBollettino": 2021, "Regione": "EMILIA ROMAGNA", "Prov": "FERRARA", "Comune": "MESOLA", "INSETTI": 1, "UCCELLI": 0, "EQUIDI": 0, "AVICOLI": 0, "UOMO": 0 }, "geometry": { "type": "Point", "coordinates": [ 12.218792182000072, 44.899748009000064 ] } },
{ "type": "Feature", "properties": { "CodIstat": 42034, "AnnoBollettino": 2021, "Regione": "MARCHE", "Prov": "ANCONA", "Comune": "OSIMO", "INSETTI": 4, "UCCELLI": 0, "EQUIDI": 0, "AVICOLI": 0, "UOMO": 0 }, "geometry": { "type": "Point", "coordinates": [ 13.461827498000048, 43.484319818000074 ] } },
{ "type": "Feature", "properties": { "CodIstat": 38018, "AnnoBollettino": 2021, "Regione": "EMILIA ROMAGNA", "Prov": "FERRARA", "Comune": "POGGIO RENATICO", "INSETTI": 1, "UCCELLI": 0, "EQUIDI": 0, "AVICOLI": 0, "UOMO": 0 }, "geometry": { "type": "Point", "coordinates": [ 11.496945050000022, 44.77036408400005 ] } },
{ "type": "Feature", "properties": { "CodIstat": 23055, "AnnoBollettino": 2021, "Regione": "VENETO", "Prov": "VERONA", "Comune": "OPPEANO", "INSETTI": 5, "UCCELLI": 0, "EQUIDI": 0, "AVICOLI": 0, "UOMO": 0 }, "geometry": { "type": "Point", "coordinates": [ 11.113315647000036, 45.310311312000067 ] } },
{ "type": "Feature", "properties": { "CodIstat": 43042, "AnnoBollettino": 2021, "Regione": "MARCHE", "Prov": "MACERATA", "Comune": "PORTO RECANATI", "INSETTI": 1, "UCCELLI": 0, "EQUIDI": 0, "AVICOLI": 0, "UOMO": 0 }, "geometry": { "type": "Point", "coordinates": [ 13.644927160000066, 43.436307014000079 ] } },
{ "type": "Feature", "properties": { "CodIstat": 38003, "AnnoBollettino": 2021, "Regione": "EMILIA ROMAGNA", "Prov": "FERRARA", "Comune": "BONDENO", "INSETTI": 1, "UCCELLI": 0, "EQUIDI": 0, "AVICOLI": 0, "UOMO": 0 }, "geometry": { "type": "Point", "coordinates": [ 11.373549815000047, 44.903090030000044 ] } },
{ "type": "Feature", "properties": { "CodIstat": 37006, "AnnoBollettino": 2021, "Regione": "EMILIA ROMAGNA", "Prov": "BOLOGNA", "Comune": "BOLOGNA", "INSETTI": 2, "UCCELLI": 30, "EQUIDI": 0, "AVICOLI": 0, "UOMO": 0 }, "geometry": { "type": "Point", "coordinates": [ 11.333126250000021, 44.49809742900004 ] } },
{ "type": "Feature", "properties": { "CodIstat": 29024, "AnnoBollettino": 2021, "Regione": "VENETO", "Prov": "ROVIGO", "Comune": "FRATTA POLESINE", "INSETTI": 0, "UCCELLI": 1, "EQUIDI": 0, "AVICOLI": 0, "UOMO": 0 }, "geometry": { "type": "Point", "coordinates": [ 11.633084120000035, 45.021226283000033 ] } },
{ "type": "Feature", "properties": { "CodIstat": 33002, "AnnoBollettino": 2021, "Regione": "EMILIA ROMAGNA", "Prov": "PIACENZA", "Comune": "ALSENO", "INSETTI": 3, "UCCELLI": 0, "EQUIDI": 0, "AVICOLI": 0, "UOMO": 0 }, "geometry": { "type": "Point", "coordinates": [ 9.962484394000057, 44.887353463000068 ] } },
{ "type": "Feature", "properties": { "CodIstat": 38007, "AnnoBollettino": 2021, "Regione": "EMILIA ROMAGNA", "Prov": "FERRARA", "Comune": "COPPARO", "INSETTI": 1, "UCCELLI": 0, "EQUIDI": 0, "AVICOLI": 0, "UOMO": 0 }, "geometry": { "type": "Point", "coordinates": [ 11.860675907000029, 44.902406816000052 ] } },
{ "type": "Feature", "properties": { "CodIstat": 38001, "AnnoBollettino": 2021, "Regione": "EMILIA ROMAGNA", "Prov": "FERRARA", "Comune": "ARGENTA", "INSETTI": 1, "UCCELLI": 0, "EQUIDI": 0, "AVICOLI": 0, "UOMO": 0 }, "geometry": { "type": "Point", "coordinates": [ 11.888721223000061, 44.622211224000068 ] } },
{ "type": "Feature", "properties": { "CodIstat": 82032, "AnnoBollettino": 2021, "Regione": "SICILIA", "Prov": "PALERMO", "Comune": "COLLESANO", "INSETTI": 0, "UCCELLI": 1, "EQUIDI": 0, "AVICOLI": 0, "UOMO": 0 }, "geometry": { "type": "Point", "coordinates": [ 13.905395486000032, 37.932675309000047 ] } },
{ "type": "Feature", "properties": { "CodIstat": 27002, "AnnoBollettino": 2021, "Regione": "VENETO", "Prov": "VENEZIA", "Comune": "CAMPAGNA LUPIA", "INSETTI": 3, "UCCELLI": 0, "EQUIDI": 0, "AVICOLI": 0, "UOMO": 0 }, "geometry": { "type": "Point", "coordinates": [ 12.167041347000065, 45.339965644000074 ] } },
{ "type": "Feature", "properties": { "CodIstat": 23036, "AnnoBollettino": 2021, "Regione": "VENETO", "Prov": "VERONA", "Comune": "GARDA", "INSETTI": 0, "UCCELLI": 1, "EQUIDI": 0, "AVICOLI": 0, "UOMO": 0 }, "geometry": { "type": "Point", "coordinates": [ 10.687449438000044, 45.576571451000063 ] } },
{ "type": "Feature", "properties": { "CodIstat": 35021, "AnnoBollettino": 2021, "Regione": "EMILIA ROMAGNA", "Prov": "REGGIO EMILIA", "Comune": "FABBRICO", "INSETTI": 1, "UCCELLI": 0, "EQUIDI": 0, "AVICOLI": 0, "UOMO": 0 }, "geometry": { "type": "Point", "coordinates": [ 10.812774404000038, 44.875873221000063 ] } },
{ "type": "Feature", "properties": { "CodIstat": 28027, "AnnoBollettino": 2021, "Regione": "VENETO", "Prov": "PADOVA", "Comune": "CASALE DI SCODOSIA", "INSETTI": 1, "UCCELLI": 0, "EQUIDI": 0, "AVICOLI": 0, "UOMO": 0 }, "geometry": { "type": "Point", "coordinates": [ 11.484981934000075, 45.183536364000076 ] } },
{ "type": "Feature", "properties": { "CodIstat": 68012, "AnnoBollettino": 2021, "Regione": "ABRUZZO", "Prov": "PESCARA", "Comune": "CITTA' SANT'ANGELO", "INSETTI": 2, "UCCELLI": 0, "EQUIDI": 0, "AVICOLI": 0, "UOMO": 0 }, "geometry": { "type": "Point", "coordinates": [ 14.062069889000043, 42.512245372000052 ] } },
{ "type": "Feature", "properties": { "CodIstat": 36003, "AnnoBollettino": 2021, "Regione": "EMILIA ROMAGNA", "Prov": "MODENA", "Comune": "CAMPOGALLIANO", "INSETTI": 0, "UCCELLI": 1, "EQUIDI": 0, "AVICOLI": 0, "UOMO": 0 }, "geometry": { "type": "Point", "coordinates": [ 10.841297863000023, 44.699746423000079 ] } },
{ "type": "Feature", "properties": { "CodIstat": 38004, "AnnoBollettino": 2021, "Regione": "EMILIA ROMAGNA", "Prov": "FERRARA", "Comune": "CENTO", "INSETTI": 0, "UCCELLI": 1, "EQUIDI": 0, "AVICOLI": 0, "UOMO": 0 }, "geometry": { "type": "Point", "coordinates": [ 11.307692799000051, 44.775880762000043 ] } },
{ "type": "Feature", "properties": { "CodIstat": 37038, "AnnoBollettino": 2021, "Regione": "EMILIA ROMAGNA", "Prov": "BOLOGNA", "Comune": "MINERBIO", "INSETTI": 0, "UCCELLI": 1, "EQUIDI": 0, "AVICOLI": 0, "UOMO": 0 }, "geometry": { "type": "Point", "coordinates": [ 11.50248636200007, 44.616590244000065 ] } },
{ "type": "Feature", "properties": { "CodIstat": 37045, "AnnoBollettino": 2021, "Regione": "EMILIA ROMAGNA", "Prov": "BOLOGNA", "Comune": "MORDANO", "INSETTI": 1, "UCCELLI": 0, "EQUIDI": 0, "AVICOLI": 0, "UOMO": 0 }, "geometry": { "type": "Point", "coordinates": [ 11.796195598000054, 44.409512989000063 ] } },
{ "type": "Feature", "properties": { "CodIstat": 37003, "AnnoBollettino": 2021, "Regione": "EMILIA ROMAGNA", "Prov": "BOLOGNA", "Comune": "BARICELLA", "INSETTI": 2, "UCCELLI": 0, "EQUIDI": 0, "AVICOLI": 0, "UOMO": 0 }, "geometry": { "type": "Point", "coordinates": [ 11.571188390000032, 44.668541643000026 ] } },
{ "type": "Feature", "properties": { "CodIstat": 36005, "AnnoBollettino": 2021, "Regione": "EMILIA ROMAGNA", "Prov": "MODENA", "Comune": "CARPI", "INSETTI": 1, "UCCELLI": 0, "EQUIDI": 0, "AVICOLI": 0, "UOMO": 0 }, "geometry": { "type": "Point", "coordinates": [ 10.892723445000058, 44.801874354000063 ] } },
{ "type": "Feature", "properties": { "CodIstat": 42010, "AnnoBollettino": 2021, "Regione": "MARCHE", "Prov": "ANCONA", "Comune": "CASTELFIDARDO", "INSETTI": 4, "UCCELLI": 0, "EQUIDI": 0, "AVICOLI": 0, "UOMO": 0 }, "geometry": { "type": "Point", "coordinates": [ 13.562944841000046, 43.464404478000063 ] } },
{ "type": "Feature", "properties": { "CodIstat": 28016, "AnnoBollettino": 2021, "Regione": "VENETO", "Prov": "PADOVA", "Comune": "CADONEGHE", "INSETTI": 0, "UCCELLI": 1, "EQUIDI": 0, "AVICOLI": 0, "UOMO": 0 }, "geometry": { "type": "Point", "coordinates": [ 11.917641356000047, 45.457668143000035 ] } },
{ "type": "Feature", "properties": { "CodIstat": 27008, "AnnoBollettino": 2021, "Regione": "VENETO", "Prov": "VENEZIA", "Comune": "CHIOGGIA", "INSETTI": 0, "UCCELLI": 1, "EQUIDI": 0, "AVICOLI": 0, "UOMO": 0 }, "geometry": { "type": "Point", "coordinates": [ 12.245990056000039, 45.218106347000059 ] } },
{ "type": "Feature", "properties": { "CodIstat": 43030, "AnnoBollettino": 2021, "Regione": "MARCHE", "Prov": "MACERATA", "Comune": "MONTELUPONE", "INSETTI": 2, "UCCELLI": 0, "EQUIDI": 0, "AVICOLI": 0, "UOMO": 0 }, "geometry": { "type": "Point", "coordinates": [ 13.55238100300005, 43.344433045000073 ] } },
{ "type": "Feature", "properties": { "CodIstat": 68027, "AnnoBollettino": 2021, "Regione": "ABRUZZO", "Prov": "PESCARA", "Comune": "PENNE", "INSETTI": 1, "UCCELLI": 0, "EQUIDI": 0, "AVICOLI": 0, "UOMO": 0 }, "geometry": { "type": "Point", "coordinates": [ 13.906535502000054, 42.46763988500004 ] } },
{ "type": "Feature", "properties": { "CodIstat": 39014, "AnnoBollettino": 2021, "Regione": "EMILIA ROMAGNA", "Prov": "RAVENNA", "Comune": "RAVENNA", "INSETTI": 2, "UCCELLI": 0, "EQUIDI": 0, "AVICOLI": 0, "UOMO": 0 }, "geometry": { "type": "Point", "coordinates": [ 12.193712100000027, 44.413842140000042 ] } },
{ "type": "Feature", "properties": { "CodIstat": 43043, "AnnoBollettino": 2021, "Regione": "MARCHE", "Prov": "MACERATA", "Comune": "POTENZA PICENA", "INSETTI": 1, "UCCELLI": 0, "EQUIDI": 0, "AVICOLI": 0, "UOMO": 0 }, "geometry": { "type": "Point", "coordinates": [ 13.644205937000038, 43.370652981000035 ] } },
{ "type": "Feature", "properties": { "CodIstat": 53011, "AnnoBollettino": 2021, "Regione": "TOSCANA", "Prov": "GROSSETO", "Comune": "GROSSETO", "INSETTI": 0, "UCCELLI": 1, "EQUIDI": 0, "AVICOLI": 0, "UOMO": 0 }, "geometry": { "type": "Point", "coordinates": [ 11.090039672000046, 42.76715291000005 ] } },
{ "type": "Feature", "properties": { "CodIstat": 42021, "AnnoBollettino": 2021, "Regione": "MARCHE", "Prov": "ANCONA", "Comune": "JESI", "INSETTI": 1, "UCCELLI": 0, "EQUIDI": 0, "AVICOLI": 0, "UOMO": 0 }, "geometry": { "type": "Point", "coordinates": [ 13.261412428000028, 43.516614150000066 ] } },
{ "type": "Feature", "properties": { "CodIstat": 28041, "AnnoBollettino": 2021, "Regione": "VENETO", "Prov": "PADOVA", "Comune": "GAZZO", "INSETTI": 2, "UCCELLI": 0, "EQUIDI": 0, "AVICOLI": 0, "UOMO": 0 }, "geometry": { "type": "Point", "coordinates": [ 11.693067001000031, 45.566657320000047 ] } },
{ "type": "Feature", "properties": { "CodIstat": 33022, "AnnoBollettino": 2021, "Regione": "EMILIA ROMAGNA", "Prov": "PIACENZA", "Comune": "GAZZOLA", "INSETTI": 0, "UCCELLI": 1, "EQUIDI": 0, "AVICOLI": 0, "UOMO": 0 }, "geometry": { "type": "Point", "coordinates": [ 9.553612853000061, 44.939276285000062 ] } },
{ "type": "Feature", "properties": { "CodIstat": 33024, "AnnoBollettino": 2021, "Regione": "EMILIA ROMAGNA", "Prov": "PIACENZA", "Comune": "GRAGNANO TREBBIENSE", "INSETTI": 1, "UCCELLI": 0, "EQUIDI": 0, "AVICOLI": 0, "UOMO": 0 }, "geometry": { "type": "Point", "coordinates": [ 9.558389701000067, 45.009873221000078 ] } },
{ "type": "Feature", "properties": { "CodIstat": 37050, "AnnoBollettino": 2021, "Regione": "EMILIA ROMAGNA", "Prov": "BOLOGNA", "Comune": "SALA BOLOGNESE", "INSETTI": 2, "UCCELLI": 0, "EQUIDI": 0, "AVICOLI": 0, "UOMO": 0 }, "geometry": { "type": "Point", "coordinates": [ 11.267963123000072, 44.626941112000054 ] } },
{ "type": "Feature", "properties": { "CodIstat": 29052, "AnnoBollettino": 2021, "Regione": "VENETO", "Prov": "ROVIGO", "Comune": "PORTO VIRO", "INSETTI": 1, "UCCELLI": 0, "EQUIDI": 0, "AVICOLI": 0, "UOMO": 0 }, "geometry": { "type": "Point", "coordinates": [ 12.304432675000044, 45.014765261000036 ] } },
{ "type": "Feature", "properties": { "CodIstat": 27031, "AnnoBollettino": 2021, "Regione": "VENETO", "Prov": "VENEZIA", "Comune": "QUARTO D'ALTINO", "INSETTI": 2, "UCCELLI": 0, "EQUIDI": 0, "AVICOLI": 0, "UOMO": 0 }, "geometry": { "type": "Point", "coordinates": [ 12.409101403000022, 45.560580443000049 ] } },
{ "type": "Feature", "properties": { "CodIstat": 40041, "AnnoBollettino": 2021, "Regione": "EMILIA ROMAGNA", "Prov": "FORLI-CESENA", "Comune": "SAN MAURO PASCOLI", "INSETTI": 0, "UCCELLI": 1, "EQUIDI": 0, "AVICOLI": 0, "UOMO": 0 }, "geometry": { "type": "Point", "coordinates": [ 12.432362111000032, 44.115181998000025 ] } },
{ "type": "Feature", "properties": { "CodIstat": 28099, "AnnoBollettino": 2021, "Regione": "VENETO", "Prov": "PADOVA", "Comune": "VIGODARZERE", "INSETTI": 0, "UCCELLI": 1, "EQUIDI": 0, "AVICOLI": 0, "UOMO": 0 }, "geometry": { "type": "Point", "coordinates": [ 11.873710659000039, 45.481845747000079 ] } },
{ "type": "Feature", "properties": { "CodIstat": 29050, "AnnoBollettino": 2021, "Regione": "VENETO", "Prov": "ROVIGO", "Comune": "VILLANOVA DEL GHEBBO", "INSETTI": 1, "UCCELLI": 0, "EQUIDI": 0, "AVICOLI": 0, "UOMO": 0 }, "geometry": { "type": "Point", "coordinates": [ 11.658581543000025, 45.06707175400004 ] } },
{ "type": "Feature", "properties": { "CodIstat": 36036, "AnnoBollettino": 2021, "Regione": "EMILIA ROMAGNA", "Prov": "MODENA", "Comune": "SAN CESARIO SUL PANARO", "INSETTI": 2, "UCCELLI": 0, "EQUIDI": 0, "AVICOLI": 0, "UOMO": 0 }, "geometry": { "type": "Point", "coordinates": [ 11.023696570000027, 44.573532532000058 ] } },
{ "type": "Feature", "properties": { "CodIstat": 23069, "AnnoBollettino": 2021, "Regione": "VENETO", "Prov": "VERONA", "Comune": "SAN BONIFACIO", "INSETTI": 0, "UCCELLI": 1, "EQUIDI": 0, "AVICOLI": 0, "UOMO": 0 }, "geometry": { "type": "Point", "coordinates": [ 11.286417799000048, 45.396872944000052 ] } },
{ "type": "Feature", "properties": { "CodIstat": 38022, "AnnoBollettino": 2021, "Regione": "EMILIA ROMAGNA", "Prov": "FERRARA", "Comune": "VIGARANO MAINARDA", "INSETTI": 0, "UCCELLI": 2, "EQUIDI": 0, "AVICOLI": 0, "UOMO": 0 }, "geometry": { "type": "Point", "coordinates": [ 11.496263617000068, 44.852440719000072 ] } },
{ "type": "Feature", "properties": { "CodIstat": 27042, "AnnoBollettino": 2021, "Regione": "VENETO", "Prov": "VENEZIA", "Comune": "VENEZIA", "INSETTI": 2, "UCCELLI": 4, "EQUIDI": 0, "AVICOLI": 0, "UOMO": 0 }, "geometry": { "type": "Point", "coordinates": [ 12.345477470000048, 45.467700812000032 ] } },
{ "type": "Feature", "properties": { "CodIstat": 28060, "AnnoBollettino": 2021, "Regione": "VENETO", "Prov": "PADOVA", "Comune": "PADOVA", "INSETTI": 0, "UCCELLI": 1, "EQUIDI": 0, "AVICOLI": 0, "UOMO": 0 }, "geometry": { "type": "Point", "coordinates": [ 11.883099091000076, 45.40343045700007 ] } },
{ "type": "Feature", "properties": { "CodIstat": 41044, "AnnoBollettino": 2021, "Regione": "MARCHE", "Prov": "PESARO E URBINO", "Comune": "PESARO", "INSETTI": 0, "UCCELLI": 6, "EQUIDI": 0, "AVICOLI": 0, "UOMO": 0 }, "geometry": { "type": "Point", "coordinates": [ 12.863348517000077, 43.886613929000077 ] } },
{ "type": "Feature", "properties": { "CodIstat": 37054, "AnnoBollettino": 2021, "Regione": "EMILIA ROMAGNA", "Prov": "BOLOGNA", "Comune": "SAN LAZZARO DI SAVENA", "INSETTI": 0, "UCCELLI": 1, "EQUIDI": 0, "AVICOLI": 0, "UOMO": 0 }, "geometry": { "type": "Point", "coordinates": [ 11.426023564000047, 44.45099192400005 ] } },
{ "type": "Feature", "properties": { "CodIstat": 37047, "AnnoBollettino": 2021, "Regione": "EMILIA ROMAGNA", "Prov": "BOLOGNA", "Comune": "PIANORO", "INSETTI": 0, "UCCELLI": 2, "EQUIDI": 0, "AVICOLI": 0, "UOMO": 0 }, "geometry": { "type": "Point", "coordinates": [ 11.356574278000039, 44.376694164000071 ] } },
{ "type": "Feature", "properties": { "CodIstat": 23085, "AnnoBollettino": 2021, "Regione": "VENETO", "Prov": "VERONA", "Comune": "TERRAZZO", "INSETTI": 0, "UCCELLI": 1, "EQUIDI": 0, "AVICOLI": 0, "UOMO": 0 }, "geometry": { "type": "Point", "coordinates": [ 11.392621156000075, 45.163973276000036 ] } },
{ "type": "Feature", "properties": { "CodIstat": 26063, "AnnoBollettino": 2021, "Regione": "VENETO", "Prov": "TREVISO", "Comune": "PREGANZIOL", "INSETTI": 2, "UCCELLI": 0, "EQUIDI": 0, "AVICOLI": 0, "UOMO": 0 }, "geometry": { "type": "Point", "coordinates": [ 12.226936887000022, 45.607643981000081 ] } },
{ "type": "Feature", "properties": { "CodIstat": 26068, "AnnoBollettino": 2021, "Regione": "VENETO", "Prov": "TREVISO", "Comune": "RIESE PIO X", "INSETTI": 5, "UCCELLI": 0, "EQUIDI": 0, "AVICOLI": 0, "UOMO": 0 }, "geometry": { "type": "Point", "coordinates": [ 11.912966867000023, 45.726249479000046 ] } },
{ "type": "Feature", "properties": { "CodIstat": 24105, "AnnoBollettino": 2021, "Regione": "VENETO", "Prov": "VICENZA", "Comune": "THIENE", "INSETTI": 0, "UCCELLI": 1, "EQUIDI": 0, "AVICOLI": 0, "UOMO": 0 }, "geometry": { "type": "Point", "coordinates": [ 11.484191919000068, 45.690868951000027 ] } },
{ "type": "Feature", "properties": { "CodIstat": 28100, "AnnoBollettino": 2021, "Regione": "VENETO", "Prov": "PADOVA", "Comune": "VIGONZA", "INSETTI": 0, "UCCELLI": 1, "EQUIDI": 0, "AVICOLI": 0, "UOMO": 0 }, "geometry": { "type": "Point", "coordinates": [ 11.971367333000046, 45.448827362000031 ] } },
{ "type": "Feature", "properties": { "CodIstat": 27037, "AnnoBollettino": 2021, "Regione": "VENETO", "Prov": "VENEZIA", "Comune": "SCORZE'", "INSETTI": 0, "UCCELLI": 2, "EQUIDI": 0, "AVICOLI": 0, "UOMO": 0 }, "geometry": { "type": "Point", "coordinates": [ 12.141035051000074, 45.575975303000064 ] } },
{ "type": "Feature", "properties": { "CodIstat": 37015, "AnnoBollettino": 2021, "Regione": "EMILIA ROMAGNA", "Prov": "BOLOGNA", "Comune": "CASTEL DI CASIO", "INSETTI": 0, "UCCELLI": 1, "EQUIDI": 0, "AVICOLI": 0, "UOMO": 0 }, "geometry": { "type": "Point", "coordinates": [ 11.022349955000038, 44.159489954000037 ] } },
{ "type": "Feature", "properties": { "CodIstat": 26019, "AnnoBollettino": 2021, "Regione": "VENETO", "Prov": "TREVISO", "Comune": "CODOGNE'", "INSETTI": 1, "UCCELLI": 0, "EQUIDI": 0, "AVICOLI": 0, "UOMO": 0 }, "geometry": { "type": "Point", "coordinates": [ 12.428512987000033, 45.869226135000076 ] } },
{ "type": "Feature", "properties": { "CodIstat": 28015, "AnnoBollettino": 2021, "Regione": "VENETO", "Prov": "PADOVA", "Comune": "BRUGINE", "INSETTI": 1, "UCCELLI": 0, "EQUIDI": 0, "AVICOLI": 0, "UOMO": 0 }, "geometry": { "type": "Point", "coordinates": [ 11.990305270000022, 45.290264010000044 ] } },
{ "type": "Feature", "properties": { "CodIstat": 40007, "AnnoBollettino": 2021, "Regione": "EMILIA ROMAGNA", "Prov": "FORLI-CESENA", "Comune": "CESENA", "INSETTI": 1, "UCCELLI": 1, "EQUIDI": 0, "AVICOLI": 0, "UOMO": 0 }, "geometry": { "type": "Point", "coordinates": [ 12.234699587000023, 44.130416905000061 ] } },
{ "type": "Feature", "properties": { "CodIstat": 40008, "AnnoBollettino": 2021, "Regione": "EMILIA ROMAGNA", "Prov": "FORLI-CESENA", "Comune": "CESENATICO", "INSETTI": 0, "UCCELLI": 1, "EQUIDI": 0, "AVICOLI": 0, "UOMO": 0 }, "geometry": { "type": "Point", "coordinates": [ 12.379977447000044, 44.175769951000063 ] } },
{ "type": "Feature", "properties": { "CodIstat": 36010, "AnnoBollettino": 2021, "Regione": "EMILIA ROMAGNA", "Prov": "MODENA", "Comune": "CONCORDIA SULLA SECCHIA", "INSETTI": 1, "UCCELLI": 0, "EQUIDI": 0, "AVICOLI": 0, "UOMO": 0 }, "geometry": { "type": "Point", "coordinates": [ 11.001488395000024, 44.924865391000026 ] } },
{ "type": "Feature", "properties": { "CodIstat": 37001, "AnnoBollettino": 2021, "Regione": "EMILIA ROMAGNA", "Prov": "BOLOGNA", "Comune": "ANZOLA DELL'EMILIA", "INSETTI": 1, "UCCELLI": 0, "EQUIDI": 0, "AVICOLI": 0, "UOMO": 0 }, "geometry": { "type": "Point", "coordinates": [ 11.193588662000025, 44.565243942000052 ] } },
{ "type": "Feature", "properties": { "CodIstat": 99023, "AnnoBollettino": 2021, "Regione": "EMILIA ROMAGNA", "Prov": "RIMINI", "Comune": "NOVAFELTRIA", "INSETTI": 0, "UCCELLI": 2, "EQUIDI": 0, "AVICOLI": 0, "UOMO": 0 }, "geometry": { "type": "Point", "coordinates": [ 12.278322833000061, 43.900586007000072 ] } },
{ "type": "Feature", "properties": { "CodIstat": 42002, "AnnoBollettino": 2021, "Regione": "MARCHE", "Prov": "ANCONA", "Comune": "ANCONA", "INSETTI": 4, "UCCELLI": 0, "EQUIDI": 0, "AVICOLI": 0, "UOMO": 0 }, "geometry": { "type": "Point", "coordinates": [ 13.491601637000031, 43.572758309000051 ] } },
{ "type": "Feature", "properties": { "CodIstat": 29004, "AnnoBollettino": 2021, "Regione": "VENETO", "Prov": "ROVIGO", "Comune": "BADIA POLESINE", "INSETTI": 1, "UCCELLI": 0, "EQUIDI": 0, "AVICOLI": 0, "UOMO": 0 }, "geometry": { "type": "Point", "coordinates": [ 11.497179086000074, 45.092935964000048 ] } },
{ "type": "Feature", "properties": { "CodIstat": 67031, "AnnoBollettino": 2021, "Regione": "ABRUZZO", "Prov": "TERAMO", "Comune": "NERETO", "INSETTI": 2, "UCCELLI": 0, "EQUIDI": 0, "AVICOLI": 0, "UOMO": 0 }, "geometry": { "type": "Point", "coordinates": [ 13.811945111000057, 42.81809981300006 ] } },
{ "type": "Feature", "properties": { "CodIstat": 29028, "AnnoBollettino": 2021, "Regione": "VENETO", "Prov": "ROVIGO", "Comune": "GUARDA VENETA", "INSETTI": 1, "UCCELLI": 0, "EQUIDI": 0, "AVICOLI": 0, "UOMO": 0 }, "geometry": { "type": "Point", "coordinates": [ 11.801949451000041, 44.984659673000067 ] } },
{ "type": "Feature", "properties": { "CodIstat": 23019, "AnnoBollettino": 2021, "Regione": "VENETO", "Prov": "VERONA", "Comune": "CASALEONE", "INSETTI": 1, "UCCELLI": 0, "EQUIDI": 0, "AVICOLI": 0, "UOMO": 0 }, "geometry": { "type": "Point", "coordinates": [ 11.198646197000073, 45.145032477000029 ] } },
{ "type": "Feature", "properties": { "CodIstat": 99014, "AnnoBollettino": 2021, "Regione": "EMILIA ROMAGNA", "Prov": "RIMINI", "Comune": "RIMINI", "INSETTI": 4, "UCCELLI": 24, "EQUIDI": 0, "AVICOLI": 0, "UOMO": 0 }, "geometry": { "type": "Point", "coordinates": [ 12.529823040000053, 44.038749046000078 ] } },
{ "type": "Feature", "properties": { "CodIstat": 58091, "AnnoBollettino": 2021, "Regione": "LAZIO", "Prov": "ROMA", "Comune": "ROMA", "INSETTI": 1, "UCCELLI": 0, "EQUIDI": 0, "AVICOLI": 0, "UOMO": 0 }, "geometry": { "type": "Point", "coordinates": [ 12.460825873000033, 41.885771036000051 ] } },
{ "type": "Feature", "properties": { "CodIstat": 37009, "AnnoBollettino": 2021, "Regione": "EMILIA ROMAGNA", "Prov": "BOLOGNA", "Comune": "CALDERARA DI RENO", "INSETTI": 0, "UCCELLI": 1, "EQUIDI": 0, "AVICOLI": 0, "UOMO": 0 }, "geometry": { "type": "Point", "coordinates": [ 11.274431520000064, 44.568383918000052 ] } },
{ "type": "Feature", "properties": { "CodIstat": 43013, "AnnoBollettino": 2021, "Regione": "MARCHE", "Prov": "MACERATA", "Comune": "CIVITANOVA MARCHE", "INSETTI": 1, "UCCELLI": 0, "EQUIDI": 0, "AVICOLI": 0, "UOMO": 0 }, "geometry": { "type": "Point", "coordinates": [ 13.68497721500006, 43.313385494000045 ] } },
{ "type": "Feature", "properties": { "CodIstat": 99001, "AnnoBollettino": 2021, "Regione": "EMILIA ROMAGNA", "Prov": "RIMINI", "Comune": "BELLARIA-IGEA MARINA", "INSETTI": 0, "UCCELLI": 1, "EQUIDI": 0, "AVICOLI": 0, "UOMO": 0 }, "geometry": { "type": "Point", "coordinates": [ 12.463463851000029, 44.131665455000075 ] } },
{ "type": "Feature", "properties": { "CodIstat": 28047, "AnnoBollettino": 2021, "Regione": "VENETO", "Prov": "PADOVA", "Comune": "LOZZO ATESTINO", "INSETTI": 0, "UCCELLI": 1, "EQUIDI": 0, "AVICOLI": 0, "UOMO": 0 }, "geometry": { "type": "Point", "coordinates": [ 11.609806539000033, 45.288907537000057 ] } },
{ "type": "Feature", "properties": { "CodIstat": 37039, "AnnoBollettino": 2021, "Regione": "EMILIA ROMAGNA", "Prov": "BOLOGNA", "Comune": "MOLINELLA", "INSETTI": 2, "UCCELLI": 1, "EQUIDI": 0, "AVICOLI": 0, "UOMO": 0 }, "geometry": { "type": "Point", "coordinates": [ 11.685647190000054, 44.608341571000039 ] } },
{ "type": "Feature", "properties": { "CodIstat": 35033, "AnnoBollettino": 2021, "Regione": "EMILIA ROMAGNA", "Prov": "REGGIO EMILIA", "Comune": "REGGIO NELL'EMILIA", "INSETTI": 3, "UCCELLI": 0, "EQUIDI": 0, "AVICOLI": 0, "UOMO": 0 }, "geometry": { "type": "Point", "coordinates": [ 10.634512271000062, 44.697433032000049 ] } },
{ "type": "Feature", "properties": { "CodIstat": 15188, "AnnoBollettino": 2021, "Regione": "LOMBARDIA", "Prov": "MILANO", "Comune": "ROSATE", "INSETTI": 1, "UCCELLI": 0, "EQUIDI": 0, "AVICOLI": 0, "UOMO": 0 }, "geometry": { "type": "Point", "coordinates": [ 9.018524389000049, 45.351051491000078 ] } },
{ "type": "Feature", "properties": { "CodIstat": 33038, "AnnoBollettino": 2021, "Regione": "EMILIA ROMAGNA", "Prov": "PIACENZA", "Comune": "RIVERGARO", "INSETTI": 0, "UCCELLI": 2, "EQUIDI": 0, "AVICOLI": 0, "UOMO": 0 }, "geometry": { "type": "Point", "coordinates": [ 9.611708905000057, 44.916467048000072 ] } },
{ "type": "Feature", "properties": { "CodIstat": 36012, "AnnoBollettino": 2021, "Regione": "EMILIA ROMAGNA", "Prov": "MODENA", "Comune": "FINALE EMILIA", "INSETTI": 1, "UCCELLI": 0, "EQUIDI": 0, "AVICOLI": 0, "UOMO": 0 }, "geometry": { "type": "Point", "coordinates": [ 11.266477194000061, 44.849116109000079 ] } },
{ "type": "Feature", "properties": { "CodIstat": 40012, "AnnoBollettino": 2021, "Regione": "EMILIA ROMAGNA", "Prov": "FORLI-CESENA", "Comune": "FORLI'", "INSETTI": 1, "UCCELLI": 3, "EQUIDI": 0, "AVICOLI": 0, "UOMO": 0 }, "geometry": { "type": "Point", "coordinates": [ 12.049687739000035, 44.227453774000026 ] } },
{ "type": "Feature", "properties": { "CodIstat": 38008, "AnnoBollettino": 2021, "Regione": "EMILIA ROMAGNA", "Prov": "FERRARA", "Comune": "FERRARA", "INSETTI": 0, "UCCELLI": 8, "EQUIDI": 0, "AVICOLI": 0, "UOMO": 0 }, "geometry": { "type": "Point", "coordinates": [ 11.649123246000045, 44.822929214000055 ] } },
{ "type": "Feature", "properties": { "CodIstat": 5069, "AnnoBollettino": 2021, "Regione": "PIEMONTE", "Prov": "ASTI", "Comune": "MONCALVO", "INSETTI": 1, "UCCELLI": 0, "EQUIDI": 0, "AVICOLI": 0, "UOMO": 0 }, "geometry": { "type": "Point", "coordinates": [ 8.271335579000038, 45.050545986000031 ] } },
{ "type": "Feature", "properties": { "CodIstat": 28044, "AnnoBollettino": 2021, "Regione": "VENETO", "Prov": "PADOVA", "Comune": "LEGNARO", "INSETTI": 0, "UCCELLI": 1, "EQUIDI": 0, "AVICOLI": 0, "UOMO": 0 }, "geometry": { "type": "Point", "coordinates": [ 11.964642204000029, 45.34285882100005 ] } },
{ "type": "Feature", "properties": { "CodIstat": 36023, "AnnoBollettino": 2021, "Regione": "EMILIA ROMAGNA", "Prov": "MODENA", "Comune": "MODENA", "INSETTI": 4, "UCCELLI": 0, "EQUIDI": 0, "AVICOLI": 0, "UOMO": 0 }, "geometry": { "type": "Point", "coordinates": [ 10.915345621000029, 44.644094874000075 ] } },
{ "type": "Feature", "properties": { "CodIstat": 38017, "AnnoBollettino": 2021, "Regione": "EMILIA ROMAGNA", "Prov": "FERRARA", "Comune": "OSTELLATO", "INSETTI": 2, "UCCELLI": 1, "EQUIDI": 0, "AVICOLI": 0, "UOMO": 0 }, "geometry": { "type": "Point", "coordinates": [ 11.977784728000074, 44.723705839000047 ] } },
{ "type": "Feature", "properties": { "CodIstat": 23048, "AnnoBollettino": 2021, "Regione": "VENETO", "Prov": "VERONA", "Comune": "MINERBE", "INSETTI": 1, "UCCELLI": 0, "EQUIDI": 0, "AVICOLI": 0, "UOMO": 0 }, "geometry": { "type": "Point", "coordinates": [ 11.352762462000044, 45.249136588000056 ] } },
{ "type": "Feature", "properties": { "CodIstat": 109027, "AnnoBollettino": 2021, "Regione": "MARCHE", "Prov": "FERMO", "Comune": "MONTOTTONE", "INSETTI": 1, "UCCELLI": 0, "EQUIDI": 0, "AVICOLI": 0, "UOMO": 0 }, "geometry": { "type": "Point", "coordinates": [ 13.585046968000029, 43.070541878000029 ] } },
{ "type": "Feature", "properties": { "CodIstat": 28063, "AnnoBollettino": 2021, "Regione": "VENETO", "Prov": "PADOVA", "Comune": "PIAZZOLA SUL BRENTA", "INSETTI": 0, "UCCELLI": 1, "EQUIDI": 0, "AVICOLI": 0, "UOMO": 0 }, "geometry": { "type": "Point", "coordinates": [ 11.777015633000076, 45.541839189000029 ] } },
{ "type": "Feature", "properties": { "CodIstat": 41030, "AnnoBollettino": 2021, "Regione": "MARCHE", "Prov": "PESARO E URBINO", "Comune": "MONTECALVO IN FOGLIA", "INSETTI": 2, "UCCELLI": 0, "EQUIDI": 0, "AVICOLI": 0, "UOMO": 0 }, "geometry": { "type": "Point", "coordinates": [ 12.64150410700006, 43.808771451000041 ] } },
{ "type": "Feature", "properties": { "CodIstat": 38019, "AnnoBollettino": 2021, "Regione": "EMILIA ROMAGNA", "Prov": "FERRARA", "Comune": "PORTOMAGGIORE", "INSETTI": 0, "UCCELLI": 1, "EQUIDI": 0, "AVICOLI": 0, "UOMO": 0 }, "geometry": { "type": "Point", "coordinates": [ 11.838771028000053, 44.69824161300005 ] } },
{ "type": "Feature", "properties": { "CodIstat": 40046, "AnnoBollettino": 2021, "Regione": "EMILIA ROMAGNA", "Prov": "FORLI-CESENA", "Comune": "SOGLIANO AL RUBICONE", "INSETTI": 0, "UCCELLI": 2, "EQUIDI": 0, "AVICOLI": 0, "UOMO": 0 }, "geometry": { "type": "Point", "coordinates": [ 12.26500586800006, 43.972946041000057 ] } },
{ "type": "Feature", "properties": { "CodIstat": 90064, "AnnoBollettino": 2021, "Regione": "SARDEGNA", "Prov": "SASSARI", "Comune": "SASSARI", "INSETTI": 0, "UCCELLI": 1, "EQUIDI": 0, "AVICOLI": 0, "UOMO": 0 }, "geometry": { "type": "Point", "coordinates": [ 8.364116186000047, 40.744558430000041 ] } },
{ "type": "Feature", "properties": { "CodIstat": 33035, "AnnoBollettino": 2021, "Regione": "EMILIA ROMAGNA", "Prov": "PIACENZA", "Comune": "PODENZANO", "INSETTI": 1, "UCCELLI": 2, "EQUIDI": 0, "AVICOLI": 0, "UOMO": 0 }, "geometry": { "type": "Point", "coordinates": [ 9.702118283000061, 44.970495562000053 ] } },
{ "type": "Feature", "properties": { "CodIstat": 28072, "AnnoBollettino": 2021, "Regione": "VENETO", "Prov": "PADOVA", "Comune": "RUBANO", "INSETTI": 0, "UCCELLI": 1, "EQUIDI": 0, "AVICOLI": 0, "UOMO": 0 }, "geometry": { "type": "Point", "coordinates": [ 11.801584008000077, 45.435491665000029 ] } },
{ "type": "Feature", "properties": { "CodIstat": 20059, "AnnoBollettino": 2021, "Regione": "LOMBARDIA", "Prov": "MANTOVA", "Comune": "SAN MARTINO DALL'ARGINE", "INSETTI": 1, "UCCELLI": 0, "EQUIDI": 0, "AVICOLI": 0, "UOMO": 0 }, "geometry": { "type": "Point", "coordinates": [ 10.529065527000057, 45.095236270000044 ] } },
{ "type": "Feature", "properties": { "CodIstat": 37055, "AnnoBollettino": 2021, "Regione": "EMILIA ROMAGNA", "Prov": "BOLOGNA", "Comune": "SAN PIETRO IN CASALE", "INSETTI": 1, "UCCELLI": 0, "EQUIDI": 0, "AVICOLI": 0, "UOMO": 0 }, "geometry": { "type": "Point", "coordinates": [ 11.404694340000049, 44.710534353000071 ] } },
{ "type": "Feature", "properties": { "CodIstat": 23058, "AnnoBollettino": 2021, "Regione": "VENETO", "Prov": "VERONA", "Comune": "PESCANTINA", "INSETTI": 0, "UCCELLI": 1, "EQUIDI": 0, "AVICOLI": 0, "UOMO": 0 }, "geometry": { "type": "Point", "coordinates": [ 10.861065665000069, 45.490611431000048 ] } },
{ "type": "Feature", "properties": { "CodIstat": 93038, "AnnoBollettino": 2021, "Regione": "FRIULI VENEZIA GIULIA", "Prov": "PORDENONE", "Comune": "SAN GIORGIO DELLA RICHINVELDA", "INSETTI": 1, "UCCELLI": 0, "EQUIDI": 0, "AVICOLI": 0, "UOMO": 0 }, "geometry": { "type": "Point", "coordinates": [ 12.848290185000053, 46.046368451000035 ] } },
{ "type": "Feature", "properties": { "CodIstat": 29041, "AnnoBollettino": 2021, "Regione": "VENETO", "Prov": "ROVIGO", "Comune": "ROVIGO", "INSETTI": 1, "UCCELLI": 1, "EQUIDI": 0, "AVICOLI": 0, "UOMO": 0 }, "geometry": { "type": "Point", "coordinates": [ 11.794869782000035, 45.069645363000063 ] } },
{ "type": "Feature", "properties": { "CodIstat": 36039, "AnnoBollettino": 2021, "Regione": "EMILIA ROMAGNA", "Prov": "MODENA", "Comune": "SAN PROSPERO", "INSETTI": 0, "UCCELLI": 1, "EQUIDI": 0, "AVICOLI": 0, "UOMO": 0 }, "geometry": { "type": "Point", "coordinates": [ 11.032432018000065, 44.789482027000076 ] } },
{ "type": "Feature", "properties": { "CodIstat": 67039, "AnnoBollettino": 2021, "Regione": "ABRUZZO", "Prov": "TERAMO", "Comune": "SANT'OMERO", "INSETTI": 2, "UCCELLI": 0, "EQUIDI": 0, "AVICOLI": 0, "UOMO": 0 }, "geometry": { "type": "Point", "coordinates": [ 13.821468717000073, 42.788896521000026 ] } },
{ "type": "Feature", "properties": { "CodIstat": 99018, "AnnoBollettino": 2021, "Regione": "EMILIA ROMAGNA", "Prov": "RIMINI", "Comune": "SANTARCANGELO DI ROMAGNA", "INSETTI": 0, "UCCELLI": 1, "EQUIDI": 0, "AVICOLI": 0, "UOMO": 0 }, "geometry": { "type": "Point", "coordinates": [ 12.435325675000058, 44.052381599000057 ] } },
{ "type": "Feature", "properties": { "CodIstat": 37052, "AnnoBollettino": 2021, "Regione": "EMILIA ROMAGNA", "Prov": "BOLOGNA", "Comune": "SAN GIORGIO DI PIANO", "INSETTI": 0, "UCCELLI": 1, "EQUIDI": 0, "AVICOLI": 0, "UOMO": 0 }, "geometry": { "type": "Point", "coordinates": [ 11.374840251000023, 44.657698149000055 ] } },
{ "type": "Feature", "properties": { "CodIstat": 99020, "AnnoBollettino": 2021, "Regione": "EMILIA ROMAGNA", "Prov": "RIMINI", "Comune": "VERUCCHIO", "INSETTI": 0, "UCCELLI": 2, "EQUIDI": 0, "AVICOLI": 0, "UOMO": 0 }, "geometry": { "type": "Point", "coordinates": [ 12.428346459000068, 43.983249362000038 ] } },
{ "type": "Feature", "properties": { "CodIstat": 27019, "AnnoBollettino": 2021, "Regione": "VENETO", "Prov": "VENEZIA", "Comune": "JESOLO", "INSETTI": 1, "UCCELLI": 3, "EQUIDI": 0, "AVICOLI": 0, "UOMO": 0 }, "geometry": { "type": "Point", "coordinates": [ 12.633256268000025, 45.534788129000049 ] } },
{ "type": "Feature", "properties": { "CodIstat": 26086, "AnnoBollettino": 2021, "Regione": "VENETO", "Prov": "TREVISO", "Comune": "TREVISO", "INSETTI": 1, "UCCELLI": 0, "EQUIDI": 0, "AVICOLI": 0, "UOMO": 0 }, "geometry": { "type": "Point", "coordinates": [ 12.227596680000033, 45.663830029000053 ] } },
{ "type": "Feature", "properties": { "CodIstat": 37053, "AnnoBollettino": 2021, "Regione": "EMILIA ROMAGNA", "Prov": "BOLOGNA", "Comune": "SAN GIOVANNI IN PERSICETO", "INSETTI": 0, "UCCELLI": 2, "EQUIDI": 0, "AVICOLI": 0, "UOMO": 0 }, "geometry": { "type": "Point", "coordinates": [ 11.203030177000073, 44.66028536400006 ] } },
{ "type": "Feature", "properties": { "CodIstat": 26085, "AnnoBollettino": 2021, "Regione": "VENETO", "Prov": "TREVISO", "Comune": "TREVIGNANO", "INSETTI": 1, "UCCELLI": 0, "EQUIDI": 0, "AVICOLI": 0, "UOMO": 0 }, "geometry": { "type": "Point", "coordinates": [ 12.093231253000056, 45.734562812000036 ] } },
{ "type": "Feature", "properties": { "CodIstat": 42045, "AnnoBollettino": 2021, "Regione": "MARCHE", "Prov": "ANCONA", "Comune": "SENIGALLIA", "INSETTI": 1, "UCCELLI": 0, "EQUIDI": 0, "AVICOLI": 0, "UOMO": 0 }, "geometry": { "type": "Point", "coordinates": [ 13.200981413000022, 43.681684333000078 ] } },
{ "type": "Feature", "properties": { "CodIstat": 44071, "AnnoBollettino": 2021, "Regione": "MARCHE", "Prov": "ASCOLI PICENO", "Comune": "SPINETOLI", "INSETTI": 2, "UCCELLI": 0, "EQUIDI": 0, "AVICOLI": 0, "UOMO": 0 }, "geometry": { "type": "Point", "coordinates": [ 13.776635796000051, 42.878277181000044 ] } },
{ "type": "Feature", "properties": { "CodIstat": 27038, "AnnoBollettino": 2021, "Regione": "VENETO", "Prov": "VENEZIA", "Comune": "SPINEA", "INSETTI": 0, "UCCELLI": 1, "EQUIDI": 0, "AVICOLI": 0, "UOMO": 0 }, "geometry": { "type": "Point", "coordinates": [ 12.155062292000025, 45.49081221800003 ] } },
{ "type": "Feature", "properties": { "CodIstat": 28093, "AnnoBollettino": 2021, "Regione": "VENETO", "Prov": "PADOVA", "Comune": "TREBASELEGHE", "INSETTI": 0, "UCCELLI": 1, "EQUIDI": 0, "AVICOLI": 0, "UOMO": 0 }, "geometry": { "type": "Point", "coordinates": [ 12.044387384000061, 45.593070553000075 ] } },
{ "type": "Feature", "properties": { "CodIstat": 28086, "AnnoBollettino": 2021, "Regione": "VENETO", "Prov": "PADOVA", "Comune": "SELVAZZANO DENTRO", "INSETTI": 1, "UCCELLI": 0, "EQUIDI": 0, "AVICOLI": 0, "UOMO": 0 }, "geometry": { "type": "Point", "coordinates": [ 11.789607244000024, 45.399493106000079 ] } },
{ "type": "Feature", "properties": { "CodIstat": 34049, "AnnoBollettino": 2021, "Regione": "EMILIA ROMAGNA", "Prov": "PARMA", "Comune": "SISSA TRECASALI", "INSETTI": 1, "UCCELLI": 0, "EQUIDI": 0, "AVICOLI": 0, "UOMO": 0 }, "geometry": { "type": "Point", "coordinates": [ 10.279736058000026, 44.948295599000062 ] } },
{ "type": "Feature", "properties": { "CodIstat": 38029, "AnnoBollettino": 2021, "Regione": "EMILIA ROMAGNA", "Prov": "FERRARA", "Comune": "RIVA DEL PO", "INSETTI": 1, "UCCELLI": 0, "EQUIDI": 0, "AVICOLI": 0, "UOMO": 0 }, "geometry": { "type": "Point", "coordinates": [ 11.916705056000069, 44.954021413000078 ] } },
{ "type": "Feature", "properties": { "CodIstat": 236, "AnnoBollettino": 2021, "Regione": "SAN MARINO", "Prov": "SAN MARINO", "Comune": "REPUBBLICA DI SAN MARINO", "INSETTI": 0, "UCCELLI": 1, "EQUIDI": 0, "AVICOLI": 0, "UOMO": 0 }, "geometry": { "type": "Point", "coordinates": [ 12.3900534, 43.9428566 ] } }
]
}
