{
"type": "FeatureCollection",
"crs": { "type": "name", "properties": { "name": "urn:ogc:def:crs:OGC:1.3:CRS84" } },
"features": [
{ "type": "Feature", "properties": { "CodIstat": 16024, "DataSospetto": "2020\/09\/02 00:00:00", "Categoria": "UCCELLI BERSAGLIO", "Regione": "LOMBARDIA", "Prov": "BG", "Comune": "BERGAMO", "NumCapiMalati": 1, "NumFocolai": 1 }, "geometry": { "type": "Point", "coordinates": [ 9.66379549800007, 45.69661194300005 ] } },
{ "type": "Feature", "properties": { "CodIstat": 33018, "DataSospetto": "2020\/08\/25 00:00:00", "Categoria": "INSETTI", "Regione": "EMILIA ROMAGNA", "Prov": "PC", "Comune": "CORTEMAGGIORE", "NumCapiMalati": 1, "NumFocolai": 1 }, "geometry": { "type": "Point", "coordinates": [ 9.920532560000026, 45.00042372200005 ] } },
{ "type": "Feature", "properties": { "CodIstat": 29021, "DataSospetto": "2020\/08\/27 00:00:00", "Categoria": "INSETTI", "Regione": "VENETO", "Prov": "RO", "Comune": "FICAROLO", "NumCapiMalati": 1, "NumFocolai": 1 }, "geometry": { "type": "Point", "coordinates": [ 11.445932400000061, 44.957650980000039 ] } },
{ "type": "Feature", "properties": { "CodIstat": 15099, "DataSospetto": "2020\/08\/21 00:00:00", "Categoria": "UCCELLI BERSAGLIO", "Regione": "LOMBARDIA", "Prov": "MI", "Comune": "DAIRAGO", "NumCapiMalati": 1, "NumFocolai": 1 }, "geometry": { "type": "Point", "coordinates": [ 8.854844072000049, 45.565017587000057 ] } },
{ "type": "Feature", "properties": { "CodIstat": 36015, "DataSospetto": "2020\/08\/19 00:00:00", "Categoria": "INSETTI", "Regione": "EMILIA ROMAGNA", "Prov": "MO", "Comune": "FORMIGINE", "NumCapiMalati": 1, "NumFocolai": 1 }, "geometry": { "type": "Point", "coordinates": [ 10.845983772000068, 44.57987539700008 ] } },
{ "type": "Feature", "properties": { "CodIstat": 36015, "DataSospetto": "2020\/09\/02 00:00:00", "Categoria": "EQUIDI", "Regione": "EMILIA ROMAGNA", "Prov": "MO", "Comune": "FORMIGINE", "NumCapiMalati": 1, "NumFocolai": 1 }, "geometry": { "type": "Point", "coordinates": [ 10.845983772000068, 44.57987539700008 ] } },
{ "type": "Feature", "properties": { "CodIstat": 19035, "DataSospetto": "2020\/07\/03 00:00:00", "Categoria": "INSETTI", "Regione": "LOMBARDIA", "Prov": "CR", "Comune": "CREMA", "NumCapiMalati": 1, "NumFocolai": 1 }, "geometry": { "type": "Point", "coordinates": [ 9.682800189000034, 45.366024657000025 ] } },
{ "type": "Feature", "properties": { "CodIstat": 34016, "DataSospetto": "2020\/08\/29 00:00:00", "Categoria": "UCCELLI BERSAGLIO", "Regione": "EMILIA ROMAGNA", "Prov": "PR", "Comune": "FONTEVIVO", "NumCapiMalati": 1, "NumFocolai": 1 }, "geometry": { "type": "Point", "coordinates": [ 10.203045294000049, 44.848719233000054 ] } },
{ "type": "Feature", "properties": { "CodIstat": 15114, "DataSospetto": "2020\/09\/22 00:00:00", "Categoria": "UCCELLI BERSAGLIO", "Regione": "LOMBARDIA", "Prov": "MI", "Comune": "INZAGO", "NumCapiMalati": 1, "NumFocolai": 1 }, "geometry": { "type": "Point", "coordinates": [ 9.479609173000028, 45.541872455000032 ] } },
{ "type": "Feature", "properties": { "CodIstat": 35026, "DataSospetto": "2020\/07\/30 00:00:00", "Categoria": "INSETTI", "Regione": "EMILIA ROMAGNA", "Prov": "RE", "Comune": "LUZZARA", "NumCapiMalati": 2, "NumFocolai": 1 }, "geometry": { "type": "Point", "coordinates": [ 10.711146362000022, 44.953850224000064 ] } },
{ "type": "Feature", "properties": { "CodIstat": 17103, "DataSospetto": "2020\/09\/09 00:00:00", "Categoria": "EQUIDI", "Regione": "LOMBARDIA", "Prov": "BS", "Comune": "MANERBIO", "NumCapiMalati": 1, "NumFocolai": 1 }, "geometry": { "type": "Point", "coordinates": [ 10.146516762000033, 45.352589562000048 ] } },
{ "type": "Feature", "properties": { "CodIstat": 23054, "DataSospetto": "2020\/08\/13 00:00:00", "Categoria": "INSETTI", "Regione": "VENETO", "Prov": "VR", "Comune": "NOGAROLE ROCCA", "NumCapiMalati": 3, "NumFocolai": 1 }, "geometry": { "type": "Point", "coordinates": [ 10.879193250000071, 45.280407251000042 ] } },
{ "type": "Feature", "properties": { "CodIstat": 1171, "DataSospetto": "2020\/09\/12 00:00:00", "Categoria": "UCCELLI BERSAGLIO", "Regione": "PIEMONTE", "Prov": "TO", "Comune": "ORBASSANO", "NumCapiMalati": 3, "NumFocolai": 1 }, "geometry": { "type": "Point", "coordinates": [ 7.555744234000031, 45.005682929000045 ] } },
{ "type": "Feature", "properties": { "CodIstat": 16143, "DataSospetto": "2020\/10\/02 00:00:00", "Categoria": "UCCELLI SELVATICI", "Regione": "LOMBARDIA", "Prov": "BG", "Comune": "MOZZO", "NumCapiMalati": 1, "NumFocolai": 1 }, "geometry": { "type": "Point", "coordinates": [ 9.609368352000047, 45.70237635400008 ] } },
{ "type": "Feature", "properties": { "CodIstat": 98031, "DataSospetto": "2020\/07\/16 00:00:00", "Categoria": "INSETTI", "Regione": "LOMBARDIA", "Prov": "LO", "Comune": "LODI", "NumCapiMalati": 1, "NumFocolai": 1 }, "geometry": { "type": "Point", "coordinates": [ 9.503401532000055, 45.314717610000059 ] } },
{ "type": "Feature", "properties": { "CodIstat": 17120, "DataSospetto": "2020\/10\/09 00:00:00", "Categoria": "UCCELLI SELVATICI", "Regione": "LOMBARDIA", "Prov": "BS", "Comune": "NUVOLERA", "NumCapiMalati": 1, "NumFocolai": 1 }, "geometry": { "type": "Point", "coordinates": [ 10.365800706000073, 45.534172928000032 ] } },
{ "type": "Feature", "properties": { "CodIstat": 4147, "DataSospetto": "2020\/08\/04 00:00:00", "Categoria": "UCCELLI BERSAGLIO", "Regione": "PIEMONTE", "Prov": "CN", "Comune": "NARZOLE", "NumCapiMalati": 1, "NumFocolai": 1 }, "geometry": { "type": "Point", "coordinates": [ 7.873108166000065, 44.596168460000058 ] } },
{ "type": "Feature", "properties": { "CodIstat": 4147, "DataSospetto": "2020\/09\/07 00:00:00", "Categoria": "UCCELLI BERSAGLIO", "Regione": "PIEMONTE", "Prov": "CN", "Comune": "NARZOLE", "NumCapiMalati": 3, "NumFocolai": 1 }, "geometry": { "type": "Point", "coordinates": [ 7.873108166000065, 44.596168460000058 ] } },
{ "type": "Feature", "properties": { "CodIstat": 4147, "DataSospetto": "2020\/10\/05 00:00:00", "Categoria": "UCCELLI BERSAGLIO", "Regione": "PIEMONTE", "Prov": "CN", "Comune": "NARZOLE", "NumCapiMalati": 1, "NumFocolai": 1 }, "geometry": { "type": "Point", "coordinates": [ 7.873108166000065, 44.596168460000058 ] } },
{ "type": "Feature", "properties": { "CodIstat": 36027, "DataSospetto": "2020\/08\/06 00:00:00", "Categoria": "INSETTI", "Regione": "EMILIA ROMAGNA", "Prov": "MO", "Comune": "NONANTOLA", "NumCapiMalati": 1, "NumFocolai": 1 }, "geometry": { "type": "Point", "coordinates": [ 11.05584755600006, 44.685255319000078 ] } },
{ "type": "Feature", "properties": { "CodIstat": 36027, "DataSospetto": "2020\/08\/07 00:00:00", "Categoria": "UCCELLI BERSAGLIO", "Regione": "EMILIA ROMAGNA", "Prov": "MO", "Comune": "NONANTOLA", "NumCapiMalati": 1, "NumFocolai": 1 }, "geometry": { "type": "Point", "coordinates": [ 11.05584755600006, 44.685255319000078 ] } },
{ "type": "Feature", "properties": { "CodIstat": 36028, "DataSospetto": "2020\/07\/23 00:00:00", "Categoria": "INSETTI", "Regione": "EMILIA ROMAGNA", "Prov": "MO", "Comune": "NOVI DI MODENA", "NumCapiMalati": 1, "NumFocolai": 1 }, "geometry": { "type": "Point", "coordinates": [ 10.929528859000072, 44.873623681000026 ] } },
{ "type": "Feature", "properties": { "CodIstat": 17122, "DataSospetto": "2020\/09\/11 00:00:00", "Categoria": "EQUIDI", "Regione": "LOMBARDIA", "Prov": "BS", "Comune": "OFFLAGA", "NumCapiMalati": 3, "NumFocolai": 1 }, "geometry": { "type": "Point", "coordinates": [ 10.110372806000044, 45.382599537000033 ] } },
{ "type": "Feature", "properties": { "CodIstat": 1193, "DataSospetto": "2020\/09\/07 00:00:00", "Categoria": "UCCELLI BERSAGLIO", "Regione": "PIEMONTE", "Prov": "TO", "Comune": "PIOBESI TORINESE", "NumCapiMalati": 2, "NumFocolai": 1 }, "geometry": { "type": "Point", "coordinates": [ 7.603241953000065, 44.920643581000036 ] } },
{ "type": "Feature", "properties": { "CodIstat": 18110, "DataSospetto": "2020\/08\/04 00:00:00", "Categoria": "UCCELLI BERSAGLIO", "Regione": "LOMBARDIA", "Prov": "PV", "Comune": "PAVIA", "NumCapiMalati": 1, "NumFocolai": 1 }, "geometry": { "type": "Point", "coordinates": [ 9.164497327000049, 45.197716697000033 ] } },
{ "type": "Feature", "properties": { "CodIstat": 18110, "DataSospetto": "2020\/08\/09 00:00:00", "Categoria": "UCCELLI BERSAGLIO", "Regione": "LOMBARDIA", "Prov": "PV", "Comune": "PAVIA", "NumCapiMalati": 1, "NumFocolai": 1 }, "geometry": { "type": "Point", "coordinates": [ 9.164497327000049, 45.197716697000033 ] } },
{ "type": "Feature", "properties": { "CodIstat": 17151, "DataSospetto": "2020\/10\/05 00:00:00", "Categoria": "UCCELLI SELVATICI", "Regione": "LOMBARDIA", "Prov": "BS", "Comune": "POZZOLENGO", "NumCapiMalati": 1, "NumFocolai": 1 }, "geometry": { "type": "Point", "coordinates": [ 10.622570501000041, 45.409703692000051 ] } },
{ "type": "Feature", "properties": { "CodIstat": 14052, "DataSospetto": "2020\/08\/03 00:00:00", "Categoria": "UCCELLI BERSAGLIO", "Regione": "LOMBARDIA", "Prov": "SO", "Comune": "PONTE IN VALTELLINA", "NumCapiMalati": 2, "NumFocolai": 1 }, "geometry": { "type": "Point", "coordinates": [ 9.982248913000035, 46.14012110300007 ] } },
{ "type": "Feature", "properties": { "CodIstat": 1197, "DataSospetto": "2020\/07\/13 00:00:00", "Categoria": "UCCELLI BERSAGLIO", "Regione": "PIEMONTE", "Prov": "TO", "Comune": "POIRINO", "NumCapiMalati": 1, "NumFocolai": 1 }, "geometry": { "type": "Point", "coordinates": [ 7.842638547000035, 44.902678276000074 ] } },
{ "type": "Feature", "properties": { "CodIstat": 27023, "DataSospetto": "2020\/10\/14 00:00:00", "Categoria": "UCCELLI SELVATICI", "Regione": "VENETO", "Prov": "VE", "Comune": "MIRA", "NumCapiMalati": 1, "NumFocolai": 1 }, "geometry": { "type": "Point", "coordinates": [ 12.185483364000049, 45.413035453000077 ] } },
{ "type": "Feature", "properties": { "CodIstat": 23055, "DataSospetto": "2020\/07\/30 00:00:00", "Categoria": "INSETTI", "Regione": "VENETO", "Prov": "VR", "Comune": "OPPEANO", "NumCapiMalati": 6, "NumFocolai": 1 }, "geometry": { "type": "Point", "coordinates": [ 11.113315647000036, 45.310311312000067 ] } },
{ "type": "Feature", "properties": { "CodIstat": 29001, "DataSospetto": "2020\/08\/18 00:00:00", "Categoria": "INSETTI", "Regione": "VENETO", "Prov": "RO", "Comune": "ADRIA", "NumCapiMalati": 1, "NumFocolai": 1 }, "geometry": { "type": "Point", "coordinates": [ 12.045107565000023, 45.056903854000041 ] } },
{ "type": "Feature", "properties": { "CodIstat": 17002, "DataSospetto": "2020\/09\/25 00:00:00", "Categoria": "UCCELLI BERSAGLIO", "Regione": "LOMBARDIA", "Prov": "BS", "Comune": "ADRO", "NumCapiMalati": 4, "NumFocolai": 1 }, "geometry": { "type": "Point", "coordinates": [ 9.966187148000074, 45.619708223000032 ] } },
{ "type": "Feature", "properties": { "CodIstat": 17002, "DataSospetto": "2020\/10\/05 00:00:00", "Categoria": "UCCELLI SELVATICI", "Regione": "LOMBARDIA", "Prov": "BS", "Comune": "ADRO", "NumCapiMalati": 1, "NumFocolai": 1 }, "geometry": { "type": "Point", "coordinates": [ 9.966187148000074, 45.619708223000032 ] } },
{ "type": "Feature", "properties": { "CodIstat": 15026, "DataSospetto": "2020\/08\/26 00:00:00", "Categoria": "UCCELLI BERSAGLIO", "Regione": "LOMBARDIA", "Prov": "MI", "Comune": "BOFFALORA SOPRA TICINO", "NumCapiMalati": 1, "NumFocolai": 1 }, "geometry": { "type": "Point", "coordinates": [ 8.828709744000037, 45.459660636000081 ] } },
{ "type": "Feature", "properties": { "CodIstat": 98004, "DataSospetto": "2020\/07\/24 00:00:00", "Categoria": "INSETTI", "Regione": "LOMBARDIA", "Prov": "LO", "Comune": "BORGHETTO LODIGIANO", "NumCapiMalati": 1, "NumFocolai": 1 }, "geometry": { "type": "Point", "coordinates": [ 9.498786557000074, 45.212124204000077 ] } },
{ "type": "Feature", "properties": { "CodIstat": 2015, "DataSospetto": "2020\/08\/19 00:00:00", "Categoria": "INSETTI", "Regione": "PIEMONTE", "Prov": "VC", "Comune": "BORGO D'ALE", "NumCapiMalati": 1, "NumFocolai": 1 }, "geometry": { "type": "Point", "coordinates": [ 8.05298963000007, 45.350239487000067 ] } },
{ "type": "Feature", "properties": { "CodIstat": 38003, "DataSospetto": "2020\/08\/21 00:00:00", "Categoria": "UCCELLI SELVATICI", "Regione": "EMILIA ROMAGNA", "Prov": "FE", "Comune": "BONDENO", "NumCapiMalati": 1, "NumFocolai": 1 }, "geometry": { "type": "Point", "coordinates": [ 11.373549815000047, 44.903090030000044 ] } },
{ "type": "Feature", "properties": { "CodIstat": 2017, "DataSospetto": "2020\/10\/25 00:00:00", "Categoria": "UCCELLI BERSAGLIO", "Regione": "PIEMONTE", "Prov": "VC", "Comune": "BORGO VERCELLI", "NumCapiMalati": 1, "NumFocolai": 1 }, "geometry": { "type": "Point", "coordinates": [ 8.465843600000028, 45.360243285000081 ] } },
{ "type": "Feature", "properties": { "CodIstat": 37006, "DataSospetto": "2020\/09\/11 00:00:00", "Categoria": "UCCELLI SELVATICI", "Regione": "EMILIA ROMAGNA", "Prov": "BO", "Comune": "BOLOGNA", "NumCapiMalati": 2, "NumFocolai": 1 }, "geometry": { "type": "Point", "coordinates": [ 11.333126250000021, 44.49809742900004 ] } },
{ "type": "Feature", "properties": { "CodIstat": 34015, "DataSospetto": "2020\/08\/04 00:00:00", "Categoria": "UCCELLI BERSAGLIO", "Regione": "EMILIA ROMAGNA", "Prov": "PR", "Comune": "FONTANELLATO", "NumCapiMalati": 1, "NumFocolai": 1 }, "geometry": { "type": "Point", "coordinates": [ 10.164201040000023, 44.880885248000027 ] } },
{ "type": "Feature", "properties": { "CodIstat": 3049, "DataSospetto": "2020\/07\/30 00:00:00", "Categoria": "INSETTI", "Regione": "PIEMONTE", "Prov": "NO", "Comune": "CERANO", "NumCapiMalati": 1, "NumFocolai": 1 }, "geometry": { "type": "Point", "coordinates": [ 8.789999138000042, 45.404421106000029 ] } },
{ "type": "Feature", "properties": { "CodIstat": 15044, "DataSospetto": "2020\/08\/18 00:00:00", "Categoria": "UCCELLI BERSAGLIO", "Regione": "LOMBARDIA", "Prov": "MI", "Comune": "CAMBIAGO", "NumCapiMalati": 2, "NumFocolai": 1 }, "geometry": { "type": "Point", "coordinates": [ 9.422896797000021, 45.571795104000046 ] } },
{ "type": "Feature", "properties": { "CodIstat": 33002, "DataSospetto": "2020\/08\/11 00:00:00", "Categoria": "INSETTI", "Regione": "EMILIA ROMAGNA", "Prov": "PC", "Comune": "ALSENO", "NumCapiMalati": 3, "NumFocolai": 1 }, "geometry": { "type": "Point", "coordinates": [ 9.962484394000057, 44.887353463000068 ] } },
{ "type": "Feature", "properties": { "CodIstat": 37008, "DataSospetto": "2020\/09\/03 00:00:00", "Categoria": "INSETTI", "Regione": "EMILIA ROMAGNA", "Prov": "BO", "Comune": "BUDRIO", "NumCapiMalati": 1, "NumFocolai": 1 }, "geometry": { "type": "Point", "coordinates": [ 11.54604484400005, 44.562643367000078 ] } },
{ "type": "Feature", "properties": { "CodIstat": 33014, "DataSospetto": "2020\/07\/28 00:00:00", "Categoria": "INSETTI", "Regione": "EMILIA ROMAGNA", "Prov": "PC", "Comune": "CASTELVETRO PIACENTINO", "NumCapiMalati": 1, "NumFocolai": 1 }, "geometry": { "type": "Point", "coordinates": [ 9.991470188000051, 45.088230857000042 ] } },
{ "type": "Feature", "properties": { "CodIstat": 33014, "DataSospetto": "2020\/07\/29 00:00:00", "Categoria": "UCCELLI BERSAGLIO", "Regione": "EMILIA ROMAGNA", "Prov": "PC", "Comune": "CASTELVETRO PIACENTINO", "NumCapiMalati": 2, "NumFocolai": 1 }, "geometry": { "type": "Point", "coordinates": [ 9.991470188000051, 45.088230857000042 ] } },
{ "type": "Feature", "properties": { "CodIstat": 38001, "DataSospetto": "2020\/08\/05 00:00:00", "Categoria": "UCCELLI BERSAGLIO", "Regione": "EMILIA ROMAGNA", "Prov": "FE", "Comune": "ARGENTA", "NumCapiMalati": 5, "NumFocolai": 1 }, "geometry": { "type": "Point", "coordinates": [ 11.888721223000061, 44.622211224000068 ] } },
{ "type": "Feature", "properties": { "CodIstat": 27011, "DataSospetto": "2020\/10\/15 00:00:00", "Categoria": "UCCELLI BERSAGLIO", "Regione": "VENETO", "Prov": "VE", "Comune": "CONCORDIA SAGITTARIA", "NumCapiMalati": 1, "NumFocolai": 1 }, "geometry": { "type": "Point", "coordinates": [ 12.832071227000029, 45.720496681000043 ] } },
{ "type": "Feature", "properties": { "CodIstat": 27002, "DataSospetto": "2020\/08\/06 00:00:00", "Categoria": "INSETTI", "Regione": "VENETO", "Prov": "VE", "Comune": "CAMPAGNA LUPIA", "NumCapiMalati": 1, "NumFocolai": 1 }, "geometry": { "type": "Point", "coordinates": [ 12.167041347000065, 45.339965644000074 ] } },
{ "type": "Feature", "properties": { "CodIstat": 17046, "DataSospetto": "2020\/08\/05 00:00:00", "Categoria": "UCCELLI SELVATICI", "Regione": "LOMBARDIA", "Prov": "BS", "Comune": "CAZZAGO SAN MARTINO", "NumCapiMalati": 1, "NumFocolai": 1 }, "geometry": { "type": "Point", "coordinates": [ 10.03525333500005, 45.575375602000065 ] } },
{ "type": "Feature", "properties": { "CodIstat": 93017, "DataSospetto": "2020\/09\/03 00:00:00", "Categoria": "INSETTI", "Regione": "FRIULI VENEZIA GIULIA", "Prov": "PN", "Comune": "CORDENONS", "NumCapiMalati": 2, "NumFocolai": 1 }, "geometry": { "type": "Point", "coordinates": [ 12.728377834000071, 46.004828050000071 ] } },
{ "type": "Feature", "properties": { "CodIstat": 35021, "DataSospetto": "2020\/08\/14 00:00:00", "Categoria": "INSETTI", "Regione": "EMILIA ROMAGNA", "Prov": "RE", "Comune": "FABBRICO", "NumCapiMalati": 1, "NumFocolai": 1 }, "geometry": { "type": "Point", "coordinates": [ 10.812774404000038, 44.875873221000063 ] } },
{ "type": "Feature", "properties": { "CodIstat": 33010, "DataSospetto": "2020\/09\/24 00:00:00", "Categoria": "EQUIDI", "Regione": "EMILIA ROMAGNA", "Prov": "PC", "Comune": "CAORSO", "NumCapiMalati": 1, "NumFocolai": 1 }, "geometry": { "type": "Point", "coordinates": [ 9.855391808000036, 45.05358803200005 ] } },
{ "type": "Feature", "properties": { "CodIstat": 93008, "DataSospetto": "2020\/09\/04 00:00:00", "Categoria": "INSETTI", "Regione": "FRIULI VENEZIA GIULIA", "Prov": "PN", "Comune": "BUDOIA", "NumCapiMalati": 1, "NumFocolai": 1 }, "geometry": { "type": "Point", "coordinates": [ 12.51579851300005, 46.063163597000027 ] } },
{ "type": "Feature", "properties": { "CodIstat": 59005, "DataSospetto": "2020\/11\/14 00:00:00", "Categoria": "UCCELLI BERSAGLIO", "Regione": "LAZIO", "Prov": "LT", "Comune": "CISTERNA DI LATINA", "NumCapiMalati": 1, "NumFocolai": 1 }, "geometry": { "type": "Point", "coordinates": [ 12.83733987200003, 41.573361358000056 ] } },
{ "type": "Feature", "properties": { "CodIstat": 17052, "DataSospetto": "2020\/07\/27 00:00:00", "Categoria": "INSETTI", "Regione": "LOMBARDIA", "Prov": "BS", "Comune": "CHIARI", "NumCapiMalati": 1, "NumFocolai": 1 }, "geometry": { "type": "Point", "coordinates": [ 9.917971004000037, 45.533220490000076 ] } },
{ "type": "Feature", "properties": { "CodIstat": 33013, "DataSospetto": "2020\/08\/12 00:00:00", "Categoria": "EQUIDI", "Regione": "EMILIA ROMAGNA", "Prov": "PC", "Comune": "CASTEL SAN GIOVANNI", "NumCapiMalati": 1, "NumFocolai": 1 }, "geometry": { "type": "Point", "coordinates": [ 9.427557903000036, 45.058024206000027 ] } },
{ "type": "Feature", "properties": { "CodIstat": 33013, "DataSospetto": "2020\/08\/20 00:00:00", "Categoria": "UCCELLI BERSAGLIO", "Regione": "EMILIA ROMAGNA", "Prov": "PC", "Comune": "CASTEL SAN GIOVANNI", "NumCapiMalati": 1, "NumFocolai": 1 }, "geometry": { "type": "Point", "coordinates": [ 9.427557903000036, 45.058024206000027 ] } },
{ "type": "Feature", "properties": { "CodIstat": 33007, "DataSospetto": "2020\/07\/28 00:00:00", "Categoria": "INSETTI", "Regione": "EMILIA ROMAGNA", "Prov": "PC", "Comune": "CADEO", "NumCapiMalati": 2, "NumFocolai": 1 }, "geometry": { "type": "Point", "coordinates": [ 9.850563223000051, 44.975591156000064 ] } },
{ "type": "Feature", "properties": { "CodIstat": 15019, "DataSospetto": "2020\/11\/02 00:00:00", "Categoria": "UCCELLI SELVATICI", "Regione": "LOMBARDIA", "Prov": "MI", "Comune": "BERNATE TICINO", "NumCapiMalati": 1, "NumFocolai": 1 }, "geometry": { "type": "Point", "coordinates": [ 8.811761998000065, 45.477383762000045 ] } },
{ "type": "Feature", "properties": { "CodIstat": 1058, "DataSospetto": "2020\/08\/10 00:00:00", "Categoria": "EQUIDI", "Regione": "PIEMONTE", "Prov": "TO", "Comune": "CARIGNANO", "NumCapiMalati": 1, "NumFocolai": 1 }, "geometry": { "type": "Point", "coordinates": [ 7.661302200000023, 44.897090562000074 ] } },
{ "type": "Feature", "properties": { "CodIstat": 38004, "DataSospetto": "2020\/08\/10 00:00:00", "Categoria": "UCCELLI SELVATICI", "Regione": "EMILIA ROMAGNA", "Prov": "FE", "Comune": "CENTO", "NumCapiMalati": 1, "NumFocolai": 1 }, "geometry": { "type": "Point", "coordinates": [ 11.307692799000051, 44.775880762000043 ] } },
{ "type": "Feature", "properties": { "CodIstat": 37003, "DataSospetto": "2020\/07\/23 00:00:00", "Categoria": "INSETTI", "Regione": "EMILIA ROMAGNA", "Prov": "BO", "Comune": "BARICELLA", "NumCapiMalati": 1, "NumFocolai": 1 }, "geometry": { "type": "Point", "coordinates": [ 11.571188390000032, 44.668541643000026 ] } },
{ "type": "Feature", "properties": { "CodIstat": 4010, "DataSospetto": "2020\/09\/01 00:00:00", "Categoria": "UCCELLI SELVATICI", "Regione": "PIEMONTE", "Prov": "CN", "Comune": "BALDISSERO D'ALBA", "NumCapiMalati": 1, "NumFocolai": 1 }, "geometry": { "type": "Point", "coordinates": [ 7.889373325000065, 44.765185649000045 ] } },
{ "type": "Feature", "properties": { "CodIstat": 16058, "DataSospetto": "2020\/09\/02 00:00:00", "Categoria": "UCCELLI SELVATICI", "Regione": "LOMBARDIA", "Prov": "BG", "Comune": "CASAZZA", "NumCapiMalati": 1, "NumFocolai": 1 }, "geometry": { "type": "Point", "coordinates": [ 9.90621174100005, 45.746286603000044 ] } },
{ "type": "Feature", "properties": { "CodIstat": 16059, "DataSospetto": "2020\/07\/28 00:00:00", "Categoria": "UCCELLI BERSAGLIO", "Regione": "LOMBARDIA", "Prov": "BG", "Comune": "CASIRATE D'ADDA", "NumCapiMalati": 1, "NumFocolai": 1 }, "geometry": { "type": "Point", "coordinates": [ 9.55670439000005, 45.498093531000052 ] } },
{ "type": "Feature", "properties": { "CodIstat": 29014, "DataSospetto": "2020\/09\/23 00:00:00", "Categoria": "INSETTI", "Regione": "VENETO", "Prov": "RO", "Comune": "CENESELLI", "NumCapiMalati": 1, "NumFocolai": 1 }, "geometry": { "type": "Point", "coordinates": [ 11.380659784000045, 45.026649533000068 ] } },
{ "type": "Feature", "properties": { "CodIstat": 20026, "DataSospetto": "2020\/07\/10 00:00:00", "Categoria": "UCCELLI BERSAGLIO", "Regione": "LOMBARDIA", "Prov": "MN", "Comune": "GOITO", "NumCapiMalati": 1, "NumFocolai": 1 }, "geometry": { "type": "Point", "coordinates": [ 10.660540382000022, 45.250446520000025 ] } },
{ "type": "Feature", "properties": { "CodIstat": 42010, "DataSospetto": "2020\/10\/21 00:00:00", "Categoria": "AVICOLI", "Regione": "MARCHE", "Prov": "AN", "Comune": "CASTELFIDARDO", "NumCapiMalati": 1, "NumFocolai": 1 }, "geometry": { "type": "Point", "coordinates": [ 13.562944841000046, 43.464404478000063 ] } },
{ "type": "Feature", "properties": { "CodIstat": 15062, "DataSospetto": "2020\/09\/18 00:00:00", "Categoria": "UCCELLI SELVATICI", "Regione": "LOMBARDIA", "Prov": "MI", "Comune": "CASTANO PRIMO", "NumCapiMalati": 1, "NumFocolai": 1 }, "geometry": { "type": "Point", "coordinates": [ 8.766169141000034, 45.550310902000035 ] } },
{ "type": "Feature", "properties": { "CodIstat": 12050, "DataSospetto": "2020\/08\/17 00:00:00", "Categoria": "UCCELLI BERSAGLIO", "Regione": "LOMBARDIA", "Prov": "VA", "Comune": "CISLAGO", "NumCapiMalati": 1, "NumFocolai": 1 }, "geometry": { "type": "Point", "coordinates": [ 8.96360517100004, 45.65317456300005 ] } },
{ "type": "Feature", "properties": { "CodIstat": 17190, "DataSospetto": "2020\/10\/29 00:00:00", "Categoria": "EQUIDI", "Regione": "LOMBARDIA", "Prov": "BS", "Comune": "TRENZANO", "NumCapiMalati": 1, "NumFocolai": 1 }, "geometry": { "type": "Point", "coordinates": [ 10.003145716000063, 45.478712873000063 ] } },
{ "type": "Feature", "properties": { "CodIstat": 93021, "DataSospetto": "2020\/09\/03 00:00:00", "Categoria": "INSETTI", "Regione": "FRIULI VENEZIA GIULIA", "Prov": "PN", "Comune": "FIUME VENETO", "NumCapiMalati": 1, "NumFocolai": 1 }, "geometry": { "type": "Point", "coordinates": [ 12.73728440800005, 45.922791767000035 ] } },
{ "type": "Feature", "properties": { "CodIstat": 33024, "DataSospetto": "2020\/07\/28 00:00:00", "Categoria": "INSETTI", "Regione": "EMILIA ROMAGNA", "Prov": "PC", "Comune": "GRAGNANO TREBBIENSE", "NumCapiMalati": 2, "NumFocolai": 1 }, "geometry": { "type": "Point", "coordinates": [ 9.558389701000067, 45.009873221000078 ] } },
{ "type": "Feature", "properties": { "CodIstat": 4205, "DataSospetto": "2020\/08\/24 00:00:00", "Categoria": "UCCELLI BERSAGLIO", "Regione": "PIEMONTE", "Prov": "CN", "Comune": "SALUZZO", "NumCapiMalati": 3, "NumFocolai": 2 }, "geometry": { "type": "Point", "coordinates": [ 7.186681281000062, 44.583341766000046 ] } },
{ "type": "Feature", "properties": { "CodIstat": 29052, "DataSospetto": "2020\/08\/04 00:00:00", "Categoria": "INSETTI", "Regione": "VENETO", "Prov": "RO", "Comune": "PORTO VIRO", "NumCapiMalati": 1, "NumFocolai": 1 }, "geometry": { "type": "Point", "coordinates": [ 12.304432675000044, 45.014765261000036 ] } },
{ "type": "Feature", "properties": { "CodIstat": 19070, "DataSospetto": "2020\/07\/08 00:00:00", "Categoria": "INSETTI", "Regione": "LOMBARDIA", "Prov": "CR", "Comune": "PESSINA CREMONESE", "NumCapiMalati": 1, "NumFocolai": 1 }, "geometry": { "type": "Point", "coordinates": [ 10.261288498000056, 45.18175117800007 ] } },
{ "type": "Feature", "properties": { "CodIstat": 2158, "DataSospetto": "2020\/10\/19 00:00:00", "Categoria": "UCCELLI BERSAGLIO", "Regione": "PIEMONTE", "Prov": "VC", "Comune": "VERCELLI", "NumCapiMalati": 1, "NumFocolai": 1 }, "geometry": { "type": "Point", "coordinates": [ 8.411032352000063, 45.319691727000077 ] } },
{ "type": "Feature", "properties": { "CodIstat": 18173, "DataSospetto": "2020\/09\/05 00:00:00", "Categoria": "UCCELLI SELVATICI", "Regione": "LOMBARDIA", "Prov": "PV", "Comune": "VELLEZZO BELLINI", "NumCapiMalati": 1, "NumFocolai": 1 }, "geometry": { "type": "Point", "coordinates": [ 9.10351047100005, 45.273505280000052 ] } },
{ "type": "Feature", "properties": { "CodIstat": 18177, "DataSospetto": "2020\/09\/03 00:00:00", "Categoria": "UCCELLI SELVATICI", "Regione": "LOMBARDIA", "Prov": "PV", "Comune": "VIGEVANO", "NumCapiMalati": 1, "NumFocolai": 1 }, "geometry": { "type": "Point", "coordinates": [ 8.868002112000056, 45.307735072000071 ] } },
{ "type": "Feature", "properties": { "CodIstat": 1300, "DataSospetto": "2020\/08\/05 00:00:00", "Categoria": "UCCELLI BERSAGLIO", "Regione": "PIEMONTE", "Prov": "TO", "Comune": "VILLAFRANCA PIEMONTE", "NumCapiMalati": 2, "NumFocolai": 1 }, "geometry": { "type": "Point", "coordinates": [ 7.484858250000059, 44.79560659200007 ] } },
{ "type": "Feature", "properties": { "CodIstat": 35028, "DataSospetto": "2020\/08\/27 00:00:00", "Categoria": "INSETTI", "Regione": "EMILIA ROMAGNA", "Prov": "RE", "Comune": "NOVELLARA", "NumCapiMalati": 1, "NumFocolai": 1 }, "geometry": { "type": "Point", "coordinates": [ 10.708439074000069, 44.845286525000063 ] } },
{ "type": "Feature", "properties": { "CodIstat": 35028, "DataSospetto": "2020\/08\/28 00:00:00", "Categoria": "UCCELLI BERSAGLIO", "Regione": "EMILIA ROMAGNA", "Prov": "RE", "Comune": "NOVELLARA", "NumCapiMalati": 1, "NumFocolai": 1 }, "geometry": { "type": "Point", "coordinates": [ 10.708439074000069, 44.845286525000063 ] } },
{ "type": "Feature", "properties": { "CodIstat": 34030, "DataSospetto": "2020\/07\/07 00:00:00", "Categoria": "INSETTI", "Regione": "EMILIA ROMAGNA", "Prov": "PR", "Comune": "ROCCABIANCA", "NumCapiMalati": 3, "NumFocolai": 1 }, "geometry": { "type": "Point", "coordinates": [ 10.211300705000042, 44.99795286300008 ] } },
{ "type": "Feature", "properties": { "CodIstat": 4204, "DataSospetto": "2020\/08\/17 00:00:00", "Categoria": "UCCELLI BERSAGLIO", "Regione": "PIEMONTE", "Prov": "CN", "Comune": "SALUZZO", "NumCapiMalati": 3, "NumFocolai": 1 }, "geometry": { "type": "Point", "coordinates": [ 7.08229269900005, 44.346371881000039 ] } },
{ "type": "Feature", "properties": { "CodIstat": 98056, "DataSospetto": "2020\/08\/03 00:00:00", "Categoria": "UCCELLI BERSAGLIO", "Regione": "LOMBARDIA", "Prov": "LO", "Comune": "TAVAZZANO CON VILLAVESCO", "NumCapiMalati": 4, "NumFocolai": 1 }, "geometry": { "type": "Point", "coordinates": [ 9.408349182000052, 45.332892444000038 ] } },
{ "type": "Feature", "properties": { "CodIstat": 23085, "DataSospetto": "2020\/09\/14 00:00:00", "Categoria": "UCCELLI BERSAGLIO", "Regione": "VENETO", "Prov": "VR", "Comune": "TERRAZZO", "NumCapiMalati": 1, "NumFocolai": 1 }, "geometry": { "type": "Point", "coordinates": [ 11.392621156000075, 45.163973276000036 ] } },
{ "type": "Feature", "properties": { "CodIstat": 1214, "DataSospetto": "2020\/09\/11 00:00:00", "Categoria": "UCCELLI BERSAGLIO", "Regione": "PIEMONTE", "Prov": "TO", "Comune": "RIVALTA DI TORINO", "NumCapiMalati": 2, "NumFocolai": 1 }, "geometry": { "type": "Point", "coordinates": [ 7.520042611000065, 45.022481944000049 ] } },
{ "type": "Feature", "properties": { "CodIstat": 35037, "DataSospetto": "2020\/07\/30 00:00:00", "Categoria": "INSETTI", "Regione": "EMILIA ROMAGNA", "Prov": "RE", "Comune": "SAN MARTINO IN RIO", "NumCapiMalati": 2, "NumFocolai": 1 }, "geometry": { "type": "Point", "coordinates": [ 10.78331909700006, 44.715385605000051 ] } },
{ "type": "Feature", "properties": { "CodIstat": 34033, "DataSospetto": "2020\/07\/27 00:00:00", "Categoria": "UCCELLI BERSAGLIO", "Regione": "EMILIA ROMAGNA", "Prov": "PR", "Comune": "SAN SECONDO PARMENSE", "NumCapiMalati": 2, "NumFocolai": 1 }, "geometry": { "type": "Point", "coordinates": [ 10.215707184000053, 44.927278341000033 ] } },
{ "type": "Feature", "properties": { "CodIstat": 35034, "DataSospetto": "2020\/07\/24 00:00:00", "Categoria": "UCCELLI BERSAGLIO", "Regione": "EMILIA ROMAGNA", "Prov": "RE", "Comune": "RIO SALICETO", "NumCapiMalati": 1, "NumFocolai": 1 }, "geometry": { "type": "Point", "coordinates": [ 10.803809826000077, 44.827357436000057 ] } },
{ "type": "Feature", "properties": { "CodIstat": 108041, "DataSospetto": "2020\/08\/17 00:00:00", "Categoria": "UCCELLI BERSAGLIO", "Regione": "LOMBARDIA", "Prov": "MB", "Comune": "SOVICO", "NumCapiMalati": 1, "NumFocolai": 1 }, "geometry": { "type": "Point", "coordinates": [ 9.259126833000039, 45.646057919000043 ] } },
{ "type": "Feature", "properties": { "CodIstat": 16219, "DataSospetto": "2020\/09\/02 00:00:00", "Categoria": "UCCELLI SELVATICI", "Regione": "LOMBARDIA", "Prov": "BG", "Comune": "TREVIGLIO", "NumCapiMalati": 1, "NumFocolai": 1 }, "geometry": { "type": "Point", "coordinates": [ 9.594333138000025, 45.530591446000074 ] } },
{ "type": "Feature", "properties": { "CodIstat": 16053, "DataSospetto": "2020\/09\/02 00:00:00", "Categoria": "UCCELLI SELVATICI", "Regione": "LOMBARDIA", "Prov": "BG", "Comune": "CARAVAGGIO", "NumCapiMalati": 1, "NumFocolai": 1 }, "geometry": { "type": "Point", "coordinates": [ 9.653390494000064, 45.492395642000076 ] } },
{ "type": "Feature", "properties": { "CodIstat": 23020, "DataSospetto": "2020\/09\/14 00:00:00", "Categoria": "UCCELLI BERSAGLIO", "Regione": "VENETO", "Prov": "VR", "Comune": "CASTAGNARO", "NumCapiMalati": 1, "NumFocolai": 1 }, "geometry": { "type": "Point", "coordinates": [ 11.403120127000022, 45.089649566000048 ] } },
{ "type": "Feature", "properties": { "CodIstat": 90023, "DataSospetto": "2020\/09\/14 00:00:00", "Categoria": "UCCELLI BERSAGLIO", "Regione": "SARDEGNA", "Prov": "SS", "Comune": "CASTELSARDO", "NumCapiMalati": 1, "NumFocolai": 1 }, "geometry": { "type": "Point", "coordinates": [ 8.718914923000057, 40.89295377600007 ] } },
{ "type": "Feature", "properties": { "CodIstat": 30015, "DataSospetto": "2020\/09\/26 00:00:00", "Categoria": "EQUIDI", "Regione": "FRIULI VENEZIA GIULIA", "Prov": "UD", "Comune": "CAMINO AL TAGLIAMENTO", "NumCapiMalati": 1, "NumFocolai": 1 }, "geometry": { "type": "Point", "coordinates": [ 12.938826, 45.924260952000054 ] } },
{ "type": "Feature", "properties": { "CodIstat": 19036, "DataSospetto": "2020\/07\/08 00:00:00", "Categoria": "INSETTI", "Regione": "LOMBARDIA", "Prov": "CR", "Comune": "CREMONA", "NumCapiMalati": 1, "NumFocolai": 1 }, "geometry": { "type": "Point", "coordinates": [ 10.029541707000021, 45.140906245000053 ] } },
{ "type": "Feature", "properties": { "CodIstat": 19036, "DataSospetto": "2020\/08\/25 00:00:00", "Categoria": "EQUIDI", "Regione": "LOMBARDIA", "Prov": "CR", "Comune": "CREMONA", "NumCapiMalati": 1, "NumFocolai": 1 }, "geometry": { "type": "Point", "coordinates": [ 10.029541707000021, 45.140906245000053 ] } },
{ "type": "Feature", "properties": { "CodIstat": 27003, "DataSospetto": "2020\/08\/16 00:00:00", "Categoria": "UCCELLI SELVATICI", "Regione": "VENETO", "Prov": "VE", "Comune": "CAMPOLONGO MAGGIORE", "NumCapiMalati": 1, "NumFocolai": 1 }, "geometry": { "type": "Point", "coordinates": [ 12.057870836000063, 45.336267450000037 ] } },
{ "type": "Feature", "properties": { "CodIstat": 15146, "DataSospetto": "2020\/09\/18 00:00:00", "Categoria": "UCCELLI BERSAGLIO", "Regione": "LOMBARDIA", "Prov": "MI", "Comune": "MILANO", "NumCapiMalati": 1, "NumFocolai": 1 }, "geometry": { "type": "Point", "coordinates": [ 9.172779214000059, 45.468435713000076 ] } },
{ "type": "Feature", "properties": { "CodIstat": 18033, "DataSospetto": "2020\/07\/27 00:00:00", "Categoria": "UCCELLI SELVATICI", "Regione": "LOMBARDIA", "Prov": "PV", "Comune": "CASEI GEROLA", "NumCapiMalati": 1, "NumFocolai": 1 }, "geometry": { "type": "Point", "coordinates": [ 8.932574640000041, 45.011877906000052 ] } },
{ "type": "Feature", "properties": { "CodIstat": 16034, "DataSospetto": "2020\/09\/14 00:00:00", "Categoria": "UCCELLI BERSAGLIO", "Regione": "LOMBARDIA", "Prov": "BG", "Comune": "BOTTANUCO", "NumCapiMalati": 1, "NumFocolai": 1 }, "geometry": { "type": "Point", "coordinates": [ 9.513037360000055, 45.639350471000057 ] } },
{ "type": "Feature", "properties": { "CodIstat": 16034, "DataSospetto": "2020\/10\/20 00:00:00", "Categoria": "UCCELLI BERSAGLIO", "Regione": "LOMBARDIA", "Prov": "BG", "Comune": "BOTTANUCO", "NumCapiMalati": 1, "NumFocolai": 1 }, "geometry": { "type": "Point", "coordinates": [ 9.513037360000055, 45.639350471000057 ] } },
{ "type": "Feature", "properties": { "CodIstat": 15014, "DataSospetto": "2020\/09\/22 00:00:00", "Categoria": "UCCELLI BERSAGLIO", "Regione": "LOMBARDIA", "Prov": "MI", "Comune": "BASIANO", "NumCapiMalati": 1, "NumFocolai": 1 }, "geometry": { "type": "Point", "coordinates": [ 9.464166500000033, 45.580829583000025 ] } },
{ "type": "Feature", "properties": { "CodIstat": 15014, "DataSospetto": "2020\/10\/29 00:00:00", "Categoria": "UCCELLI BERSAGLIO", "Regione": "LOMBARDIA", "Prov": "MI", "Comune": "BASIANO", "NumCapiMalati": 1, "NumFocolai": 1 }, "geometry": { "type": "Point", "coordinates": [ 9.464166500000033, 45.580829583000025 ] } },
{ "type": "Feature", "properties": { "CodIstat": 98011, "DataSospetto": "2020\/07\/16 00:00:00", "Categoria": "INSETTI", "Regione": "LOMBARDIA", "Prov": "LO", "Comune": "CASELLE LANDI", "NumCapiMalati": 1, "NumFocolai": 1 }, "geometry": { "type": "Point", "coordinates": [ 9.807957310000063, 45.098261090000051 ] } },
{ "type": "Feature", "properties": { "CodIstat": 35008, "DataSospetto": "2020\/08\/17 00:00:00", "Categoria": "UCCELLI BERSAGLIO", "Regione": "EMILIA ROMAGNA", "Prov": "RE", "Comune": "CADELBOSCO DI SOPRA", "NumCapiMalati": 1, "NumFocolai": 1 }, "geometry": { "type": "Point", "coordinates": [ 10.618654898000045, 44.796130266000034 ] } },
{ "type": "Feature", "properties": { "CodIstat": 16052, "DataSospetto": "2020\/10\/02 00:00:00", "Categoria": "(vuoto)", "Regione": "LOMBARDIA", "Prov": "BG", "Comune": "CAPRINO BERGAMASCO", "NumCapiMalati": 1, "NumFocolai": 1 }, "geometry": { "type": "Point", "coordinates": [ 9.496933734000038, 45.759344275000046 ] } },
{ "type": "Feature", "properties": { "CodIstat": 33008, "DataSospetto": "2020\/08\/11 00:00:00", "Categoria": "INSETTI", "Regione": "EMILIA ROMAGNA", "Prov": "PC", "Comune": "CALENDASCO", "NumCapiMalati": 3, "NumFocolai": 1 }, "geometry": { "type": "Point", "coordinates": [ 9.608141599000021, 45.091250481000031 ] } },
{ "type": "Feature", "properties": { "CodIstat": 27005, "DataSospetto": "2020\/08\/25 00:00:00", "Categoria": "INSETTI", "Regione": "VENETO", "Prov": "VE", "Comune": "CAORLE", "NumCapiMalati": 1, "NumFocolai": 1 }, "geometry": { "type": "Point", "coordinates": [ 12.869871936000038, 45.639714136000066 ] } },
{ "type": "Feature", "properties": { "CodIstat": 35022, "DataSospetto": "2020\/08\/13 00:00:00", "Categoria": "INSETTI", "Regione": "EMILIA ROMAGNA", "Prov": "RE", "Comune": "GATTATICO", "NumCapiMalati": 1, "NumFocolai": 1 }, "geometry": { "type": "Point", "coordinates": [ 10.47140108800005, 44.799928287000057 ] } },
{ "type": "Feature", "properties": { "CodIstat": 37039, "DataSospetto": "2020\/08\/06 00:00:00", "Categoria": "INSETTI", "Regione": "EMILIA ROMAGNA", "Prov": "BO", "Comune": "MOLINELLA", "NumCapiMalati": 1, "NumFocolai": 1 }, "geometry": { "type": "Point", "coordinates": [ 11.685647190000054, 44.608341571000039 ] } },
{ "type": "Feature", "properties": { "CodIstat": 35033, "DataSospetto": "2020\/08\/13 00:00:00", "Categoria": "INSETTI", "Regione": "EMILIA ROMAGNA", "Prov": "RE", "Comune": "REGGIO NELL'EMILIA", "NumCapiMalati": 1, "NumFocolai": 1 }, "geometry": { "type": "Point", "coordinates": [ 10.634512271000062, 44.697433032000049 ] } },
{ "type": "Feature", "properties": { "CodIstat": 35033, "DataSospetto": "2020\/08\/14 00:00:00", "Categoria": "UCCELLI BERSAGLIO", "Regione": "EMILIA ROMAGNA", "Prov": "RE", "Comune": "REGGIO NELL'EMILIA", "NumCapiMalati": 1, "NumFocolai": 1 }, "geometry": { "type": "Point", "coordinates": [ 10.634512271000062, 44.697433032000049 ] } },
{ "type": "Feature", "properties": { "CodIstat": 16126, "DataSospetto": "2020\/09\/02 00:00:00", "Categoria": "UCCELLI BERSAGLIO", "Regione": "LOMBARDIA", "Prov": "BG", "Comune": "LEVATE", "NumCapiMalati": 1, "NumFocolai": 1 }, "geometry": { "type": "Point", "coordinates": [ 9.627553342000056, 45.627078238000081 ] } },
{ "type": "Feature", "properties": { "CodIstat": 15188, "DataSospetto": "2020\/07\/16 00:00:00", "Categoria": "INSETTI", "Regione": "LOMBARDIA", "Prov": "MI", "Comune": "ROSATE", "NumCapiMalati": 1, "NumFocolai": 1 }, "geometry": { "type": "Point", "coordinates": [ 9.018524389000049, 45.351051491000078 ] } },
{ "type": "Feature", "properties": { "CodIstat": 33038, "DataSospetto": "2020\/09\/06 00:00:00", "Categoria": "UCCELLI SELVATICI", "Regione": "EMILIA ROMAGNA", "Prov": "PC", "Comune": "RIVERGARO", "NumCapiMalati": 1, "NumFocolai": 1 }, "geometry": { "type": "Point", "coordinates": [ 9.611708905000057, 44.916467048000072 ] } },
{ "type": "Feature", "properties": { "CodIstat": 16105, "DataSospetto": "2020\/07\/27 00:00:00", "Categoria": "EQUIDI", "Regione": "LOMBARDIA", "Prov": "BG", "Comune": "FORNOVO SAN GIOVANNI", "NumCapiMalati": 1, "NumFocolai": 1 }, "geometry": { "type": "Point", "coordinates": [ 9.690868733000059, 45.494016032000047 ] } },
{ "type": "Feature", "properties": { "CodIstat": 16105, "DataSospetto": "2020\/09\/07 00:00:00", "Categoria": "EQUIDI", "Regione": "LOMBARDIA", "Prov": "BG", "Comune": "FORNOVO SAN GIOVANNI", "NumCapiMalati": 2, "NumFocolai": 2 }, "geometry": { "type": "Point", "coordinates": [ 9.690868733000059, 45.494016032000047 ] } },
{ "type": "Feature", "properties": { "CodIstat": 36012, "DataSospetto": "2020\/08\/18 00:00:00", "Categoria": "INSETTI", "Regione": "EMILIA ROMAGNA", "Prov": "MO", "Comune": "FINALE EMILIA", "NumCapiMalati": 2, "NumFocolai": 1 }, "geometry": { "type": "Point", "coordinates": [ 11.266477194000061, 44.849116109000079 ] } },
{ "type": "Feature", "properties": { "CodIstat": 93027, "DataSospetto": "2020\/09\/03 00:00:00", "Categoria": "INSETTI", "Regione": "FRIULI VENEZIA GIULIA", "Prov": "PN", "Comune": "MONTEREALE VALCELLINA", "NumCapiMalati": 1, "NumFocolai": 1 }, "geometry": { "type": "Point", "coordinates": [ 12.649936264000075, 46.131751714000075 ] } },
{ "type": "Feature", "properties": { "CodIstat": 38008, "DataSospetto": "2020\/07\/31 00:00:00", "Categoria": "UCCELLI BERSAGLIO", "Regione": "EMILIA ROMAGNA", "Prov": "FE", "Comune": "FERRARA", "NumCapiMalati": 6, "NumFocolai": 1 }, "geometry": { "type": "Point", "coordinates": [ 11.649123246000045, 44.822929214000055 ] } },
{ "type": "Feature", "properties": { "CodIstat": 38008, "DataSospetto": "2020\/08\/01 00:00:00", "Categoria": "UCCELLI SELVATICI", "Regione": "EMILIA ROMAGNA", "Prov": "FE", "Comune": "FERRARA", "NumCapiMalati": 4, "NumFocolai": 4 }, "geometry": { "type": "Point", "coordinates": [ 11.649123246000045, 44.822929214000055 ] } },
{ "type": "Feature", "properties": { "CodIstat": 36023, "DataSospetto": "2020\/08\/04 00:00:00", "Categoria": "INSETTI", "Regione": "EMILIA ROMAGNA", "Prov": "MO", "Comune": "MODENA", "NumCapiMalati": 1, "NumFocolai": 1 }, "geometry": { "type": "Point", "coordinates": [ 10.915345621000029, 44.644094874000075 ] } },
{ "type": "Feature", "properties": { "CodIstat": 38017, "DataSospetto": "2020\/09\/17 00:00:00", "Categoria": "INSETTI", "Regione": "EMILIA ROMAGNA", "Prov": "FE", "Comune": "OSTELLATO", "NumCapiMalati": 1, "NumFocolai": 1 }, "geometry": { "type": "Point", "coordinates": [ 11.977784728000074, 44.723705839000047 ] } },
{ "type": "Feature", "properties": { "CodIstat": 15122, "DataSospetto": "2020\/07\/17 00:00:00", "Categoria": "UCCELLI BERSAGLIO", "Regione": "LOMBARDIA", "Prov": "MI", "Comune": "LISCATE", "NumCapiMalati": 1, "NumFocolai": 1 }, "geometry": { "type": "Point", "coordinates": [ 9.411023912000076, 45.474954510000032 ] } },
{ "type": "Feature", "properties": { "CodIstat": 15122, "DataSospetto": "2020\/09\/22 00:00:00", "Categoria": "UCCELLI BERSAGLIO", "Regione": "LOMBARDIA", "Prov": "MI", "Comune": "LISCATE", "NumCapiMalati": 1, "NumFocolai": 1 }, "geometry": { "type": "Point", "coordinates": [ 9.411023912000076, 45.474954510000032 ] } },
{ "type": "Feature", "properties": { "CodIstat": 90075, "DataSospetto": "2020\/08\/05 00:00:00", "Categoria": "EQUIDI", "Regione": "SARDEGNA", "Prov": "SS", "Comune": "TULA", "NumCapiMalati": 1, "NumFocolai": 1 }, "geometry": { "type": "Point", "coordinates": [ 8.98967900100007, 40.743491825000035 ] } },
{ "type": "Feature", "properties": { "CodIstat": 33032, "DataSospetto": "2020\/08\/11 00:00:00", "Categoria": "INSETTI", "Regione": "EMILIA ROMAGNA", "Prov": "PC", "Comune": "PIACENZA", "NumCapiMalati": 2, "NumFocolai": 1 }, "geometry": { "type": "Point", "coordinates": [ 9.717737473000057, 45.041430220000052 ] } },
{ "type": "Feature", "properties": { "CodIstat": 33032, "DataSospetto": "2020\/08\/12 00:00:00", "Categoria": "UCCELLI BERSAGLIO", "Regione": "EMILIA ROMAGNA", "Prov": "PC", "Comune": "PIACENZA", "NumCapiMalati": 1, "NumFocolai": 1 }, "geometry": { "type": "Point", "coordinates": [ 9.717737473000057, 45.041430220000052 ] } },
{ "type": "Feature", "properties": { "CodIstat": 33032, "DataSospetto": "2020\/08\/13 00:00:00", "Categoria": "UCCELLI SELVATICI", "Regione": "EMILIA ROMAGNA", "Prov": "PC", "Comune": "PIACENZA", "NumCapiMalati": 1, "NumFocolai": 1 }, "geometry": { "type": "Point", "coordinates": [ 9.717737473000057, 45.041430220000052 ] } },
{ "type": "Feature", "properties": { "CodIstat": 38019, "DataSospetto": "2020\/08\/12 00:00:00", "Categoria": "UCCELLI BERSAGLIO", "Regione": "EMILIA ROMAGNA", "Prov": "FE", "Comune": "PORTOMAGGIORE", "NumCapiMalati": 1, "NumFocolai": 1 }, "geometry": { "type": "Point", "coordinates": [ 11.838771028000053, 44.69824161300005 ] } },
{ "type": "Feature", "properties": { "CodIstat": 15248, "DataSospetto": "2020\/08\/17 00:00:00", "Categoria": "UCCELLI BERSAGLIO", "Regione": "LOMBARDIA", "Prov": "MI", "Comune": "VILLA CORTESE", "NumCapiMalati": 1, "NumFocolai": 1 }, "geometry": { "type": "Point", "coordinates": [ 8.886184680000042, 45.566820345000053 ] } },
{ "type": "Feature", "properties": { "CodIstat": 19087, "DataSospetto": "2020\/10\/15 00:00:00", "Categoria": "UCCELLI BERSAGLIO", "Regione": "LOMBARDIA", "Prov": "CR", "Comune": "SALVIROLA", "NumCapiMalati": 1, "NumFocolai": 1 }, "geometry": { "type": "Point", "coordinates": [ 9.790696062000052, 45.356984733000047 ] } },
{ "type": "Feature", "properties": { "CodIstat": 6149, "DataSospetto": "2020\/07\/20 00:00:00", "Categoria": "UCCELLI BERSAGLIO", "Regione": "PIEMONTE", "Prov": "AL", "Comune": "ROSIGNANO MONFERRATO", "NumCapiMalati": 1, "NumFocolai": 1 }, "geometry": { "type": "Point", "coordinates": [ 8.415718733000062, 45.072898864000081 ] } },
{ "type": "Feature", "properties": { "CodIstat": 18112, "DataSospetto": "2020\/10\/07 00:00:00", "Categoria": "UCCELLI BERSAGLIO", "Regione": "LOMBARDIA", "Prov": "PV", "Comune": "PIEVE ALBIGNOLA", "NumCapiMalati": 1, "NumFocolai": 1 }, "geometry": { "type": "Point", "coordinates": [ 8.965512574000059, 45.104183012000078 ] } },
{ "type": "Feature", "properties": { "CodIstat": 19075, "DataSospetto": "2020\/08\/10 00:00:00", "Categoria": "EQUIDI", "Regione": "LOMBARDIA", "Prov": "CR", "Comune": "PIEVE SAN GIACOMO", "NumCapiMalati": 1, "NumFocolai": 1 }, "geometry": { "type": "Point", "coordinates": [ 10.191937791000043, 45.127055447000032 ] } },
{ "type": "Feature", "properties": { "CodIstat": 17163, "DataSospetto": "2020\/09\/09 00:00:00", "Categoria": "EQUIDI", "Regione": "LOMBARDIA", "Prov": "BS", "Comune": "RODENGO-SAIANO", "NumCapiMalati": 1, "NumFocolai": 1 }, "geometry": { "type": "Point", "coordinates": [ 10.110858772000029, 45.593201298000054 ] } },
{ "type": "Feature", "properties": { "CodIstat": 1198, "DataSospetto": "2020\/08\/17 00:00:00", "Categoria": "UCCELLI BERSAGLIO", "Regione": "PIEMONTE", "Prov": "TO", "Comune": "POIRINO", "NumCapiMalati": 2, "NumFocolai": 1 }, "geometry": { "type": "Point", "coordinates": [ 7.17848629100007, 44.950181814000075 ] } },
{ "type": "Feature", "properties": { "CodIstat": 90087, "DataSospetto": "2020\/08\/06 00:00:00", "Categoria": "UCCELLI BERSAGLIO", "Regione": "SARDEGNA", "Prov": "SS", "Comune": "SANTA MARIA COGHINAS", "NumCapiMalati": 2, "NumFocolai": 2 }, "geometry": { "type": "Point", "coordinates": [ 8.869535433000067, 40.893398709000053 ] } },
{ "type": "Feature", "properties": { "CodIstat": 103072, "DataSospetto": "2020\/08\/24 00:00:00", "Categoria": "UCCELLI BERSAGLIO", "Regione": "PIEMONTE", "Prov": "VB", "Comune": "VERBANIA", "NumCapiMalati": 1, "NumFocolai": 1 }, "geometry": { "type": "Point", "coordinates": [ 8.538532884000062, 45.934410154000034 ] } },
{ "type": "Feature", "properties": { "CodIstat": 103072, "DataSospetto": "2020\/08\/25 00:00:00", "Categoria": "UCCELLI BERSAGLIO", "Regione": "PIEMONTE", "Prov": "VB", "Comune": "VERBANIA", "NumCapiMalati": 1, "NumFocolai": 1 }, "geometry": { "type": "Point", "coordinates": [ 8.538532884000062, 45.934410154000034 ] } },
{ "type": "Feature", "properties": { "CodIstat": 15229, "DataSospetto": "2020\/07\/16 00:00:00", "Categoria": "INSETTI", "Regione": "LOMBARDIA", "Prov": "MI", "Comune": "VANZAGO", "NumCapiMalati": 1, "NumFocolai": 1 }, "geometry": { "type": "Point", "coordinates": [ 8.98464357000006, 45.519875371000069 ] } },
{ "type": "Feature", "properties": { "CodIstat": 20054, "DataSospetto": "2020\/09\/09 00:00:00", "Categoria": "UCCELLI BERSAGLIO", "Regione": "LOMBARDIA", "Prov": "MN", "Comune": "SABBIONETA", "NumCapiMalati": 2, "NumFocolai": 1 }, "geometry": { "type": "Point", "coordinates": [ 10.515919587000042, 45.007386548000056 ] } },
{ "type": "Feature", "properties": { "CodIstat": 28079, "DataSospetto": "2020\/08\/04 00:00:00", "Categoria": "UCCELLI SELVATICI", "Regione": "VENETO", "Prov": "PD", "Comune": "SAN PIETRO VIMINARIO", "NumCapiMalati": 1, "NumFocolai": 1 }, "geometry": { "type": "Point", "coordinates": [ 11.825040683000054, 45.243066717000033 ] } },
{ "type": "Feature", "properties": { "CodIstat": 34032, "DataSospetto": "2020\/08\/29 00:00:00", "Categoria": "INSETTI", "Regione": "EMILIA ROMAGNA", "Prov": "PR", "Comune": "SALSOMAGGIORE TERME", "NumCapiMalati": 1, "NumFocolai": 1 }, "geometry": { "type": "Point", "coordinates": [ 9.981244348000075, 44.804000279000036 ] } },
{ "type": "Feature", "properties": { "CodIstat": 34032, "DataSospetto": "2020\/10\/30 00:00:00", "Categoria": "UCCELLI BERSAGLIO", "Regione": "EMILIA ROMAGNA", "Prov": "PR", "Comune": "SALSOMAGGIORE TERME", "NumCapiMalati": 1, "NumFocolai": 1 }, "geometry": { "type": "Point", "coordinates": [ 9.981244348000075, 44.804000279000036 ] } },
{ "type": "Feature", "properties": { "CodIstat": 24097, "DataSospetto": "2020\/03\/10 00:00:00", "Categoria": "UCCELLI SELVATICI", "Regione": "VENETO", "Prov": "VI", "Comune": "SARCEDO", "NumCapiMalati": 1, "NumFocolai": 1 }, "geometry": { "type": "Point", "coordinates": [ 11.522777694000069, 45.70100412100004 ] } },
{ "type": "Feature", "properties": { "CodIstat": 34036, "DataSospetto": "2020\/08\/21 00:00:00", "Categoria": "UCCELLI BERSAGLIO", "Regione": "EMILIA ROMAGNA", "Prov": "PR", "Comune": "SORAGNA", "NumCapiMalati": 1, "NumFocolai": 1 }, "geometry": { "type": "Point", "coordinates": [ 10.138406463000024, 44.937687363000066 ] } },
{ "type": "Feature", "properties": { "CodIstat": 4206, "DataSospetto": "2020\/09\/28 00:00:00", "Categoria": "UCCELLI BERSAGLIO", "Regione": "PIEMONTE", "Prov": "CN", "Comune": "SALUZZO", "NumCapiMalati": 3, "NumFocolai": 1 }, "geometry": { "type": "Point", "coordinates": [ 8.059298299000034, 44.490523216000042 ] } },
{ "type": "Feature", "properties": { "CodIstat": 15237, "DataSospetto": "2020\/08\/10 00:00:00", "Categoria": "UCCELLI SELVATICI", "Regione": "LOMBARDIA", "Prov": "MI", "Comune": "VIGNATE", "NumCapiMalati": 1, "NumFocolai": 1 }, "geometry": { "type": "Point", "coordinates": [ 9.379069467000022, 45.498375810000027 ] } },
{ "type": "Feature", "properties": { "CodIstat": 15237, "DataSospetto": "2020\/08\/18 00:00:00", "Categoria": "UCCELLI BERSAGLIO", "Regione": "LOMBARDIA", "Prov": "MI", "Comune": "VIGNATE", "NumCapiMalati": 3, "NumFocolai": 1 }, "geometry": { "type": "Point", "coordinates": [ 9.379069467000022, 45.498375810000027 ] } },
{ "type": "Feature", "properties": { "CodIstat": 15219, "DataSospetto": "2020\/10\/29 00:00:00", "Categoria": "UCCELLI BERSAGLIO", "Regione": "LOMBARDIA", "Prov": "MI", "Comune": "TREZZANO ROSA", "NumCapiMalati": 1, "NumFocolai": 1 }, "geometry": { "type": "Point", "coordinates": [ 9.482038331000069, 45.584090270000047 ] } },
{ "type": "Feature", "properties": { "CodIstat": 33042, "DataSospetto": "2020\/07\/28 00:00:00", "Categoria": "INSETTI", "Regione": "EMILIA ROMAGNA", "Prov": "PC", "Comune": "SARMATO", "NumCapiMalati": 3, "NumFocolai": 1 }, "geometry": { "type": "Point", "coordinates": [ 9.498257229000046, 45.065566316000059 ] } },
{ "type": "Feature", "properties": { "CodIstat": 96080, "DataSospetto": "2020\/09\/01 00:00:00", "Categoria": "UCCELLI BERSAGLIO", "Regione": "PIEMONTE", "Prov": "BI", "Comune": "VIVERONE", "NumCapiMalati": 1, "NumFocolai": 1 }, "geometry": { "type": "Point", "coordinates": [ 8.044029, 45.420563122000033 ] } },
{ "type": "Feature", "properties": { "CodIstat": 37053, "DataSospetto": "2020\/07\/31 00:00:00", "Categoria": "INSETTI", "Regione": "EMILIA ROMAGNA", "Prov": "BO", "Comune": "SAN GIOVANNI IN PERSICETO", "NumCapiMalati": 3, "NumFocolai": 1 }, "geometry": { "type": "Point", "coordinates": [ 11.203030177000073, 44.66028536400006 ] } },
{ "type": "Feature", "properties": { "CodIstat": 37053, "DataSospetto": "2020\/08\/01 00:00:00", "Categoria": "UCCELLI BERSAGLIO", "Regione": "EMILIA ROMAGNA", "Prov": "BO", "Comune": "SAN GIOVANNI IN PERSICETO", "NumCapiMalati": 1, "NumFocolai": 1 }, "geometry": { "type": "Point", "coordinates": [ 11.203030177000073, 44.66028536400006 ] } },
{ "type": "Feature", "properties": { "CodIstat": 28086, "DataSospetto": "2020\/07\/22 00:00:00", "Categoria": "UCCELLI SELVATICI", "Regione": "VENETO", "Prov": "PD", "Comune": "SELVAZZANO DENTRO", "NumCapiMalati": 1, "NumFocolai": 1 }, "geometry": { "type": "Point", "coordinates": [ 11.789607244000024, 45.399493106000079 ] } },
{ "type": "Feature", "properties": { "CodIstat": 34049, "DataSospetto": "2020\/08\/17 00:00:00", "Categoria": "UCCELLI BERSAGLIO", "Regione": "EMILIA ROMAGNA", "Prov": "PR", "Comune": "SISSA TRECASALI", "NumCapiMalati": 1, "NumFocolai": 1 }, "geometry": { "type": "Point", "coordinates": [ 10.279736058000026, 44.948295599000062 ] } },
{ "type": "Feature", "properties": { "CodIstat": 4203, "DataSospetto": "2020\/07\/27 00:00:00", "Categoria": "UCCELLI BERSAGLIO", "Regione": "PIEMONTE", "Prov": "CN", "Comune": "SALUZZO", "NumCapiMalati": 6, "NumFocolai": 1 }, "geometry": { "type": "Point", "coordinates": [ 7.489948662000074, 44.670128868000063 ] } },
{ "type": "Feature", "properties": { "CodIstat": 61094, "DataSospetto": "2020\/10\/28 00:00:00", "Categoria": "UCCELLI SELVATICI", "Regione": "CAMPANIA", "Prov": "CE", "Comune": "TRENTOLA-DUCENTA", "NumCapiMalati": 1, "NumFocolai": 1 }, "geometry": { "type": "Point", "coordinates": [ 14.16364109500006, 40.975877203000039 ] } },
{ "type": "Feature", "properties": { "CodIstat": 18182, "DataSospetto": "2020\/08\/04 00:00:00", "Categoria": "UCCELLI SELVATICI", "Regione": "LOMBARDIA", "Prov": "PV", "Comune": "VOGHERA", "NumCapiMalati": 1, "NumFocolai": 1 }, "geometry": { "type": "Point", "coordinates": [ 9.013393425000061, 45.008414475000052 ] } },
{ "type": "Feature", "properties": { "CodIstat": 20071, "DataSospetto": "2020\/09\/01 00:00:00", "Categoria": "EQUIDI", "Regione": "LOMBARDIA", "Prov": "MN", "Comune": "BORGO VIRGILIO", "NumCapiMalati": 1, "NumFocolai": 1 }, "geometry": { "type": "Point", "coordinates": [ 10.786025168000037, 45.081680524000035 ] } },
{ "type": "Feature", "properties": { "CodIstat": 38029, "DataSospetto": "2020\/09\/03 00:00:00", "Categoria": "INSETTI", "Regione": "EMILIA ROMAGNA", "Prov": "FE", "Comune": "RIVA DEL PO", "NumCapiMalati": 1, "NumFocolai": 1 }, "geometry": { "type": "Point", "coordinates": [ 11.916705056000069, 44.954021413000078 ] } },
{ "type": "Feature", "properties": { "CodIstat": 38030, "DataSospetto": "2020\/08\/03 00:00:00", "Categoria": "UCCELLI BERSAGLIO", "Regione": "EMILIA ROMAGNA", "Prov": "FE", "Comune": "TRESIGNANA", "NumCapiMalati": 2, "NumFocolai": 1 }, "geometry": { "type": "Point", "coordinates": [ 11.883006475000059, 44.825639757000033 ] } },
{ "type": "Feature", "properties": { "CodIstat": 34051, "DataSospetto": "2020\/07\/21 00:00:00", "Categoria": "INSETTI", "Regione": "EMILIA ROMAGNA", "Prov": "PR", "Comune": "SORBOLO MEZZANI", "NumCapiMalati": 3, "NumFocolai": 1 }, "geometry": { "type": "Point", "coordinates": [ 10.438805566000042, 44.887226027000054 ] } },
{ "type": "Feature", "properties": { "CodIstat": 34050, "DataSospetto": "2020\/08\/04 00:00:00", "Categoria": "INSETTI", "Regione": "EMILIA ROMAGNA", "Prov": "PR", "Comune": "POLESINE ZIBELLO", "NumCapiMalati": 1, "NumFocolai": 1 }, "geometry": { "type": "Point", "coordinates": [ 10.117759980000073, 45.012790138000071 ] } },
{ "type": "Feature", "properties": { "CodIstat": 1199, "DataSospetto": "2020\/10\/12 00:00:00", "Categoria": "UCCELLI BERSAGLIO", "Regione": "PIEMONTE", "Prov": "TO", "Comune": "POIRINO", "NumCapiMalati": 1, "NumFocolai": 1 }, "geometry": { "type": "Point", "coordinates": [ 7.583711222000034, 45.433329365000077 ] } },
{ "type": "Feature", "properties": { "CodIstat": 14075, "DataSospetto": "2020\/08\/04 00:00:00", "Categoria": "UCCELLI BERSAGLIO", "Regione": "LOMBARDIA", "Prov": "SO", "Comune": "VERCEIA", "NumCapiMalati": 1, "NumFocolai": 1 }, "geometry": { "type": "Point", "coordinates": [ 9.467099739000048, 46.197097631000076 ] } }
]
}
