{
"type": "FeatureCollection",
"name": "distr_usu_centroidi",
"crs": { "type": "name", "properties": { "name": "urn:ogc:def:crs:OGC:1.3:CRS84" } },
"features": [
{ "type": "Feature", "properties": { "CodIstat": 109033, "AnnoBollettino": 2025, "Regione": "MARCHE ", "Prov": "FM", "Comune": "PORTO SAN GIORGIO", "INSETTI": 0, "UCCELLI": 1, "EQUIDI": 0, "AVICOLI": 0, "UOMO": 0 }, "geometry": { "type": "Point", "coordinates": [ 13.786589241381899, 43.177900810045401 ] } },
{ "type": "Feature", "properties": { "CodIstat": 15229, "AnnoBollettino": 2025, "Regione": "LOMBARDIA", "Prov": "MI", "Comune": "VANZAGO", "INSETTI": 0, "UCCELLI": 10, "EQUIDI": 0, "AVICOLI": 0, "UOMO": 0 }, "geometry": { "type": "Point", "coordinates": [ 8.98464197145285, 45.519875144234398 ] } },
{ "type": "Feature", "properties": { "CodIstat": 15179, "AnnoBollettino": 2025, "Regione": "LOMBARDIA", "Prov": "MI", "Comune": "PREGNANA MILANESE", "INSETTI": 0, "UCCELLI": 1, "EQUIDI": 0, "AVICOLI": 0, "UOMO": 0 }, "geometry": { "type": "Point", "coordinates": [ 9.00592250991455, 45.515692363544602 ] } },
{ "type": "Feature", "properties": { "CodIstat": 23001, "AnnoBollettino": 2025, "Regione": "VENETO", "Prov": "VR", "Comune": "AFFI", "INSETTI": 0, "UCCELLI": 1, "EQUIDI": 0, "AVICOLI": 0, "UOMO": 0 }, "geometry": { "type": "Point", "coordinates": [ 10.7765961231511, 45.556819024654004 ] } },
{ "type": "Feature", "properties": { "CodIstat": 15204, "AnnoBollettino": 2025, "Regione": "LOMBARDIA", "Prov": "MI", "Comune": "SEDRIANO", "INSETTI": 0, "UCCELLI": 1, "EQUIDI": 0, "AVICOLI": 0, "UOMO": 0 }, "geometry": { "type": "Point", "coordinates": [ 8.9746518186366, 45.487373514042005 ] } },
{ "type": "Feature", "properties": { "CodIstat": 12124, "AnnoBollettino": 2025, "Regione": "LOMBARDIA", "Prov": "VA", "Comune": "SUMIRAGO", "INSETTI": 0, "UCCELLI": 1, "EQUIDI": 0, "AVICOLI": 0, "UOMO": 0 }, "geometry": { "type": "Point", "coordinates": [ 8.781666782374909, 45.737061697662 ] } },
{ "type": "Feature", "properties": { "CodIstat": 43031, "AnnoBollettino": 2025, "Regione": "MARCHE ", "Prov": "MC", "Comune": "MONTE SAN GIUSTO", "INSETTI": 1, "UCCELLI": 0, "EQUIDI": 0, "AVICOLI": 0, "UOMO": 0 }, "geometry": { "type": "Point", "coordinates": [ 13.581559110892698, 43.237333026956499 ] } },
{ "type": "Feature", "properties": { "CodIstat": 37045, "AnnoBollettino": 2025, "Regione": "EMILIA ROMAGNA", "Prov": "BO", "Comune": "MORDANO", "INSETTI": 2, "UCCELLI": 0, "EQUIDI": 0, "AVICOLI": 0, "UOMO": 0 }, "geometry": { "type": "Point", "coordinates": [ 11.796195686733199, 44.409512409355699 ] } },
{ "type": "Feature", "properties": { "CodIstat": 109034, "AnnoBollettino": 2025, "Regione": "MARCHE ", "Prov": "FM", "Comune": "PORTO SANT'ELPIDIO", "INSETTI": 0, "UCCELLI": 2, "EQUIDI": 0, "AVICOLI": 0, "UOMO": 0 }, "geometry": { "type": "Point", "coordinates": [ 13.744941324484699, 43.255428812350594 ] } },
{ "type": "Feature", "properties": { "CodIstat": 35021, "AnnoBollettino": 2025, "Regione": "EMILIA ROMAGNA", "Prov": "RE", "Comune": "FABBRICO", "INSETTI": 1, "UCCELLI": 0, "EQUIDI": 0, "AVICOLI": 0, "UOMO": 0 }, "geometry": { "type": "Point", "coordinates": [ 10.8127732800645, 44.8758720173551 ] } },
{ "type": "Feature", "properties": { "CodIstat": 109027, "AnnoBollettino": 2025, "Regione": "MARCHE ", "Prov": "FM", "Comune": "MONTOTTONE", "INSETTI": 0, "UCCELLI": 1, "EQUIDI": 0, "AVICOLI": 0, "UOMO": 0 }, "geometry": { "type": "Point", "coordinates": [ 13.585048195144699, 43.070538635624004 ] } },
{ "type": "Feature", "properties": { "CodIstat": 15209, "AnnoBollettino": 2025, "Regione": "LOMBARDIA", "Prov": "MI", "Comune": "SESTO SAN GIOVANNI", "INSETTI": 0, "UCCELLI": 1, "EQUIDI": 0, "AVICOLI": 0, "UOMO": 0 }, "geometry": { "type": "Point", "coordinates": [ 9.242043367890579, 45.535178060583597 ] } },
{ "type": "Feature", "properties": { "CodIstat": 27007, "AnnoBollettino": 2025, "Regione": "VENETO", "Prov": "VE", "Comune": "CEGGIA", "INSETTI": 4, "UCCELLI": 0, "EQUIDI": 0, "AVICOLI": 0, "UOMO": 0 }, "geometry": { "type": "Point", "coordinates": [ 12.648711209116598, 45.683757838237398 ] } },
{ "type": "Feature", "properties": { "CodIstat": 28001, "AnnoBollettino": 2025, "Regione": "VENETO", "Prov": "PD", "Comune": "ABANO TERME", "INSETTI": 0, "UCCELLI": 1, "EQUIDI": 0, "AVICOLI": 0, "UOMO": 0 }, "geometry": { "type": "Point", "coordinates": [ 11.7931018772326, 45.358699944676999 ] } },
{ "type": "Feature", "properties": { "CodIstat": 18159, "AnnoBollettino": 2025, "Regione": "LOMBARDIA", "Prov": "PV", "Comune": "TORRE D'ISOLA", "INSETTI": 0, "UCCELLI": 1, "EQUIDI": 0, "AVICOLI": 0, "UOMO": 0 }, "geometry": { "type": "Point", "coordinates": [ 9.070296011292118, 45.224210072757799 ] } },
{ "type": "Feature", "properties": { "CodIstat": 16183, "AnnoBollettino": 2025, "Regione": "LOMBARDIA", "Prov": "BG", "Comune": "ROMANO DI LOMBARDIA", "INSETTI": 1, "UCCELLI": 0, "EQUIDI": 0, "AVICOLI": 0, "UOMO": 0 }, "geometry": { "type": "Point", "coordinates": [ 9.750730509849589, 45.5223749759528 ] } },
{ "type": "Feature", "properties": { "CodIstat": 23036, "AnnoBollettino": 2025, "Regione": "VENETO", "Prov": "VR", "Comune": "GARDA", "INSETTI": 0, "UCCELLI": 1, "EQUIDI": 0, "AVICOLI": 0, "UOMO": 0 }, "geometry": { "type": "Point", "coordinates": [ 10.687449372691299, 45.576575917625 ] } },
{ "type": "Feature", "properties": { "CodIstat": 99005, "AnnoBollettino": 2025, "Regione": "EMILIA ROMAGNA", "Prov": "RN", "Comune": "MISANO ADRIATICO", "INSETTI": 1, "UCCELLI": 0, "EQUIDI": 0, "AVICOLI": 0, "UOMO": 0 }, "geometry": { "type": "Point", "coordinates": [ 12.671553723944299, 43.962742859290898 ] } },
{ "type": "Feature", "properties": { "CodIstat": 12127, "AnnoBollettino": 2025, "Regione": "LOMBARDIA", "Prov": "VA", "Comune": "TRADATE", "INSETTI": 0, "UCCELLI": 1, "EQUIDI": 0, "AVICOLI": 0, "UOMO": 0 }, "geometry": { "type": "Point", "coordinates": [ 8.91789311735862, 45.715358114011195 ] } },
{ "type": "Feature", "properties": { "CodIstat": 15175, "AnnoBollettino": 2025, "Regione": "LOMBARDIA", "Prov": "MI", "Comune": "PIOLTELLO", "INSETTI": 0, "UCCELLI": 1, "EQUIDI": 0, "AVICOLI": 0, "UOMO": 0 }, "geometry": { "type": "Point", "coordinates": [ 9.32355489919944, 45.491123119322197 ] } },
{ "type": "Feature", "properties": { "CodIstat": 108035, "AnnoBollettino": 2025, "Regione": "LOMBARDIA", "Prov": "MB", "Comune": "NOVA MILANESE", "INSETTI": 0, "UCCELLI": 1, "EQUIDI": 0, "AVICOLI": 0, "UOMO": 0 }, "geometry": { "type": "Point", "coordinates": [ 9.196138219030599, 45.588562987337006 ] } },
{ "type": "Feature", "properties": { "CodIstat": 23032, "AnnoBollettino": 2025, "Regione": "VENETO", "Prov": "VR", "Comune": "ERBE'", "INSETTI": 2, "UCCELLI": 0, "EQUIDI": 0, "AVICOLI": 0, "UOMO": 0 }, "geometry": { "type": "Point", "coordinates": [ 10.973337361848699, 45.241646936677597 ] } },
{ "type": "Feature", "properties": { "CodIstat": 109018, "AnnoBollettino": 2025, "Regione": "MARCHE ", "Prov": "FM", "Comune": "MONTEGRANARO", "INSETTI": 0, "UCCELLI": 1, "EQUIDI": 0, "AVICOLI": 0, "UOMO": 0 }, "geometry": { "type": "Point", "coordinates": [ 13.6292146516458, 43.237340216426098 ] } },
{ "type": "Feature", "properties": { "CodIstat": 15125, "AnnoBollettino": 2025, "Regione": "LOMBARDIA", "Prov": "MI", "Comune": "LOCATE DI TRIULZI", "INSETTI": 0, "UCCELLI": 1, "EQUIDI": 0, "AVICOLI": 0, "UOMO": 0 }, "geometry": { "type": "Point", "coordinates": [ 9.2293031135669, 45.358117193735097 ] } },
{ "type": "Feature", "properties": { "CodIstat": 27026, "AnnoBollettino": 2025, "Regione": "VENETO", "Prov": "VE", "Comune": "NOALE", "INSETTI": 0, "UCCELLI": 1, "EQUIDI": 0, "AVICOLI": 0, "UOMO": 0 }, "geometry": { "type": "Point", "coordinates": [ 12.0676228520952, 45.553599766352598 ] } },
{ "type": "Feature", "properties": { "CodIstat": 28080, "AnnoBollettino": 2025, "Regione": "VENETO", "Prov": "PD", "Comune": "SANTA GIUSTINA IN COLLE", "INSETTI": 0, "UCCELLI": 2, "EQUIDI": 0, "AVICOLI": 0, "UOMO": 0 }, "geometry": { "type": "Point", "coordinates": [ 11.895423455637099, 45.577659243988002 ] } },
{ "type": "Feature", "properties": { "CodIstat": 15058, "AnnoBollettino": 2025, "Regione": "LOMBARDIA", "Prov": "MI", "Comune": "CASOREZZO", "INSETTI": 0, "UCCELLI": 1, "EQUIDI": 0, "AVICOLI": 0, "UOMO": 0 }, "geometry": { "type": "Point", "coordinates": [ 8.90735223590408, 45.526106831234301 ] } },
{ "type": "Feature", "properties": { "CodIstat": 13136, "AnnoBollettino": 2025, "Regione": "LOMBARDIA", "Prov": "CR", "Comune": "SORESINA", "INSETTI": 0, "UCCELLI": 1, "EQUIDI": 0, "AVICOLI": 0, "UOMO": 0 }, "geometry": { "type": "Point", "coordinates": [ 9.221103382926859, 45.756238475601798 ] } },
{ "type": "Feature", "properties": { "CodIstat": 24074, "AnnoBollettino": 2025, "Regione": "VENETO", "Prov": "VI", "Comune": "NOVENTA VICENTINA", "INSETTI": 1, "UCCELLI": 0, "EQUIDI": 0, "AVICOLI": 0, "UOMO": 0 }, "geometry": { "type": "Point", "coordinates": [ 11.558741487455199, 45.285320616683201 ] } },
{ "type": "Feature", "properties": { "CodIstat": 69002, "AnnoBollettino": 2025, "Regione": "ABRUZZO", "Prov": "CH", "Comune": "ARCHI", "INSETTI": 0, "UCCELLI": 1, "EQUIDI": 0, "AVICOLI": 0, "UOMO": 0 }, "geometry": { "type": "Point", "coordinates": [ 14.384685924838099, 42.081092551329398 ] } },
{ "type": "Feature", "properties": { "CodIstat": 15070, "AnnoBollettino": 2025, "Regione": "LOMBARDIA", "Prov": "MI", "Comune": "CERNUSCO SUL NAVIGLIO", "INSETTI": 0, "UCCELLI": 1, "EQUIDI": 0, "AVICOLI": 0, "UOMO": 0 }, "geometry": { "type": "Point", "coordinates": [ 9.332023503186779, 45.525980251187598 ] } },
{ "type": "Feature", "properties": { "CodIstat": 18150, "AnnoBollettino": 2025, "Regione": "LOMBARDIA", "Prov": "PV", "Comune": "SIZIANO", "INSETTI": 0, "UCCELLI": 1, "EQUIDI": 0, "AVICOLI": 0, "UOMO": 0 }, "geometry": { "type": "Point", "coordinates": [ 9.21067101707068, 45.311966815057801 ] } },
{ "type": "Feature", "properties": { "CodIstat": 15078, "AnnoBollettino": 2025, "Regione": "LOMBARDIA", "Prov": "MI", "Comune": "CISLIANO", "INSETTI": 0, "UCCELLI": 1, "EQUIDI": 0, "AVICOLI": 0, "UOMO": 0 }, "geometry": { "type": "Point", "coordinates": [ 8.98601595960881, 45.439054144830401 ] } },
{ "type": "Feature", "properties": { "CodIstat": 15219, "AnnoBollettino": 2025, "Regione": "LOMBARDIA", "Prov": "MI", "Comune": "TREZZANO ROSA", "INSETTI": 0, "UCCELLI": 2, "EQUIDI": 0, "AVICOLI": 0, "UOMO": 0 }, "geometry": { "type": "Point", "coordinates": [ 9.48203894201496, 45.584089997693098 ] } },
{ "type": "Feature", "properties": { "CodIstat": 13137, "AnnoBollettino": 2025, "Regione": "LOMBARDIA", "Prov": "CO", "Comune": "LURAGO MARINONE", "INSETTI": 0, "UCCELLI": 1, "EQUIDI": 0, "AVICOLI": 0, "UOMO": 0 }, "geometry": { "type": "Point", "coordinates": [ 8.975483272011399, 45.704588600269403 ] } },
{ "type": "Feature", "properties": { "CodIstat": 15201, "AnnoBollettino": 2025, "Regione": "LOMBARDIA", "Prov": "MI", "Comune": "SAN VITTORE OLONA", "INSETTI": 0, "UCCELLI": 1, "EQUIDI": 0, "AVICOLI": 0, "UOMO": 0 }, "geometry": { "type": "Point", "coordinates": [ 8.94320460559674, 45.582258275826298 ] } },
{ "type": "Feature", "properties": { "CodIstat": 24046, "AnnoBollettino": 2025, "Regione": "VENETO", "Prov": "VI", "Comune": "GRISIGNANO DI ZOCCO", "INSETTI": 2, "UCCELLI": 0, "EQUIDI": 0, "AVICOLI": 0, "UOMO": 0 }, "geometry": { "type": "Point", "coordinates": [ 11.703134462279099, 45.481941209545901 ] } },
{ "type": "Feature", "properties": { "CodIstat": 28086, "AnnoBollettino": 2025, "Regione": "VENETO", "Prov": "PD", "Comune": "SELVAZZANO DENTRO", "INSETTI": 0, "UCCELLI": 2, "EQUIDI": 0, "AVICOLI": 0, "UOMO": 0 }, "geometry": { "type": "Point", "coordinates": [ 11.789604950825298, 45.399492353004398 ] } },
{ "type": "Feature", "properties": { "CodIstat": 32003, "AnnoBollettino": 2025, "Regione": "FRIULI VENEZIA GIULIA", "Prov": "TS", "Comune": "MUGGIA", "INSETTI": 1, "UCCELLI": 0, "EQUIDI": 0, "AVICOLI": 0, "UOMO": 0 }, "geometry": { "type": "Point", "coordinates": [ 13.7756163567029, 45.596382763341701 ] } },
{ "type": "Feature", "properties": { "CodIstat": 28041, "AnnoBollettino": 2025, "Regione": "VENETO", "Prov": "PD", "Comune": "GAZZO", "INSETTI": 1, "UCCELLI": 0, "EQUIDI": 0, "AVICOLI": 0, "UOMO": 0 }, "geometry": { "type": "Point", "coordinates": [ 11.6930649110391, 45.566655064077999 ] } },
{ "type": "Feature", "properties": { "CodIstat": 42010, "AnnoBollettino": 2025, "Regione": "MARCHE ", "Prov": "AN", "Comune": "CASTELFIDARDO", "INSETTI": 3, "UCCELLI": 0, "EQUIDI": 0, "AVICOLI": 0, "UOMO": 0 }, "geometry": { "type": "Point", "coordinates": [ 13.5629424324284, 43.464403815405397 ] } },
{ "type": "Feature", "properties": { "CodIstat": 15171, "AnnoBollettino": 2025, "Regione": "LOMBARDIA", "Prov": "MI", "Comune": "PESCHIERA BORROMEO", "INSETTI": 0, "UCCELLI": 1, "EQUIDI": 0, "AVICOLI": 0, "UOMO": 0 }, "geometry": { "type": "Point", "coordinates": [ 9.3026536654104, 45.442456249329503 ] } },
{ "type": "Feature", "properties": { "CodIstat": 27009, "AnnoBollettino": 2025, "Regione": "VENETO", "Prov": "VE", "Comune": "CINTO CAOMAGGIORE", "INSETTI": 1, "UCCELLI": 0, "EQUIDI": 0, "AVICOLI": 0, "UOMO": 0 }, "geometry": { "type": "Point", "coordinates": [ 12.780139899713701, 45.821457448863001 ] } },
{ "type": "Feature", "properties": { "CodIstat": 42014, "AnnoBollettino": 2025, "Regione": "MARCHE ", "Prov": "AN", "Comune": "CHIARAVALLE", "INSETTI": 1, "UCCELLI": 0, "EQUIDI": 0, "AVICOLI": 0, "UOMO": 0 }, "geometry": { "type": "Point", "coordinates": [ 13.3243648467573, 43.607641335905399 ] } },
{ "type": "Feature", "properties": { "CodIstat": 23058, "AnnoBollettino": 2025, "Regione": "VENETO", "Prov": "VR", "Comune": "PESCANTINA", "INSETTI": 0, "UCCELLI": 1, "EQUIDI": 0, "AVICOLI": 0, "UOMO": 0 }, "geometry": { "type": "Point", "coordinates": [ 10.861071897813099, 45.490612837480697 ] } },
{ "type": "Feature", "properties": { "CodIstat": 15118, "AnnoBollettino": 2025, "Regione": "LOMBARDIA", "Prov": "MI", "Comune": "LEGNANO", "INSETTI": 0, "UCCELLI": 2, "EQUIDI": 0, "AVICOLI": 0, "UOMO": 0 }, "geometry": { "type": "Point", "coordinates": [ 8.907391831363389, 45.593643717936402 ] } },
{ "type": "Feature", "properties": { "CodIstat": 36039, "AnnoBollettino": 2025, "Regione": "EMILIA ROMAGNA", "Prov": "MO", "Comune": "SAN PROSPERO", "INSETTI": 1, "UCCELLI": 0, "EQUIDI": 0, "AVICOLI": 0, "UOMO": 0 }, "geometry": { "type": "Point", "coordinates": [ 11.032426590739099, 44.7894795088501 ] } },
{ "type": "Feature", "properties": { "CodIstat": 15139, "AnnoBollettino": 2025, "Regione": "LOMBARDIA", "Prov": "MI", "Comune": "MEDIGLIA", "INSETTI": 0, "UCCELLI": 1, "EQUIDI": 0, "AVICOLI": 0, "UOMO": 0 }, "geometry": { "type": "Point", "coordinates": [ 9.338479899925309, 45.4102029496065 ] } },
{ "type": "Feature", "properties": { "CodIstat": 43041, "AnnoBollettino": 2025, "Regione": "MARCHE ", "Prov": "MC", "Comune": "POTENZA PICENA", "INSETTI": 1, "UCCELLI": 0, "EQUIDI": 0, "AVICOLI": 0, "UOMO": 0 }, "geometry": { "type": "Point", "coordinates": [ 13.3539300477096, 43.262283711970198 ] } },
{ "type": "Feature", "properties": { "CodIstat": 23059, "AnnoBollettino": 2025, "Regione": "VENETO", "Prov": "VR", "Comune": "PESCHIERA DEL GARDA", "INSETTI": 0, "UCCELLI": 1, "EQUIDI": 0, "AVICOLI": 0, "UOMO": 0 }, "geometry": { "type": "Point", "coordinates": [ 10.6737574814046, 45.438444178468899 ] } },
{ "type": "Feature", "properties": { "CodIstat": 42018, "AnnoBollettino": 2025, "Regione": "MARCHE ", "Prov": "AN", "Comune": "FALCONARA MARITTIMA", "INSETTI": 1, "UCCELLI": 0, "EQUIDI": 0, "AVICOLI": 0, "UOMO": 0 }, "geometry": { "type": "Point", "coordinates": [ 13.373874244679198, 43.621233773758696 ] } },
{ "type": "Feature", "properties": { "CodIstat": 23062, "AnnoBollettino": 2025, "Regione": "VENETO", "Prov": "VR", "Comune": "RIVOLI VERONESE", "INSETTI": 0, "UCCELLI": 1, "EQUIDI": 0, "AVICOLI": 0, "UOMO": 0 }, "geometry": { "type": "Point", "coordinates": [ 10.810222064133699, 45.572739581784596 ] } },
{ "type": "Feature", "properties": { "CodIstat": 23082, "AnnoBollettino": 2025, "Regione": "VENETO", "Prov": "VR", "Comune": "SOMMACAMPAGNA", "INSETTI": 0, "UCCELLI": 1, "EQUIDI": 0, "AVICOLI": 0, "UOMO": 0 }, "geometry": { "type": "Point", "coordinates": [ 10.845251913390499, 45.4010431089756 ] } },
{ "type": "Feature", "properties": { "CodIstat": 61003, "AnnoBollettino": 2025, "Regione": "CAMPANIA", "Prov": "CE", "Comune": "ALVIGNANO", "INSETTI": 0, "UCCELLI": 1, "EQUIDI": 0, "AVICOLI": 0, "UOMO": 0 }, "geometry": { "type": "Point", "coordinates": [ 14.357889585128101, 41.243097367145296 ] } },
{ "type": "Feature", "properties": { "CodIstat": 24124, "AnnoBollettino": 2025, "Regione": "VENETO", "Prov": "VI", "Comune": "BARBARANO MOSSANO", "INSETTI": 5, "UCCELLI": 0, "EQUIDI": 0, "AVICOLI": 0, "UOMO": 0 }, "geometry": { "type": "Point", "coordinates": [ 11.564624054771601, 45.408795833360095 ] } },
{ "type": "Feature", "properties": { "CodIstat": 33035, "AnnoBollettino": 2025, "Regione": "EMILIA ROMAGNA", "Prov": "PC", "Comune": "PODENZANO", "INSETTI": 3, "UCCELLI": 0, "EQUIDI": 0, "AVICOLI": 0, "UOMO": 0 }, "geometry": { "type": "Point", "coordinates": [ 9.702114880107221, 44.970492510049802 ] } },
{ "type": "Feature", "properties": { "CodIstat": 17052, "AnnoBollettino": 2025, "Regione": "LOMBARDIA", "Prov": "BS", "Comune": "CHIARI", "INSETTI": 1, "UCCELLI": 0, "EQUIDI": 0, "AVICOLI": 0, "UOMO": 0 }, "geometry": { "type": "Point", "coordinates": [ 9.917972709396279, 45.533218151580002 ] } },
{ "type": "Feature", "properties": { "CodIstat": 34050, "AnnoBollettino": 2025, "Regione": "EMILIA ROMAGNA", "Prov": "PR", "Comune": "POLESINE ZIBELLO", "INSETTI": 1, "UCCELLI": 0, "EQUIDI": 0, "AVICOLI": 0, "UOMO": 0 }, "geometry": { "type": "Point", "coordinates": [ 10.117762833242399, 45.012793002116396 ] } },
{ "type": "Feature", "properties": { "CodIstat": 38028, "AnnoBollettino": 2025, "Regione": "EMILIA ROMAGNA", "Prov": "FE", "Comune": "TERRE DEL RENO", "INSETTI": 1, "UCCELLI": 0, "EQUIDI": 0, "AVICOLI": 0, "UOMO": 0 }, "geometry": { "type": "Point", "coordinates": [ 11.404598692778301, 44.806949129849095 ] } },
{ "type": "Feature", "properties": { "CodIstat": 23043, "AnnoBollettino": 2025, "Regione": "VENETO", "Prov": "VR", "Comune": "LAZISE", "INSETTI": 0, "UCCELLI": 1, "EQUIDI": 0, "AVICOLI": 0, "UOMO": 0 }, "geometry": { "type": "Point", "coordinates": [ 10.7106379583514, 45.485849810060692 ] } },
{ "type": "Feature", "properties": { "CodIstat": 41028, "AnnoBollettino": 2025, "Regione": "MARCHE ", "Prov": "PU", "Comune": "MONDAVIO", "INSETTI": 0, "UCCELLI": 2, "EQUIDI": 0, "AVICOLI": 0, "UOMO": 0 }, "geometry": { "type": "Point", "coordinates": [ 12.9703037500934, 43.668597727381801 ] } },
{ "type": "Feature", "properties": { "CodIstat": 35006, "AnnoBollettino": 2025, "Regione": "EMILIA ROMAGNA", "Prov": "RE", "Comune": "BRESCELLO", "INSETTI": 1, "UCCELLI": 1, "EQUIDI": 0, "AVICOLI": 0, "UOMO": 0 }, "geometry": { "type": "Point", "coordinates": [ 10.4907724984878, 44.883457535395898 ] } },
{ "type": "Feature", "properties": { "CodIstat": 67039, "AnnoBollettino": 2025, "Regione": "ABRUZZO", "Prov": "TE", "Comune": "SANT'OMERO", "INSETTI": 1, "UCCELLI": 0, "EQUIDI": 0, "AVICOLI": 0, "UOMO": 0 }, "geometry": { "type": "Point", "coordinates": [ 13.821473271974, 42.788901838244797 ] } },
{ "type": "Feature", "properties": { "CodIstat": 28064, "AnnoBollettino": 2025, "Regione": "VENETO", "Prov": "PD", "Comune": "PIOMBINO DESE", "INSETTI": 0, "UCCELLI": 1, "EQUIDI": 0, "AVICOLI": 0, "UOMO": 0 }, "geometry": { "type": "Point", "coordinates": [ 12.021241644254001, 45.619117583571494 ] } },
{ "type": "Feature", "properties": { "CodIstat": 36010, "AnnoBollettino": 2025, "Regione": "EMILIA ROMAGNA", "Prov": "MO", "Comune": "CONCORDIA SULLA SECCHIA", "INSETTI": 1, "UCCELLI": 0, "EQUIDI": 0, "AVICOLI": 0, "UOMO": 0 }, "geometry": { "type": "Point", "coordinates": [ 11.0014806899945, 44.9248645864105 ] } },
{ "type": "Feature", "properties": { "CodIstat": 54050, "AnnoBollettino": 2025, "Regione": "UMBRIA", "Prov": "PG", "Comune": "SPELLO", "INSETTI": 0, "UCCELLI": 1, "EQUIDI": 0, "AVICOLI": 0, "UOMO": 0 }, "geometry": { "type": "Point", "coordinates": [ 12.6654846916169, 43.004782373720097 ] } },
{ "type": "Feature", "properties": { "CodIstat": 91095, "AnnoBollettino": 2025, "Regione": "SARDEGNA", "Prov": "OG", "Comune": "TORTOLI'", "INSETTI": 0, "UCCELLI": 1, "EQUIDI": 0, "AVICOLI": 0, "UOMO": 0 }, "geometry": { "type": "Point", "coordinates": [ 9.664339306531049, 39.914457338093698 ] } },
{ "type": "Feature", "properties": { "CodIstat": 23052, "AnnoBollettino": 2025, "Regione": "VENETO", "Prov": "VR", "Comune": "NEGRAR", "INSETTI": 0, "UCCELLI": 1, "EQUIDI": 0, "AVICOLI": 0, "UOMO": 0 }, "geometry": { "type": "Point", "coordinates": [ 10.9526414745899, 45.538577468676998 ] } },
{ "type": "Feature", "properties": { "CodIstat": 34041, "AnnoBollettino": 2025, "Regione": "EMILIA ROMAGNA", "Prov": "PR", "Comune": "TORRILE", "INSETTI": 4, "UCCELLI": 0, "EQUIDI": 0, "AVICOLI": 0, "UOMO": 0 }, "geometry": { "type": "Point", "coordinates": [ 10.3427194183895, 44.901622096741001 ] } },
{ "type": "Feature", "properties": { "CodIstat": 28054, "AnnoBollettino": 2025, "Regione": "VENETO", "Prov": "PD", "Comune": "MESTRINO", "INSETTI": 0, "UCCELLI": 1, "EQUIDI": 0, "AVICOLI": 0, "UOMO": 0 }, "geometry": { "type": "Point", "coordinates": [ 11.748095395029098, 45.454807951264797 ] } },
{ "type": "Feature", "properties": { "CodIstat": 48019, "AnnoBollettino": 2025, "Regione": "TOSCANA", "Prov": "FI", "Comune": "FUCECCHIO", "INSETTI": 1, "UCCELLI": 0, "EQUIDI": 0, "AVICOLI": 0, "UOMO": 0 }, "geometry": { "type": "Point", "coordinates": [ 10.777595681915599, 43.764975687112198 ] } },
{ "type": "Feature", "properties": { "CodIstat": 33038, "AnnoBollettino": 2025, "Regione": "EMILIA ROMAGNA", "Prov": "PC", "Comune": "RIVERGARO", "INSETTI": 0, "UCCELLI": 3, "EQUIDI": 0, "AVICOLI": 0, "UOMO": 0 }, "geometry": { "type": "Point", "coordinates": [ 9.611694083912861, 44.916455484133003 ] } },
{ "type": "Feature", "properties": { "CodIstat": 36028, "AnnoBollettino": 2025, "Regione": "EMILIA ROMAGNA", "Prov": "MO", "Comune": "NOVI DI MODENA", "INSETTI": 1, "UCCELLI": 0, "EQUIDI": 0, "AVICOLI": 0, "UOMO": 0 }, "geometry": { "type": "Point", "coordinates": [ 10.929539560134801, 44.8736080921678 ] } },
{ "type": "Feature", "properties": { "CodIstat": 13075, "AnnoBollettino": 2025, "Regione": "LOMBARDIA", "Prov": "CO", "Comune": "COMO", "INSETTI": 0, "UCCELLI": 1, "EQUIDI": 0, "AVICOLI": 0, "UOMO": 0 }, "geometry": { "type": "Point", "coordinates": [ 9.080837058679519, 45.804256052117097 ] } },
{ "type": "Feature", "properties": { "CodIstat": 23096, "AnnoBollettino": 2025, "Regione": "VENETO", "Prov": "VR", "Comune": "VILLAFRANCA DI VERONA", "INSETTI": 1, "UCCELLI": 0, "EQUIDI": 0, "AVICOLI": 0, "UOMO": 0 }, "geometry": { "type": "Point", "coordinates": [ 10.849906533528799, 45.360002091923 ] } },
{ "type": "Feature", "properties": { "CodIstat": 48005, "AnnoBollettino": 2025, "Regione": "TOSCANA", "Prov": "FI", "Comune": "CALENZANO", "INSETTI": 0, "UCCELLI": 1, "EQUIDI": 0, "AVICOLI": 0, "UOMO": 0 }, "geometry": { "type": "Point", "coordinates": [ 11.1937766513851, 43.901451658545 ] } },
{ "type": "Feature", "properties": { "CodIstat": 37055, "AnnoBollettino": 2025, "Regione": "EMILIA ROMAGNA", "Prov": "BO", "Comune": "SAN PIETRO IN CASALE", "INSETTI": 3, "UCCELLI": 0, "EQUIDI": 0, "AVICOLI": 0, "UOMO": 0 }, "geometry": { "type": "Point", "coordinates": [ 11.4047038474878, 44.710535251827501 ] } },
{ "type": "Feature", "properties": { "CodIstat": 57016, "AnnoBollettino": 2025, "Regione": "LAZIO", "Prov": "RI", "Comune": "CITTADUCALE", "INSETTI": 0, "UCCELLI": 1, "EQUIDI": 0, "AVICOLI": 0, "UOMO": 0 }, "geometry": { "type": "Point", "coordinates": [ 12.967067944997501, 42.386881461361092 ] } },
{ "type": "Feature", "properties": { "CodIstat": 37001, "AnnoBollettino": 2025, "Regione": "EMILIA ROMAGNA", "Prov": "BO", "Comune": "ANZOLA DELL'EMILIA", "INSETTI": 2, "UCCELLI": 0, "EQUIDI": 0, "AVICOLI": 0, "UOMO": 0 }, "geometry": { "type": "Point", "coordinates": [ 11.193588749945, 44.565239405893003 ] } },
{ "type": "Feature", "properties": { "CodIstat": 27031, "AnnoBollettino": 2025, "Regione": "VENETO", "Prov": "VE", "Comune": "QUARTO D'ALTINO", "INSETTI": 1, "UCCELLI": 0, "EQUIDI": 0, "AVICOLI": 0, "UOMO": 0 }, "geometry": { "type": "Point", "coordinates": [ 12.4091049996814, 45.560585368067599 ] } },
{ "type": "Feature", "properties": { "CodIstat": 48010, "AnnoBollettino": 2025, "Regione": "TOSCANA", "Prov": "FI", "Comune": "CASTELFIORENTINO", "INSETTI": 0, "UCCELLI": 1, "EQUIDI": 0, "AVICOLI": 0, "UOMO": 0 }, "geometry": { "type": "Point", "coordinates": [ 10.959474314007601, 43.618502309760899 ] } },
{ "type": "Feature", "properties": { "CodIstat": 108033, "AnnoBollettino": 2025, "Regione": "LOMBARDIA", "Prov": "MB", "Comune": "MONZA", "INSETTI": 0, "UCCELLI": 1, "EQUIDI": 0, "AVICOLI": 0, "UOMO": 0 }, "geometry": { "type": "Point", "coordinates": [ 9.275798745873569, 45.585105533924796 ] } },
{ "type": "Feature", "properties": { "CodIstat": 26058, "AnnoBollettino": 2025, "Regione": "VENETO", "Prov": "TV", "Comune": "PONTE DI PIAVE", "INSETTI": 4, "UCCELLI": 0, "EQUIDI": 0, "AVICOLI": 0, "UOMO": 0 }, "geometry": { "type": "Point", "coordinates": [ 12.467183053227899, 45.731937593176795 ] } },
{ "type": "Feature", "properties": { "CodIstat": 33002, "AnnoBollettino": 2025, "Regione": "EMILIA ROMAGNA", "Prov": "PC", "Comune": "ALSENO", "INSETTI": 2, "UCCELLI": 1, "EQUIDI": 0, "AVICOLI": 0, "UOMO": 0 }, "geometry": { "type": "Point", "coordinates": [ 9.962480435888459, 44.887346305835599 ] } },
{ "type": "Feature", "properties": { "CodIstat": 26049, "AnnoBollettino": 2025, "Regione": "VENETO", "Prov": "TV", "Comune": "MOTTA DI LIVENZA", "INSETTI": 1, "UCCELLI": 0, "EQUIDI": 0, "AVICOLI": 0, "UOMO": 0 }, "geometry": { "type": "Point", "coordinates": [ 12.623012098975199, 45.766275083863903 ] } },
{ "type": "Feature", "properties": { "CodIstat": 26021, "AnnoBollettino": 2025, "Regione": "VENETO", "Prov": "TV", "Comune": "CONEGLIANO", "INSETTI": 0, "UCCELLI": 1, "EQUIDI": 0, "AVICOLI": 0, "UOMO": 0 }, "geometry": { "type": "Point", "coordinates": [ 12.2932731504999, 45.899349378189903 ] } },
{ "type": "Feature", "properties": { "CodIstat": 37024, "AnnoBollettino": 2025, "Regione": "EMILIA ROMAGNA", "Prov": "BO", "Comune": "CREVALCORE", "INSETTI": 1, "UCCELLI": 0, "EQUIDI": 0, "AVICOLI": 0, "UOMO": 0 }, "geometry": { "type": "Point", "coordinates": [ 11.185546837580398, 44.752535239426003 ] } },
{ "type": "Feature", "properties": { "CodIstat": 27002, "AnnoBollettino": 2025, "Regione": "VENETO", "Prov": "VE", "Comune": "CAMPAGNA LUPIA", "INSETTI": 3, "UCCELLI": 0, "EQUIDI": 0, "AVICOLI": 0, "UOMO": 0 }, "geometry": { "type": "Point", "coordinates": [ 12.167047255461901, 45.339964063377295 ] } },
{ "type": "Feature", "properties": { "CodIstat": 26086, "AnnoBollettino": 2025, "Regione": "VENETO", "Prov": "TV", "Comune": "TREVISO", "INSETTI": 0, "UCCELLI": 2, "EQUIDI": 0, "AVICOLI": 0, "UOMO": 0 }, "geometry": { "type": "Point", "coordinates": [ 12.2275914570445, 45.663825974991397 ] } },
{ "type": "Feature", "properties": { "CodIstat": 35020, "AnnoBollettino": 2025, "Regione": "EMILIA ROMAGNA", "Prov": "RE", "Comune": "CORREGGIO", "INSETTI": 2, "UCCELLI": 0, "EQUIDI": 0, "AVICOLI": 0, "UOMO": 0 }, "geometry": { "type": "Point", "coordinates": [ 10.765508493543498, 44.763274595976895 ] } },
{ "type": "Feature", "properties": { "CodIstat": 34051, "AnnoBollettino": 2025, "Regione": "EMILIA ROMAGNA", "Prov": "PR", "Comune": "SORBOLO", "INSETTI": 3, "UCCELLI": 0, "EQUIDI": 0, "AVICOLI": 0, "UOMO": 0 }, "geometry": { "type": "Point", "coordinates": [ 10.438795697218898, 44.887208664350403 ] } },
{ "type": "Feature", "properties": { "CodIstat": 34051, "AnnoBollettino": 2025, "Regione": "EMILIA ROMAGNA", "Prov": "RA", "Comune": "RUSSI", "INSETTI": 2, "UCCELLI": 0, "EQUIDI": 0, "AVICOLI": 0, "UOMO": 0 }, "geometry": { "type": "Point", "coordinates": [ 10.438795697218898, 44.887208664350403 ] } },
{ "type": "Feature", "properties": { "CodIstat": 59024, "AnnoBollettino": 2025, "Regione": "LAZIO", "Prov": "LT", "Comune": "SABAUDIA", "INSETTI": 1, "UCCELLI": 0, "EQUIDI": 0, "AVICOLI": 0, "UOMO": 0 }, "geometry": { "type": "Point", "coordinates": [ 13.030410398589099, 41.343401429194202 ] } },
{ "type": "Feature", "properties": { "CodIstat": 37037, "AnnoBollettino": 2025, "Regione": "EMILIA ROMAGNA", "Prov": "BO", "Comune": "MEDICINA", "INSETTI": 2, "UCCELLI": 0, "EQUIDI": 0, "AVICOLI": 0, "UOMO": 0 }, "geometry": { "type": "Point", "coordinates": [ 11.668823829495, 44.514217264283694 ] } },
{ "type": "Feature", "properties": { "CodIstat": 39001, "AnnoBollettino": 2025, "Regione": "EMILIA ROMAGNA", "Prov": "RA", "Comune": "ALFONSINE", "INSETTI": 1, "UCCELLI": 0, "EQUIDI": 0, "AVICOLI": 0, "UOMO": 0 }, "geometry": { "type": "Point", "coordinates": [ 12.003283464415002, 44.544822959690599 ] } },
{ "type": "Feature", "properties": { "CodIstat": 42034, "AnnoBollettino": 2025, "Regione": "MARCHE ", "Prov": "AN", "Comune": "OSIMO", "INSETTI": 1, "UCCELLI": 0, "EQUIDI": 0, "AVICOLI": 0, "UOMO": 0 }, "geometry": { "type": "Point", "coordinates": [ 13.4618240806294, 43.484320625401899 ] } },
{ "type": "Feature", "properties": { "CodIstat": 27019, "AnnoBollettino": 2025, "Regione": "VENETO", "Prov": "VE", "Comune": "JESOLO", "INSETTI": 2, "UCCELLI": 1, "EQUIDI": 0, "AVICOLI": 0, "UOMO": 0 }, "geometry": { "type": "Point", "coordinates": [ 12.6332397645653, 45.534786565212293 ] } },
{ "type": "Feature", "properties": { "CodIstat": 41013, "AnnoBollettino": 2025, "Regione": "MARCHE ", "Prov": "PU", "Comune": "FANO", "INSETTI": 0, "UCCELLI": 5, "EQUIDI": 0, "AVICOLI": 0, "UOMO": 0 }, "geometry": { "type": "Point", "coordinates": [ 12.994693299492701, 43.812313752594299 ] } },
{ "type": "Feature", "properties": { "CodIstat": 42021, "AnnoBollettino": 2025, "Regione": "MARCHE ", "Prov": "AN", "Comune": "JESI", "INSETTI": 1, "UCCELLI": 0, "EQUIDI": 0, "AVICOLI": 0, "UOMO": 0 }, "geometry": { "type": "Point", "coordinates": [ 13.2614033090363, 43.5166080737295 ] } },
{ "type": "Feature", "properties": { "CodIstat": 95065, "AnnoBollettino": 2025, "Regione": "SARDEGNA", "Prov": "OR", "Comune": "TERRALBA", "INSETTI": 0, "UCCELLI": 1, "EQUIDI": 0, "AVICOLI": 0, "UOMO": 0 }, "geometry": { "type": "Point", "coordinates": [ 8.592052239788709, 39.714999617826599 ] } },
{ "type": "Feature", "properties": { "CodIstat": 111042, "AnnoBollettino": 2025, "Regione": "SARDEGNA", "Prov": "SU", "Comune": "MURAVERA", "INSETTI": 1, "UCCELLI": 0, "EQUIDI": 0, "AVICOLI": 0, "UOMO": 0 }, "geometry": { "type": "Point", "coordinates": [ 9.575908995203729, 39.342682845385397 ] } },
{ "type": "Feature", "properties": { "CodIstat": 33032, "AnnoBollettino": 2025, "Regione": "EMILIA ROMAGNA", "Prov": "PC", "Comune": "PIACENZA", "INSETTI": 3, "UCCELLI": 0, "EQUIDI": 0, "AVICOLI": 0, "UOMO": 0 }, "geometry": { "type": "Point", "coordinates": [ 9.71772095871914, 45.041432192077302 ] } },
{ "type": "Feature", "properties": { "CodIstat": 38014, "AnnoBollettino": 2025, "Regione": "EMILIA ROMAGNA", "Prov": "FE", "Comune": "MESOLA", "INSETTI": 1, "UCCELLI": 0, "EQUIDI": 0, "AVICOLI": 0, "UOMO": 0 }, "geometry": { "type": "Point", "coordinates": [ 12.218805650858199, 44.899744326994295 ] } },
{ "type": "Feature", "properties": { "CodIstat": 29001, "AnnoBollettino": 2025, "Regione": "VENETO", "Prov": "RO", "Comune": "ADRIA", "INSETTI": 1, "UCCELLI": 0, "EQUIDI": 0, "AVICOLI": 0, "UOMO": 0 }, "geometry": { "type": "Point", "coordinates": [ 12.045125302096299, 45.056902096387198 ] } },
{ "type": "Feature", "properties": { "CodIstat": 37008, "AnnoBollettino": 2025, "Regione": "EMILIA ROMAGNA", "Prov": "BO", "Comune": "BUDRIO", "INSETTI": 2, "UCCELLI": 0, "EQUIDI": 0, "AVICOLI": 0, "UOMO": 0 }, "geometry": { "type": "Point", "coordinates": [ 11.5460307609453, 44.562629490103404 ] } },
{ "type": "Feature", "properties": { "CodIstat": 65050, "AnnoBollettino": 2025, "Regione": "CAMPANIA", "Prov": "SA", "Comune": "EBOLI", "INSETTI": 1, "UCCELLI": 1, "EQUIDI": 0, "AVICOLI": 0, "UOMO": 0 }, "geometry": { "type": "Point", "coordinates": [ 15.0050460101093, 40.5619660830573 ] } },
{ "type": "Feature", "properties": { "CodIstat": 27033, "AnnoBollettino": 2025, "Regione": "VENETO", "Prov": "VE", "Comune": "SAN DONA' DI PIAVE", "INSETTI": 0, "UCCELLI": 1, "EQUIDI": 0, "AVICOLI": 0, "UOMO": 0 }, "geometry": { "type": "Point", "coordinates": [ 12.5968637846706, 45.627599149907695 ] } },
{ "type": "Feature", "properties": { "CodIstat": 95038, "AnnoBollettino": 2025, "Regione": "SARDEGNA", "Prov": "OR", "Comune": "ORISTANO", "INSETTI": 0, "UCCELLI": 1, "EQUIDI": 0, "AVICOLI": 0, "UOMO": 0 }, "geometry": { "type": "Point", "coordinates": [ 8.61448505945463, 39.9092333973744 ] } },
{ "type": "Feature", "properties": { "CodIstat": 91085, "AnnoBollettino": 2025, "Regione": "SARDEGNA", "Prov": "NU", "Comune": "SINISCOLA", "INSETTI": 1, "UCCELLI": 0, "EQUIDI": 0, "AVICOLI": 0, "UOMO": 0 }, "geometry": { "type": "Point", "coordinates": [ 9.716395293110061, 40.541554839852395 ] } },
{ "type": "Feature", "properties": { "CodIstat": 34027, "AnnoBollettino": 2025, "Regione": "EMILIA ROMAGNA", "Prov": "PR", "Comune": "PARMA", "INSETTI": 2, "UCCELLI": 0, "EQUIDI": 0, "AVICOLI": 0, "UOMO": 0 }, "geometry": { "type": "Point", "coordinates": [ 10.327462891317898, 44.793647731625803 ] } },
{ "type": "Feature", "properties": { "CodIstat": 109006, "AnnoBollettino": 2025, "Regione": "MARCHE ", "Prov": "FM", "Comune": "FERMO", "INSETTI": 0, "UCCELLI": 2, "EQUIDI": 0, "AVICOLI": 0, "UOMO": 0 }, "geometry": { "type": "Point", "coordinates": [ 13.716960730257901, 43.160765885003698 ] } },
{ "type": "Feature", "properties": { "CodIstat": 37006, "AnnoBollettino": 2025, "Regione": "EMILIA ROMAGNA", "Prov": "BO", "Comune": "BOLOGNA", "INSETTI": 2, "UCCELLI": 12, "EQUIDI": 0, "AVICOLI": 0, "UOMO": 0 }, "geometry": { "type": "Point", "coordinates": [ 11.333127652343, 44.498090179061499 ] } },
{ "type": "Feature", "properties": { "CodIstat": 15146, "AnnoBollettino": 2025, "Regione": "LOMBARDIA", "Prov": "MI", "Comune": "MILANO", "INSETTI": 0, "UCCELLI": 2, "EQUIDI": 0, "AVICOLI": 0, "UOMO": 0 }, "geometry": { "type": "Point", "coordinates": [ 9.172785230362569, 45.468428927055093 ] } },
{ "type": "Feature", "properties": { "CodIstat": 53023, "AnnoBollettino": 2025, "Regione": "TOSCANA", "Prov": "GR", "Comune": "SCANSANO", "INSETTI": 1, "UCCELLI": 0, "EQUIDI": 0, "AVICOLI": 0, "UOMO": 0 }, "geometry": { "type": "Point", "coordinates": [ 11.3529760047506, 42.711057982320895 ] } },
{ "type": "Feature", "properties": { "CodIstat": 23091, "AnnoBollettino": 2025, "Regione": "VENETO", "Prov": "VR", "Comune": "VERONA", "INSETTI": 2, "UCCELLI": 1, "EQUIDI": 0, "AVICOLI": 0, "UOMO": 0 }, "geometry": { "type": "Point", "coordinates": [ 11.002036092524801, 45.448687591484202 ] } },
{ "type": "Feature", "properties": { "CodIstat": 41044, "AnnoBollettino": 2025, "Regione": "MARCHE ", "Prov": "PU", "Comune": "PESARO", "INSETTI": 1, "UCCELLI": 0, "EQUIDI": 0, "AVICOLI": 0, "UOMO": 0 }, "geometry": { "type": "Point", "coordinates": [ 12.8553212063311, 43.872968940253003 ] } },
{ "type": "Feature", "properties": { "CodIstat": 55032, "AnnoBollettino": 2025, "Regione": "UMBRIA", "Prov": "TR", "Comune": "TERNI", "INSETTI": 0, "UCCELLI": 1, "EQUIDI": 0, "AVICOLI": 0, "UOMO": 0 }, "geometry": { "type": "Point", "coordinates": [ 12.6604667146047, 42.579597444251 ] } },
{ "type": "Feature", "properties": { "CodIstat": 40012, "AnnoBollettino": 2025, "Regione": "EMILIA ROMAGNA", "Prov": "FC", "Comune": "FORLI'", "INSETTI": 3, "UCCELLI": 0, "EQUIDI": 0, "AVICOLI": 0, "UOMO": 0 }, "geometry": { "type": "Point", "coordinates": [ 12.0496763611101, 44.2274403019399 ] } },
{ "type": "Feature", "properties": { "CodIstat": 99014, "AnnoBollettino": 2025, "Regione": "EMILIA ROMAGNA", "Prov": "RN", "Comune": "RIMINI", "INSETTI": 0, "UCCELLI": 51, "EQUIDI": 0, "AVICOLI": 0, "UOMO": 0 }, "geometry": { "type": "Point", "coordinates": [ 12.5298344767355, 44.038738507588292 ] } },
{ "type": "Feature", "properties": { "CodIstat": 29041, "AnnoBollettino": 2025, "Regione": "VENETO", "Prov": "RO", "Comune": "ROVIGO", "INSETTI": 0, "UCCELLI": 1, "EQUIDI": 0, "AVICOLI": 0, "UOMO": 0 }, "geometry": { "type": "Point", "coordinates": [ 11.7948692960681, 45.069642783740697 ] } },
{ "type": "Feature", "properties": { "CodIstat": 38001, "AnnoBollettino": 2025, "Regione": "EMILIA ROMAGNA", "Prov": "FE", "Comune": "ARGENTA", "INSETTI": 4, "UCCELLI": 0, "EQUIDI": 0, "AVICOLI": 0, "UOMO": 0 }, "geometry": { "type": "Point", "coordinates": [ 11.888851157523899, 44.622275887974794 ] } },
{ "type": "Feature", "properties": { "CodIstat": 27042, "AnnoBollettino": 2025, "Regione": "VENETO", "Prov": "VE", "Comune": "VENEZIA", "INSETTI": 0, "UCCELLI": 3, "EQUIDI": 0, "AVICOLI": 0, "UOMO": 0 }, "geometry": { "type": "Point", "coordinates": [ 12.345387412151398, 45.467668489647593 ] } },
{ "type": "Feature", "properties": { "CodIstat": 53011, "AnnoBollettino": 2025, "Regione": "TOSCANA", "Prov": "GR", "Comune": "GROSSETO", "INSETTI": 1, "UCCELLI": 3, "EQUIDI": 0, "AVICOLI": 0, "UOMO": 0 }, "geometry": { "type": "Point", "coordinates": [ 11.0900245636594, 42.767098872256099 ] } },
{ "type": "Feature", "properties": { "CodIstat": 39014, "AnnoBollettino": 2025, "Regione": "EMILIA ROMAGNA", "Prov": "RA", "Comune": "RAVENNA", "INSETTI": 11, "UCCELLI": 1, "EQUIDI": 0, "AVICOLI": 0, "UOMO": 0 }, "geometry": { "type": "Point", "coordinates": [ 12.193702488254701, 44.413713999004202 ] } },
{ "type": "Feature", "properties": { "CodIstat": 37032, "AnnoBollettino": 2025, "Regione": "EMILIA ROMAGNA", "Prov": "BO", "Comune": "IMOLA", "INSETTI": 3, "UCCELLI": 1, "EQUIDI": 0, "AVICOLI": 0, "UOMO": 0 }, "geometry": { "type": "Point", "coordinates": [ 11.715596603939499, 44.387760176577103 ] } },
{ "type": "Feature", "properties": { "CodIstat": 38008, "AnnoBollettino": 2025, "Regione": "EMILIA ROMAGNA", "Prov": "FE", "Comune": "FERRARA", "INSETTI": 2, "UCCELLI": 0, "EQUIDI": 0, "AVICOLI": 0, "UOMO": 0 }, "geometry": { "type": "Point", "coordinates": [ 11.6491480391149, 44.822900194802195 ] } },
{ "type": "Feature", "properties": { "CodIstat": 36023, "AnnoBollettino": 2025, "Regione": "EMILIA ROMAGNA", "Prov": "MO", "Comune": "MODENA", "INSETTI": 2, "UCCELLI": 1, "EQUIDI": 0, "AVICOLI": 0, "UOMO": 0 }, "geometry": { "type": "Point", "coordinates": [ 10.9153434251707, 44.644083502422092 ] } },
{ "type": "Feature", "properties": { "CodIstat": 54039, "AnnoBollettino": 2025, "Regione": "UMBRIA", "Prov": "PG", "Comune": "PERUGIA", "INSETTI": 0, "UCCELLI": 3, "EQUIDI": 0, "AVICOLI": 0, "UOMO": 0 }, "geometry": { "type": "Point", "coordinates": [ 12.3946227022664, 43.136366791291692 ] } }
]
}
